Date,Time,Latitude,Longitude,Depth,MD,ML,Mw,Location
2025.03.01,00:11:43,36.6703,25.8283,8.0,,2.8,,EGE DENIZI İlksel
2025.03.01,00:13:31,42.2867,36.3488,5.0,,2.4,,KARADENIZ İlksel
2025.03.01,00:40:09,39.4600,37.3157,5.4,,1.3,,SENYURT-ULAS (SIVAS) İlksel
2025.03.01,00:58:45,37.7767,36.5373,9.4,,1.9,,KAYNAR-(KAHRAMANMARAS) İlksel
2025.03.01,01:16:41,34.7395,36.5250,5.0,,2.2,,SURIYE İlksel
2025.03.01,01:40:17,37.6322,36.0400,10.2,,1.8,,BOZTAHTA-KOZAN (ADANA) İlksel
2025.03.01,01:47:18,36.6230,25.4850,13.6,,2.6,,EGE DENIZI İlksel
2025.03.01,02:18:13,40.6100,28.9593,10.8,,2.8,,ESENKOY-CINARCIK (YALOVA) İlksel
2025.03.01,02:34:49,38.2345,37.9965,7.7,,2.3,,DEDEKOY-AKCADAG (MALATYA) İlksel
2025.03.01,02:55:31,40.5222,34.5578,12.4,,1.7,,HACIAHMETDERESI-(CORUM) İlksel
2025.03.01,03:12:09,38.2033,38.0147,5.4,,1.3,,SUCATI-DOGANSEHIR (MALATYA) İlksel
2025.03.01,03:23:06,36.2955,28.1613,5.2,,1.3,,RODOS ADASI (AKDENIZ) İlksel
2025.03.01,03:41:48,36.6268,25.6535,5.4,,3.2,3.2,EGE DENIZI İlksel
2025.03.01,04:06:13,38.8340,40.3673,9.6,,1.3,,BALPINAR-(BINGOL) İlksel
2025.03.01,04:07:33,40.3282,24.0952,13.9,,2.0,,YUNANISTAN İlksel
2025.03.01,04:32:35,37.4432,34.1892,6.7,,1.5,,HALKAPINAR (KONYA) İlksel
2025.03.01,05:07:28,37.8585,36.6607,10.3,,1.9,,DONGEL-(KAHRAMANMARAS) İlksel
2025.03.01,05:30:54,36.5482,25.4522,14.7,,2.3,,EGE DENIZI İlksel
2025.03.01,05:55:08,37.5815,36.0658,3.9,,1.6,,CICEKLIDERE-SUMBAS (OSMANIYE) İlksel
2025.03.01,06:04:21,36.6312,25.4295,5.3,,2.0,,EGE DENIZI İlksel
2025.03.01,06:24:38,36.6178,25.4892,8.3,,2.4,,EGE DENIZI İlksel
2025.03.01,07:02:44,41.1382,25.2705,5.4,,2.2,,YUNANISTAN İlksel
2025.03.01,07:15:12,36.6270,25.5240,10.9,,2.3,,EGE DENIZI İlksel
2025.03.01,07:17:53,36.6243,25.4340,14.7,,1.8,,EGE DENIZI İlksel
2025.03.01,07:24:05,39.3715,40.6050,5.1,,1.7,,ELMALI-YEDISU (BINGOL) İlksel
2025.03.01,08:22:21,36.5938,25.5827,9.0,,2.4,,EGE DENIZI İlksel
2025.03.01,09:06:02,40.7875,30.9767,12.4,,1.8,,YAZLIK-GOLYAKA (DUZCE) İlksel
2025.03.01,09:18:26,36.6875,25.6785,2.8,,1.9,,EGE DENIZI İlksel
2025.03.01,09:55:33,36.6235,25.5257,10.1,,2.1,,EGE DENIZI İlksel
2025.03.01,10:36:39,38.8447,26.8180,15.3,,1.7,,CANDARLI KORFEZI (EGE DENIZI) İlksel
2025.03.01,10:48:43,36.7127,25.5337,4.6,,2.5,,EGE DENIZI İlksel
2025.03.01,10:52:01,35.5473,26.2885,51.5,,2.3,,GIRIT ADASI (AKDENIZ) İlksel
2025.03.01,10:54:50,38.8043,40.0765,4.1,,2.2,,KARASUNGUR-KOVANCILAR (ELAZIG) İlksel
2025.03.01,10:57:17,40.1883,31.7555,7.8,,2.2,,HIRKATEPE-BEYPAZARI (ANKARA) İlksel
2025.03.01,12:24:04,40.1593,32.9723,7.6,,1.7,,SIGIRLIHACI-CUBUK (ANKARA) İlksel
2025.03.01,12:44:11,39.7808,24.1315,26.0,,2.7,,YUNANISTAN İlksel
2025.03.01,12:49:09,39.8140,24.1582,23.0,,2.4,,YUNANISTAN İlksel
2025.03.01,13:10:01,39.2968,41.7880,9.4,,2.8,,BAYIRKOY-HINIS (ERZURUM) İlksel
2025.03.01,13:11:34,39.4922,28.1808,7.7,,2.0,,ISKELE-BIGADIC (BALIKESIR) İlksel
2025.03.01,13:17:09,38.2550,37.3510,5.0,,2.8,,GUNDERE-ELBISTAN (KAHRAMANMARAS) İlksel
2025.03.01,13:31:36,39.3717,29.3152,9.8,,1.3,,CALCAAGIL-EMET (KUTAHYA) İlksel
2025.03.01,13:51:40,36.6097,25.7942,5.0,,2.0,,EGE DENIZI İlksel
2025.03.01,14:21:02,36.6327,25.5567,5.0,,2.2,,EGE DENIZI İlksel
2025.03.01,14:32:58,36.7020,25.6158,4.7,,3.4,3.3,EGE DENIZI İlksel
2025.03.01,15:19:39,38.9945,30.0607,5.0,,2.5,,MECIDIYE-ALTINTAS (KUTAHYA) İlksel
2025.03.01,15:39:46,36.5245,36.3858,6.4,,2.9,,ILIKPINAR-KIRIKHAN (HATAY) İlksel
2025.03.01,15:59:42,36.5425,29.5583,19.4,,2.3,,CEMRE-KAS (ANTALYA) İlksel
2025.03.01,16:34:45,36.6850,25.5450,10.6,,2.3,,EGE DENIZI İlksel
2025.03.01,17:39:57,39.8353,33.0218,5.3,,1.3,,MAMAK (ANKARA) İlksel
2025.03.01,19:28:30,38.1273,36.7982,5.1,,1.7,,DEVEBOYNU-AFSIN (KAHRAMANMARAS) İlksel
2025.03.01,20:14:07,39.3928,32.8650,7.9,,1.6,,CIMSIT-GOLBASI (ANKARA) İlksel
2025.03.01,20:31:22,36.6885,25.6788,11.4,,2.4,,EGE DENIZI İlksel
2025.03.01,20:39:19,38.3428,26.6982,14.2,,1.6,,URLA (IZMIR) İlksel
2025.03.01,21:41:07,38.4073,37.4923,1.8,,2.0,,SUGUL-DARENDE (MALATYA) İlksel
2025.03.01,22:10:43,36.1468,28.1940,11.6,,1.6,,AKDENIZ İlksel
2025.03.01,22:45:19,37.8480,36.3082,1.9,,2.7,,PAYAMBURNU-GOKSUN (KAHRAMANMARAS) İlksel
2025.03.01,23:14:56,39.4012,26.1473,7.9,,2.0,,MIDILLI ADASI (EGE DENIZI) İlksel
2025.03.02,00:54:20,37.7450,35.5755,5.3,,1.7,,KAPIKAYA-KOZAN (ADANA) İlksel
2025.03.02,01:07:34,36.6635,25.6313,14.5,,2.7,,EGE DENIZI İlksel
2025.03.02,01:37:35,38.2492,38.7325,5.0,,2.9,,BALPINARI-PUTURGE (MALATYA) İlksel
2025.03.02,01:38:26,36.6440,25.5505,24.6,,2.4,,EGE DENIZI İlksel
2025.03.02,02:02:36,36.5943,29.6425,12.3,,1.9,,YESILBARAK-KAS (ANTALYA) İlksel
2025.03.02,02:17:16,35.6092,26.2980,13.6,,2.4,,EGE DENIZI İlksel
2025.03.02,02:47:38,39.7480,26.4272,13.5,,1.5,,CETMI-EZINE (CANAKKALE) İlksel
2025.03.02,03:08:19,36.6237,25.4768,11.2,,1.9,,EGE DENIZI İlksel
2025.03.02,03:12:38,38.2247,38.7658,5.4,,2.1,,ORMANICI-PUTURGE (MALATYA) İlksel
2025.03.02,03:41:43,36.6878,25.4610,14.5,,2.3,,EGE DENIZI İlksel
2025.03.02,03:53:41,39.0130,28.1070,10.9,,1.7,,DAGDERE-AKHISAR (MANISA) İlksel
2025.03.02,04:27:27,35.8920,27.2103,7.9,,1.4,,EGE DENIZI İlksel
2025.03.02,04:35:44,37.4157,37.1303,9.0,,1.7,,DOGANLI-PAZARCIK (KAHRAMANMARAS) İlksel
2025.03.02,04:55:11,37.1682,28.8428,16.5,,0.9,,BEYAGAC (DENIZLI) İlksel
2025.03.02,04:59:31,36.6765,25.5090,12.5,,2.6,,EGE DENIZI İlksel
2025.03.02,05:01:51,36.6552,25.4912,7.6,,1.8,,EGE DENIZI İlksel
2025.03.02,05:14:00,36.6863,25.6702,10.5,,2.2,,EGE DENIZI İlksel
2025.03.02,05:18:54,40.7007,29.1593,12.5,,1.5,,KORU-CINARCIK (YALOVA) İlksel
2025.03.02,05:29:54,39.1690,29.0063,6.9,,2.4,,KARACAOREN-SIMAV (KUTAHYA) İlksel
2025.03.02,05:41:32,35.9357,25.3387,5.3,,2.7,,EGE DENIZI İlksel
2025.03.02,05:49:32,38.8335,37.5093,5.0,,1.9,,BAGLICAY-GURUN (SIVAS) İlksel
2025.03.02,06:00:14,36.7022,25.5292,10.8,,2.1,,EGE DENIZI İlksel
2025.03.02,06:04:39,36.6982,25.5753,10.7,,1.8,,EGE DENIZI İlksel
2025.03.02,06:21:09,36.6730,25.7082,8.9,,2.1,,EGE DENIZI İlksel
2025.03.02,06:33:06,40.6912,29.1640,10.2,,1.6,,KORU-CINARCIK (YALOVA) İlksel
2025.03.02,06:52:28,36.4927,25.4628,11.7,,2.3,,EGE DENIZI İlksel
2025.03.02,07:05:03,35.6035,26.2548,13.2,,2.4,,EGE DENIZI İlksel
2025.03.02,07:17:40,38.8043,37.9502,2.0,,2.3,,HEKIMHAN (MALATYA) İlksel
2025.03.02,07:22:59,35.6187,26.3955,11.7,,2.6,,EGE DENIZI İlksel
2025.03.02,07:44:39,37.8180,36.4828,6.6,,2.0,,GEBEN-ANDIRIN (KAHRAMANMARAS) İlksel
2025.03.02,07:48:13,35.6050,26.3687,14.6,,2.6,,EGE DENIZI İlksel
2025.03.02,07:49:34,36.6247,25.9318,18.4,,1.9,,EGE DENIZI İlksel
2025.03.02,08:01:28,36.6978,25.4692,6.9,,1.6,,EGE DENIZI İlksel
2025.03.02,08:07:58,40.2685,28.0415,5.0,,1.6,,DOGRUCA-BANDIRMA (BALIKESIR) İlksel
2025.03.02,09:01:59,38.7855,38.0013,8.7,,2.0,,DUMLU-HEKIMHAN (MALATYA) İlksel
2025.03.02,09:36:36,38.7818,43.5530,18.3,,1.8,,DEGIRMENOZU-(VAN) İlksel
2025.03.02,10:10:09,39.1230,28.9727,9.7,,1.9,,YESILOVA-SIMAV (KUTAHYA) İlksel
2025.03.02,10:26:10,35.6210,26.3892,9.2,,2.9,,EGE DENIZI İlksel
