Date,Time,Latitude,Longitude,Depth,MD,ML,Mw,Location
2025.03.01,00:11:43,36.6703,25.8283,8.0,,2.8,,EGE DENIZI İlksel
2025.03.01,00:13:31,42.2867,36.3488,5.0,,2.4,,KARADENIZ İlksel
2025.03.01,00:40:09,39.4600,37.3157,5.4,,1.3,,SENYURT-ULAS (SIVAS) İlksel
2025.03.01,00:58:45,37.7767,36.5373,9.4,,1.9,,KAYNAR-(KAHRAMANMARAS) İlksel
2025.03.01,01:16:41,34.7395,36.5250,5.0,,2.2,,SURIYE İlksel
2025.03.01,01:40:17,37.6322,36.0400,10.2,,1.8,,BOZTAHTA-KOZAN (ADANA) İlksel
2025.03.01,01:47:18,36.6230,25.4850,13.6,,2.6,,EGE DENIZI İlksel
2025.03.01,02:18:13,40.6100,28.9593,10.8,,2.8,,ESENKOY-CINARCIK (YALOVA) İlksel
2025.03.01,02:34:49,38.2345,37.9965,7.7,,2.3,,DEDEKOY-AKCADAG (MALATYA) İlksel
2025.03.01,02:55:31,40.5222,34.5578,12.4,,1.7,,HACIAHMETDERESI-(CORUM) İlksel
2025.03.01,03:12:09,38.2033,38.0147,5.4,,1.3,,SUCATI-DOGANSEHIR (MALATYA) İlksel
2025.03.01,03:23:06,36.2955,28.1613,5.2,,1.3,,RODOS ADASI (AKDENIZ) İlksel
2025.03.01,03:41:48,36.6268,25.6535,5.4,,3.2,3.2,EGE DENIZI İlksel
2025.03.01,04:06:13,38.8340,40.3673,9.6,,1.3,,BALPINAR-(BINGOL) İlksel
2025.03.01,04:07:33,40.3282,24.0952,13.9,,2.0,,YUNANISTAN İlksel
2025.03.01,04:32:35,37.4432,34.1892,6.7,,1.5,,HALKAPINAR (KONYA) İlksel
2025.03.01,05:07:28,37.8585,36.6607,10.3,,1.9,,DONGEL-(KAHRAMANMARAS) İlksel
2025.03.01,05:30:54,36.5482,25.4522,14.7,,2.3,,EGE DENIZI İlksel
2025.03.01,05:55:08,37.5815,36.0658,3.9,,1.6,,CICEKLIDERE-SUMBAS (OSMANIYE) İlksel
2025.03.01,06:04:21,36.6312,25.4295,5.3,,2.0,,EGE DENIZI İlksel
2025.03.01,06:24:38,36.6178,25.4892,8.3,,2.4,,EGE DENIZI İlksel
2025.03.01,07:02:44,41.1382,25.2705,5.4,,2.2,,YUNANISTAN İlksel
2025.03.01,07:15:12,36.6270,25.5240,10.9,,2.3,,EGE DENIZI İlksel
2025.03.01,07:17:53,36.6243,25.4340,14.7,,1.8,,EGE DENIZI İlksel
2025.03.01,07:24:05,39.3715,40.6050,5.1,,1.7,,ELMALI-YEDISU (BINGOL) İlksel
2025.03.01,08:22:21,36.5938,25.5827,9.0,,2.4,,EGE DENIZI İlksel
2025.03.01,09:06:02,40.7875,30.9767,12.4,,1.8,,YAZLIK-GOLYAKA (DUZCE) İlksel
2025.03.01,09:18:26,36.6875,25.6785,2.8,,1.9,,EGE DENIZI İlksel
2025.03.01,09:55:33,36.6235,25.5257,10.1,,2.1,,EGE DENIZI İlksel
2025.03.01,10:36:39,38.8447,26.8180,15.3,,1.7,,CANDARLI KORFEZI (EGE DENIZI) İlksel
2025.03.01,10:48:43,36.7127,25.5337,4.6,,2.5,,EGE DENIZI İlksel
2025.03.01,10:52:01,35.5473,26.2885,51.5,,2.3,,GIRIT ADASI (AKDENIZ) İlksel
2025.03.01,10:54:50,38.8043,40.0765,4.1,,2.2,,KARASUNGUR-KOVANCILAR (ELAZIG) İlksel
2025.03.01,10:57:17,40.1883,31.7555,7.8,,2.2,,HIRKATEPE-BEYPAZARI (ANKARA) İlksel
2025.03.01,12:24:04,40.1593,32.9723,7.6,,1.7,,SIGIRLIHACI-CUBUK (ANKARA) İlksel
2025.03.01,12:44:11,39.7808,24.1315,26.0,,2.7,,YUNANISTAN İlksel
2025.03.01,12:49:09,39.8140,24.1582,23.0,,2.4,,YUNANISTAN İlksel
2025.03.01,13:10:01,39.2968,41.7880,9.4,,2.8,,BAYIRKOY-HINIS (ERZURUM) İlksel
2025.03.01,13:11:34,39.4922,28.1808,7.7,,2.0,,ISKELE-BIGADIC (BALIKESIR) İlksel
2025.03.01,13:17:09,38.2550,37.3510,5.0,,2.8,,GUNDERE-ELBISTAN (KAHRAMANMARAS) İlksel
2025.03.01,13:31:36,39.3717,29.3152,9.8,,1.3,,CALCAAGIL-EMET (KUTAHYA) İlksel
2025.03.01,13:51:40,36.6097,25.7942,5.0,,2.0,,EGE DENIZI İlksel
2025.03.01,14:21:02,36.6327,25.5567,5.0,,2.2,,EGE DENIZI İlksel
2025.03.01,14:32:58,36.7020,25.6158,4.7,,3.4,3.3,EGE DENIZI İlksel
2025.03.01,15:19:39,38.9945,30.0607,5.0,,2.5,,MECIDIYE-ALTINTAS (KUTAHYA) İlksel
2025.03.01,15:39:46,36.5245,36.3858,6.4,,2.9,,ILIKPINAR-KIRIKHAN (HATAY) İlksel
2025.03.01,15:59:42,36.5425,29.5583,19.4,,2.3,,CEMRE-KAS (ANTALYA) İlksel
2025.03.01,16:34:45,36.6850,25.5450,10.6,,2.3,,EGE DENIZI İlksel
2025.03.01,17:39:57,39.8353,33.0218,5.3,,1.3,,MAMAK (ANKARA) İlksel
2025.03.01,19:28:30,38.1273,36.7982,5.1,,1.7,,DEVEBOYNU-AFSIN (KAHRAMANMARAS) İlksel
2025.03.01,20:14:07,39.3928,32.8650,7.9,,1.6,,CIMSIT-GOLBASI (ANKARA) İlksel
2025.03.01,20:31:22,36.6885,25.6788,11.4,,2.4,,EGE DENIZI İlksel
2025.03.01,20:39:19,38.3428,26.6982,14.2,,1.6,,URLA (IZMIR) İlksel
2025.03.01,21:41:07,38.4073,37.4923,1.8,,2.0,,SUGUL-DARENDE (MALATYA) İlksel
2025.03.01,22:10:43,36.1468,28.1940,11.6,,1.6,,AKDENIZ İlksel
2025.03.01,22:45:19,37.8480,36.3082,1.9,,2.7,,PAYAMBURNU-GOKSUN (KAHRAMANMARAS) İlksel
2025.03.01,23:14:56,39.4012,26.1473,7.9,,2.0,,MIDILLI ADASI (EGE DENIZI) İlksel
2025.03.02,00:54:20,37.7450,35.5755,5.3,,1.7,,KAPIKAYA-KOZAN (ADANA) İlksel
2025.03.02,01:07:34,36.6635,25.6313,14.5,,2.7,,EGE DENIZI İlksel
2025.03.02,01:37:35,38.2492,38.7325,5.0,,2.9,,BALPINARI-PUTURGE (MALATYA) İlksel
2025.03.02,01:38:26,36.6440,25.5505,24.6,,2.4,,EGE DENIZI İlksel
2025.03.02,02:02:36,36.5943,29.6425,12.3,,1.9,,YESILBARAK-KAS (ANTALYA) İlksel
2025.03.02,02:17:16,35.6092,26.2980,13.6,,2.4,,EGE DENIZI İlksel
2025.03.02,02:47:38,39.7480,26.4272,13.5,,1.5,,CETMI-EZINE (CANAKKALE) İlksel
2025.03.02,03:08:19,36.6237,25.4768,11.2,,1.9,,EGE DENIZI İlksel
2025.03.02,03:12:38,38.2247,38.7658,5.4,,2.1,,ORMANICI-PUTURGE (MALATYA) İlksel
2025.03.02,03:41:43,36.6878,25.4610,14.5,,2.3,,EGE DENIZI İlksel
2025.03.02,03:53:41,39.0130,28.1070,10.9,,1.7,,DAGDERE-AKHISAR (MANISA) İlksel
2025.03.02,04:27:27,35.8920,27.2103,7.9,,1.4,,EGE DENIZI İlksel
2025.03.02,04:35:44,37.4157,37.1303,9.0,,1.7,,DOGANLI-PAZARCIK (KAHRAMANMARAS) İlksel
2025.03.02,04:55:11,37.1682,28.8428,16.5,,0.9,,BEYAGAC (DENIZLI) İlksel
2025.03.02,04:59:31,36.6765,25.5090,12.5,,2.6,,EGE DENIZI İlksel
2025.03.02,05:01:51,36.6552,25.4912,7.6,,1.8,,EGE DENIZI İlksel
2025.03.02,05:14:00,36.6863,25.6702,10.5,,2.2,,EGE DENIZI İlksel
2025.03.02,05:18:54,40.7007,29.1593,12.5,,1.5,,KORU-CINARCIK (YALOVA) İlksel
2025.03.02,05:29:54,39.1690,29.0063,6.9,,2.4,,KARACAOREN-SIMAV (KUTAHYA) İlksel
2025.03.02,05:41:32,35.9357,25.3387,5.3,,2.7,,EGE DENIZI İlksel
2025.03.02,05:49:32,38.8335,37.5093,5.0,,1.9,,BAGLICAY-GURUN (SIVAS) İlksel
2025.03.02,06:00:14,36.7022,25.5292,10.8,,2.1,,EGE DENIZI İlksel
2025.03.02,06:04:39,36.6982,25.5753,10.7,,1.8,,EGE DENIZI İlksel
2025.03.02,06:21:09,36.6730,25.7082,8.9,,2.1,,EGE DENIZI İlksel
2025.03.02,06:33:06,40.6912,29.1640,10.2,,1.6,,KORU-CINARCIK (YALOVA) İlksel
2025.03.02,06:52:28,36.4927,25.4628,11.7,,2.3,,EGE DENIZI İlksel
2025.03.02,07:05:03,35.6035,26.2548,13.2,,2.4,,EGE DENIZI İlksel
2025.03.02,07:17:40,38.8043,37.9502,2.0,,2.3,,HEKIMHAN (MALATYA) İlksel
2025.03.02,07:22:59,35.6187,26.3955,11.7,,2.6,,EGE DENIZI İlksel
2025.03.02,07:44:39,37.8180,36.4828,6.6,,2.0,,GEBEN-ANDIRIN (KAHRAMANMARAS) İlksel
2025.03.02,07:48:13,35.6050,26.3687,14.6,,2.6,,EGE DENIZI İlksel
2025.03.02,07:49:34,36.6247,25.9318,18.4,,1.9,,EGE DENIZI İlksel
2025.03.02,08:01:28,36.6978,25.4692,6.9,,1.6,,EGE DENIZI İlksel
2025.03.02,08:07:58,40.2685,28.0415,5.0,,1.6,,DOGRUCA-BANDIRMA (BALIKESIR) İlksel
2025.03.02,08:36:41,36.6702,25.6658,5.8,,2.4,,EGE DENIZI İlksel
2025.03.02,09:01:59,38.7855,38.0013,8.7,,2.0,,DUMLU-HEKIMHAN (MALATYA) İlksel
2025.03.02,09:36:36,38.7818,43.5530,18.3,,1.8,,DEGIRMENOZU-(VAN) İlksel
2025.03.02,09:52:50,36.9682,27.9237,12.7,,1.5,,GOKOVA KORFEZI (EGE DENIZI) İlksel
2025.03.02,10:10:09,39.1230,28.9727,9.7,,1.9,,YESILOVA-SIMAV (KUTAHYA) İlksel
2025.03.02,10:26:10,35.6210,26.3892,9.2,,2.9,,EGE DENIZI İlksel
2025.03.02,10:45:58,38.4610,39.0552,8.9,,1.7,,OKSUZUSAGI-(ELAZIG) İlksel
2025.03.02,10:54:28,35.6200,26.3678,9.5,,3.4,3.2,EGE DENIZI İlksel
2025.03.02,11:11:22,38.7745,37.9480,6.2,,1.6,,HEKIMHAN (MALATYA) İlksel
2025.03.02,11:32:14,37.8833,26.8682,15.7,,1.2,,KUSADASI KORFEZI (EGE DENIZI) İlksel
2025.03.02,12:15:54,40.3297,24.0993,6.4,,2.3,,YUNANISTAN İlksel
2025.03.02,12:18:54,38.9487,37.8878,7.5,,1.1,,HASANCELEBI-HEKIMHAN (MALATYA) İlksel
2025.03.02,12:41:21,36.7050,36.0650,6.2,,1.4,,SARISEKI-ISKENDERUN (HATAY) İlksel
2025.03.02,13:05:55,39.6100,29.3903,0.0,,1.4,,YENIKOY-TAVSANLI (KUTAHYA) İlksel
2025.03.02,13:16:05,36.7220,28.2723,64.4,,1.7,,OSMANIYE-MARMARIS (MUGLA) İlksel
2025.03.02,13:34:52,37.6262,37.1097,5.1,,1.5,,KOZLUDERE-(KAHRAMANMARAS) İlksel
2025.03.02,13:58:41,35.6033,26.3675,14.5,,2.5,,EGE DENIZI İlksel
2025.03.02,14:07:47,34.8563,33.0408,25.1,,3.0,,AKDENIZ REVIZE01 (2025.03.02 14:07:51)
2025.03.02,14:07:51,35.0987,33.0680,15.6,,3.0,3.0,KIBRIS-ZUMRUTKOY İlksel
2025.03.02,14:22:57,38.7925,37.9437,2.1,,1.8,,HEKIMHAN (MALATYA) İlksel
2025.03.02,15:01:51,40.3503,24.0607,12.4,,2.3,,YUNANISTAN İlksel
2025.03.02,15:56:53,36.6835,25.6658,5.0,,2.1,,EGE DENIZI İlksel
2025.03.02,16:45:21,40.3443,24.0893,7.3,,2.8,,YUNANISTAN İlksel
2025.03.02,16:54:43,36.9355,27.9717,5.0,,2.2,,GOKOVA KORFEZI (EGE DENIZI) İlksel
2025.03.02,17:04:36,36.6690,25.5708,11.0,,3.2,3.2,EGE DENIZI İlksel
2025.03.02,17:06:01,36.5842,25.7038,7.4,,3.4,3.4,EGE DENIZI İlksel
2025.03.02,17:41:22,36.6078,25.6672,5.8,,2.7,,EGE DENIZI İlksel
2025.03.02,17:55:43,36.3975,25.4200,8.8,,2.7,,EGE DENIZI İlksel
2025.03.02,18:58:06,36.4818,25.7028,10.0,,2.6,,EGE DENIZI İlksel
2025.03.02,19:26:57,38.4035,37.5103,5.0,,2.3,,SUGUL-DARENDE (MALATYA) İlksel
2025.03.02,19:55:36,38.2393,38.8660,5.0,,2.0,,ORMELI-PUTURGE (MALATYA) İlksel
2025.03.02,21:55:45,36.4383,25.4608,14.5,,2.6,,EGE DENIZI İlksel
2025.03.02,22:18:58,36.6067,25.7275,11.3,,3.2,3.2,EGE DENIZI İlksel
2025.03.02,22:33:54,37.6132,37.1758,1.0,,2.1,,KUCUKNACAR-(KAHRAMANMARAS) İlksel
2025.03.02,23:12:27,40.3337,24.0742,13.4,,1.8,,YUNANISTAN İlksel
2025.03.02,23:34:03,38.0805,36.5755,5.0,,3.1,3.1,YAGMURLU-GOKSUN (KAHRAMANMARAS) İlksel
2025.03.02,23:57:51,37.0775,28.5537,8.7,,1.5,,BALCILAR-KOYCEGIZ (MUGLA) İlksel
2025.03.03,00:15:25,36.9482,27.7033,7.1,,2.3,,GOKOVA KORFEZI (EGE DENIZI) İlksel
2025.03.03,01:15:09,36.9988,28.1985,20.1,,1.7,,GOKOVA KORFEZI (EGE DENIZI) İlksel
2025.03.03,01:33:36,38.0347,38.2038,6.5,,1.9,,PINARBASI-CELIKHAN (ADIYAMAN) İlksel
2025.03.03,01:48:35,36.7195,25.6117,13.9,,2.2,,EGE DENIZI İlksel
2025.03.03,01:57:50,38.1137,37.8640,10.8,,1.4,,YOLKURU-DOGANSEHIR (MALATYA) İlksel
2025.03.03,02:04:25,39.0707,29.0050,15.3,,1.5,,MAMAK-SIMAV (KUTAHYA) İlksel
2025.03.03,02:06:33,36.1483,28.2677,2.4,,1.8,,AKDENIZ İlksel
2025.03.03,02:14:39,36.6770,25.7278,11.1,,1.8,,EGE DENIZI İlksel
2025.03.03,02:34:52,40.5348,25.0432,9.7,,1.7,,EGE DENIZI İlksel
2025.03.03,02:37:49,40.0532,33.1495,8.9,,1.7,,AHMETADIL-AKYURT (ANKARA) İlksel
2025.03.03,03:09:12,35.9778,30.6638,13.3,,2.3,,AKDENIZ İlksel
2025.03.03,03:45:30,39.6095,31.6018,11.0,,1.8,,IGDECIK-SIVRIHISAR (ESKISEHIR) İlksel
2025.03.03,03:57:09,36.5177,25.4435,7.4,,2.0,,EGE DENIZI İlksel
2025.03.03,04:41:25,36.5520,25.4880,7.6,,2.4,,EGE DENIZI İlksel
2025.03.03,05:31:31,39.8527,43.4190,6.9,,2.9,,KANDILLI-TUZLUCA (IGDIR) İlksel
2025.03.03,06:00:47,37.1553,28.8835,2.8,,1.5,,BEYAGAC (DENIZLI) İlksel
2025.03.03,06:19:33,36.5880,27.9530,24.9,,1.5,,BOZBURUN ACIKLARI-MUGLA (EGE DENIZI) İlksel
2025.03.03,08:09:08,36.6778,25.6310,5.3,,2.1,,EGE DENIZI İlksel
2025.03.03,08:31:37,38.4340,37.4390,8.3,,1.7,,YAVUZLAR-DARENDE (MALATYA) İlksel
2025.03.03,08:32:17,38.0668,36.5665,6.7,,2.1,,YAGMURLU-GOKSUN (KAHRAMANMARAS) İlksel
2025.03.03,08:38:55,36.7052,25.6007,7.3,,1.2,,EGE DENIZI İlksel
2025.03.03,08:49:26,39.7820,39.1235,2.5,,2.8,,AKTAS-KEMAH (ERZINCAN) İlksel
2025.03.03,08:50:27,36.6980,25.5467,5.0,,1.8,,EGE DENIZI İlksel
2025.03.03,09:01:06,36.1688,30.3118,11.9,,3.6,3.5,MAVIKENT ACIKLARI-ANTALYA (AKDENIZ) İlksel
2025.03.03,09:08:47,37.2820,36.8327,5.5,,1.8,,MINEHUYUK-TURKOGLU (KAHRAMANMARAS) İlksel
2025.03.03,09:09:16,39.7322,39.2570,23.3,,1.5,,BALLI-(ERZINCAN) İlksel
2025.03.03,09:42:05,36.7020,25.5623,5.0,,1.8,,EGE DENIZI İlksel
2025.03.03,09:55:14,38.1337,32.3462,0.0,,0.9,,LADIK-SARAYONU (KONYA) İlksel
2025.03.03,10:02:04,36.7150,25.7343,8.2,,1.6,,EGE DENIZI İlksel
2025.03.03,10:05:22,41.2142,28.8928,0.0,,1.5,,ODAYERI-EYUP (ISTANBUL) İlksel
2025.03.03,10:12:28,37.8372,28.8783,13.6,,1.5,,OGUZLAR-BABADAG (DENIZLI) İlksel
2025.03.03,10:20:02,36.6170,25.5407,5.0,,1.6,,EGE DENIZI İlksel
2025.03.03,11:06:09,36.5433,25.7413,6.0,,1.7,,EGE DENIZI İlksel
2025.03.03,11:45:48,38.9833,43.7487,42.0,,1.5,,MURADIYE (VAN) İlksel
2025.03.03,11:49:47,35.9940,36.2230,5.0,,1.8,,UCIRMAK-YAYLADAGI (HATAY) İlksel
2025.03.03,12:16:33,36.6385,36.0908,4.7,,1.5,,KARAAGAC-ARSUZ (HATAY) İlksel
2025.03.03,12:41:50,40.6325,41.4447,5.0,,1.9,,BAKIRTEPE-YUSUFELI (ARTVIN) İlksel
2025.03.03,12:46:54,39.4140,40.2127,5.0,,3.6,3.8,SAMPASAKARADERBENDI-PULUMUR (TUNCELI) İlksel
2025.03.03,12:49:11,37.1682,28.7890,9.1,,1.9,,KARACAOREN-(MUGLA) İlksel
2025.03.03,13:12:15,39.4932,28.0690,9.3,,1.6,,COMLEKCI-BIGADIC (BALIKESIR) İlksel
2025.03.03,13:13:20,39.4967,28.0652,20.2,,1.8,,COMLEKCI-BIGADIC (BALIKESIR) İlksel
2025.03.03,13:24:05,39.3990,40.2145,5.0,,2.2,,SAMPASAKARADERBENDI-PULUMUR (TUNCELI) İlksel
2025.03.03,14:40:17,38.2453,38.1675,0.0,,1.4,,SEYITUSAGI-YESILYURT (MALATYA) İlksel
2025.03.03,14:54:40,40.1152,36.0158,4.2,,2.0,,KURUCAY-ZILE (TOKAT) İlksel
2025.03.03,15:09:49,38.2252,37.3182,12.3,,1.5,,DEMIRCILIK-ELBISTAN (KAHRAMANMARAS) İlksel
2025.03.03,22:21:48,36.4355,36.2377,5.4,,2.0,,SENBUK-BELEN (HATAY) İlksel
2025.03.03,22:28:35,38.4217,37.5245,13.0,,1.3,,SUGUL-DARENDE (MALATYA) İlksel
2025.03.04,01:27:19,38.2713,37.2933,5.5,,2.0,,SOGUTLU-ELBISTAN (KAHRAMANMARAS) İlksel
2025.03.04,01:47:06,36.6673,25.4743,8.7,,2.8,,EGE DENIZI İlksel
2025.03.04,02:04:32,38.1788,37.5972,9.7,,1.5,,KARAHASANUSAGI-ELBISTAN (KAHRAMANMARAS) İlksel
2025.03.04,02:20:48,36.2402,35.8182,8.3,,1.5,,KALE-ARSUZ (HATAY) İlksel
2025.03.04,03:43:28,38.9722,26.1262,9.4,,2.6,,MIDILLI ADASI GUNEYI (EGE DENIZI) İlksel
2025.03.04,04:00:05,37.8783,27.8822,11.1,,1.2,,DOGAN-(AYDIN) İlksel
2025.03.04,04:35:28,38.2600,37.3535,1.0,,1.8,,GUNDERE-ELBISTAN (KAHRAMANMARAS) İlksel
2025.03.04,05:04:38,39.0843,40.7767,5.0,,2.8,,ALATEPE-(BINGOL) İlksel
2025.03.04,05:53:10,40.3898,28.8912,3.2,,1.8,,MUDANYA (BURSA) İlksel
2025.03.04,05:56:42,36.6983,25.4270,23.6,,2.8,,EGE DENIZI İlksel
2025.03.04,06:07:28,38.2012,30.8525,13.6,,1.5,,ASAGITIRTAR-YALVAC (ISPARTA) İlksel
2025.03.04,06:30:23,36.7955,25.7100,12.3,,2.8,,EGE DENIZI İlksel
2025.03.04,06:38:55,38.7563,43.6012,16.9,,2.0,,ILIKAYNAK-(VAN) İlksel
2025.03.04,08:28:57,40.5678,28.1743,7.1,,1.8,,ERDEK ACIKLARI-BALIKESIR (MARMARA DENIZI) İlksel
2025.03.04,08:57:53,35.5832,26.1765,12.8,,3.8,,GIRIT ADASI (AKDENIZ) İlksel
2025.03.04,09:28:50,39.6437,38.7732,5.7,,2.1,,SERINGOZE-KEMAH (ERZINCAN) İlksel
2025.03.04,10:02:48,39.0660,39.0033,13.5,,1.8,,TORATLI-CEMISGEZEK (TUNCELI) İlksel
2025.03.04,11:23:22,40.9212,40.2292,7.2,,2.5,,YAZLIK-OF (TRABZON) İlksel
2025.03.04,11:49:36,36.5895,25.4652,16.3,,2.0,,EGE DENIZI İlksel
2025.03.04,12:20:13,38.2182,37.6645,13.7,,1.9,,ATMALIKASANLI-ELBISTAN (KAHRAMANMARAS) İlksel
2025.03.04,12:48:58,39.4480,28.1142,7.1,,2.1,,KADIKOY-BIGADIC (BALIKESIR) İlksel
2025.03.04,12:55:00,37.6025,35.5222,11.8,,1.5,,KARAHAN-ALADAG (ADANA) İlksel
2025.03.04,13:07:10,39.6405,29.5335,0.0,,1.7,,MUHACIRLER-DOMANIC (KUTAHYA) İlksel
2025.03.04,13:34:24,39.3612,29.2805,0.0,,1.6,,CALCAAGIL-EMET (KUTAHYA) İlksel
2025.03.04,13:35:07,37.0367,42.7920,5.0,,2.2,,IRAK İlksel
2025.03.04,13:47:32,36.5583,25.5403,9.9,,2.8,,EGE DENIZI İlksel
2025.03.04,14:53:27,37.0627,36.6923,5.4,,1.8,,ORTULU-ISLAHIYE (GAZIANTEP) İlksel
2025.03.04,15:01:16,36.1433,35.7948,8.5,,1.3,,SAMANDAG-HATAY ACIKLARI (AKDENIZ) İlksel
2025.03.04,17:20:24,39.8658,28.8375,15.6,,1.5,,ALTINTAS-ORHANELI (BURSA) İlksel
2025.03.04,17:44:08,37.8968,28.7393,6.1,,2.0,,TEKKEKOY-SARAYKOY (DENIZLI) İlksel
2025.03.04,18:01:22,36.0003,31.3880,7.0,,1.6,,AKDENIZ İlksel
2025.03.04,18:08:28,36.0480,35.8472,9.5,,1.6,,MAGARACIK-SAMANDAG (HATAY) İlksel
2025.03.04,18:42:03,38.5533,44.1632,7.5,,2.4,,DEGIRMIGOL-SARAY (VAN) İlksel
2025.03.04,18:51:15,40.0617,38.6552,7.5,,2.0,,BOZAT-GOLOVA (SIVAS) İlksel
2025.03.04,18:55:17,36.6425,25.3708,1.4,,2.0,,EGE DENIZI İlksel
2025.03.04,19:08:30,39.5338,28.1678,16.3,,2.0,,CALDERE-BIGADIC (BALIKESIR) İlksel
2025.03.04,19:54:43,37.0930,28.3507,8.2,,0.4,,KIZILAGAC-ULA (MUGLA) İlksel
2025.03.04,19:56:22,39.0988,40.7262,11.2,,1.3,,ALATEPE-(BINGOL) İlksel
2025.03.04,20:35:36,37.1358,28.6778,14.1,,0.7,,TURGUT-ULA (MUGLA) İlksel
2025.03.04,20:46:28,40.7433,34.1012,9.6,,2.0,,KALINPELIT-BAYAT (CORUM) İlksel
2025.03.04,22:15:22,38.8490,43.5400,9.9,,1.8,,BAGDASAN-(VAN) İlksel
2025.03.04,22:17:39,38.0010,35.1708,1.1,,1.9,,SULUCAOVA-CAMARDI (NIGDE) İlksel
2025.03.04,22:24:55,36.6923,25.3650,9.0,,2.3,,EGE DENIZI İlksel
2025.03.04,22:56:46,36.6705,25.5407,8.1,,2.1,,EGE DENIZI İlksel
2025.03.04,22:58:42,38.1682,36.8830,2.0,,1.2,,ESENCE-AFSIN (KAHRAMANMARAS) İlksel
2025.03.05,00:11:32,38.6798,44.1377,1.1,,2.1,,SARAY (VAN) İlksel
2025.03.05,00:17:38,37.4687,36.3018,17.8,,1.6,,HACIVELIUSAGI-ANDIRIN (KAHRAMANMARAS) İlksel
2025.03.05,00:32:08,37.0050,28.1842,27.6,,0.9,,GOKOVA KORFEZI (EGE DENIZI) İlksel
2025.03.05,00:33:11,36.9813,28.2880,10.7,,0.9,,CAMLI-MARMARIS (MUGLA) İlksel
2025.03.05,01:06:38,36.6755,25.8167,8.4,,2.3,,EGE DENIZI İlksel
2025.03.05,01:12:24,38.2957,38.8370,5.4,,1.2,,GUNDEGER-PUTURGE (MALATYA) İlksel
2025.03.05,01:22:21,38.1193,38.3578,5.0,,1.6,,SALKONAK-YESILYURT (MALATYA) İlksel
2025.03.05,01:42:21,38.3825,30.9628,7.4,,1.5,,KIRKBAS-YALVAC (ISPARTA) İlksel
2025.03.05,02:00:19,36.7940,28.0832,7.1,,1.8,,HISARONU-MARMARIS (MUGLA) İlksel
2025.03.05,02:05:48,37.4663,33.6083,8.8,,2.4,,KALEKOY-AYRANCI (KARAMAN) İlksel
2025.03.05,02:16:24,37.1583,36.2310,5.0,,1.4,,KUMARLI-(OSMANIYE) İlksel
2025.03.05,02:21:16,35.2425,27.7402,8.3,,2.0,,AKDENIZ İlksel
2025.03.05,02:25:46,37.4320,36.9728,5.0,,1.5,,OKSUZLU-(KAHRAMANMARAS) İlksel
2025.03.05,02:27:38,38.3615,27.1980,7.5,,1.7,,ZAFER-BUCA (IZMIR) İlksel
2025.03.05,02:34:37,36.5938,25.3753,3.3,,2.4,,EGE DENIZI İlksel
2025.03.05,02:59:05,40.4208,28.9003,8.2,,1.4,,GEMLIK KORFEZI (MARMARA DENIZI) İlksel
2025.03.05,04:54:53,35.7642,24.6593,28.1,,2.2,,GIRIT ADASI (AKDENIZ) İlksel
2025.03.05,05:18:12,38.8953,37.2363,5.0,,1.5,,KONAKPINAR-GURUN (SIVAS) İlksel
2025.03.05,05:49:50,37.1477,28.8255,13.7,,1.6,,KARACAOREN-(MUGLA) İlksel
2025.03.05,06:37:53,36.9510,27.7157,18.9,,1.2,,GOKOVA KORFEZI (EGE DENIZI) İlksel
2025.03.05,07:45:18,38.2557,38.2973,5.0,,1.7,,KOZLUK-YESILYURT (MALATYA) İlksel
2025.03.05,09:26:59,40.3393,24.1493,7.6,,2.6,,YUNANISTAN İlksel
2025.03.05,09:47:01,37.0177,36.0823,5.3,,2.6,,BUYUKTUYSUZ-TOPRAKKALE (OSMANIYE) İlksel
2025.03.05,11:10:01,37.1587,28.8455,8.8,,1.8,,BEYAGAC (DENIZLI) İlksel
2025.03.05,11:26:53,39.2740,27.7128,0.0,,2.3,,KOZLUOREN-SOMA (MANISA) İlksel
2025.03.05,11:31:12,36.5785,25.6697,5.0,,2.3,,EGE DENIZI İlksel
2025.03.05,11:31:21,37.0213,29.1677,13.9,,1.8,,SARIKAVAK-CAMELI (DENIZLI) İlksel
2025.03.05,11:47:51,39.9553,25.9405,5.4,,1.4,,UVECIK ACIKLARI-CANAKKALE (EGE DENIZI) İlksel
2025.03.05,12:25:06,38.1192,32.6012,0.0,,1.2,,CANDIR-SELCUKLU (KONYA) İlksel
2025.03.05,12:37:44,38.2752,38.0675,6.9,,1.4,,KARAPINAR-AKCADAG (MALATYA) İlksel
2025.03.05,12:49:28,36.6002,25.2420,11.4,,2.2,,EGE DENIZI İlksel
2025.03.05,13:05:57,38.7513,26.3048,13.8,,2.0,,EGE DENIZI İlksel
2025.03.05,13:22:18,35.9953,27.4350,1.8,,2.4,,EGE DENIZI İlksel
2025.03.05,13:39:46,39.3615,29.2935,0.0,,1.6,,CALCAAGIL-EMET (KUTAHYA) İlksel
2025.03.05,14:18:24,36.6742,25.4503,9.1,,2.2,,EGE DENIZI İlksel
2025.03.05,14:27:03,38.1257,38.5768,19.4,,1.7,,ARIKONAK-SINCIK (ADIYAMAN) İlksel
2025.03.05,14:40:46,35.9895,27.4795,11.5,,2.0,,EGE DENIZI İlksel
2025.03.05,15:25:12,39.8757,40.1892,24.7,,1.8,,CADIRKAYA-TERCAN (ERZINCAN) İlksel
2025.03.05,17:09:56,39.3807,40.6062,18.3,,1.4,,ELMALI-YEDISU (BINGOL) İlksel
2025.03.05,17:15:25,38.3345,27.1805,4.1,,1.7,,GAZIEMIR (IZMIR) İlksel
2025.03.05,17:18:06,38.3477,37.1037,27.4,,1.5,,KISLAKOY-ELBISTAN (KAHRAMANMARAS) İlksel
2025.03.05,17:33:50,38.8018,43.5717,15.2,,1.7,,AKCIFT-(VAN) İlksel
2025.03.05,17:53:11,38.7000,25.2010,10.9,,2.6,,EGE DENIZI İlksel
2025.03.05,18:04:36,40.2627,29.4525,10.8,,1.5,,MARMARACIK-YENISEHIR (BURSA) İlksel
2025.03.05,18:18:32,36.0270,30.8070,15.0,,1.7,,AKDENIZ İlksel
2025.03.05,19:55:37,38.7208,43.2048,13.2,,1.5,,AGARTI-(VAN) İlksel
2025.03.05,19:58:37,35.9667,27.5533,3.2,,1.4,,EGE DENIZI İlksel
2025.03.05,20:01:41,38.8087,43.5475,22.4,,2.1,,AKCIFT-(VAN) İlksel
2025.03.05,20:23:20,35.9455,27.6113,13.0,,1.8,,EGE DENIZI İlksel
2025.03.05,21:40:44,38.9430,28.1643,10.0,,1.6,,CITAK-AKHISAR (MANISA) İlksel
2025.03.05,22:43:26,36.6522,25.5418,5.0,,2.1,,EGE DENIZI İlksel
2025.03.05,23:47:20,40.3103,27.6152,13.7,,2.1,,MISAKCA-BANDIRMA (BALIKESIR) İlksel
2025.03.06,00:01:21,36.8178,25.4067,9.1,,2.5,,EGE DENIZI İlksel
2025.03.06,00:12:13,40.4783,36.9807,5.0,,2.0,,KOKLUCE-NIKSAR (TOKAT) İlksel
2025.03.06,00:33:22,40.4573,36.9828,22.1,,1.1,,ARAKOY-NIKSAR (TOKAT) İlksel
2025.03.06,01:23:56,36.6362,25.6413,9.0,,2.4,,EGE DENIZI İlksel
2025.03.06,01:44:20,37.8882,37.8187,5.4,,1.4,,CANKARA-GOLBASI (ADIYAMAN) İlksel
2025.03.06,02:00:20,38.1588,37.3013,5.0,,1.3,,AKBAYIR-ELBISTAN (KAHRAMANMARAS) İlksel
2025.03.06,02:11:46,40.5532,35.2153,5.6,,1.0,,ALOREN-MECITOZU (CORUM) İlksel
2025.03.06,02:18:52,36.1125,27.7077,5.0,,1.4,,RODOS ADASI (AKDENIZ) İlksel
2025.03.06,02:29:11,39.0318,27.5278,7.9,,1.4,,YAYLAKOY-KINIK (IZMIR) İlksel
2025.03.06,02:36:50,38.7570,43.3277,5.0,,1.7,,SAHGELDI-(VAN) İlksel
2025.03.06,02:54:03,37.1640,28.8192,8.3,,1.6,,KARACAOREN-(MUGLA) İlksel
2025.03.06,03:02:04,37.8842,26.9133,10.4,,1.5,,KUSADASI KORFEZI (EGE DENIZI) İlksel
2025.03.06,03:21:04,36.5670,25.5907,5.0,,2.4,,EGE DENIZI İlksel
2025.03.06,03:28:40,37.5872,36.3562,8.4,,2.2,,ANDIRIN (KAHRAMANMARAS) İlksel
2025.03.06,03:37:34,37.5635,35.4902,7.7,,1.2,,KIZILDAM-ALADAG (ADANA) İlksel
2025.03.06,03:41:33,40.3668,27.4517,11.5,,2.2,,BOZLAR-BIGA (CANAKKALE) İlksel
2025.03.06,03:55:12,37.9483,27.5907,9.9,,1.1,,CAMKOY-GERMENCIK (AYDIN) İlksel
2025.03.06,03:58:27,39.1100,40.1463,10.1,,1.7,,CITAK-KARAKOCAN (ELAZIG) İlksel
2025.03.06,04:09:17,38.1497,36.6130,5.0,,1.1,,YENIYAPAN-GOKSUN (KAHRAMANMARAS) İlksel
2025.03.06,04:15:29,36.6013,27.7882,7.6,,1.2,,DATCA ACIKLARI-MUGLA (EGE DENIZI) İlksel
2025.03.06,04:17:33,37.7103,35.5292,6.8,,1.4,,ISIKKAYA-KOZAN (ADANA) İlksel
2025.03.06,04:19:53,37.6028,35.4687,5.3,,1.3,,DARILIK-ALADAG (ADANA) İlksel
2025.03.06,04:23:51,37.4812,35.4490,5.3,,0.9,,MAZILIK-ALADAG (ADANA) İlksel
2025.03.06,04:42:30,36.6312,25.5158,5.4,,2.8,,EGE DENIZI İlksel
2025.03.06,04:53:34,39.9613,24.2408,12.4,,1.8,,YUNANISTAN İlksel
2025.03.06,05:15:53,37.1612,28.8048,13.5,,1.1,,KARACAOREN-(MUGLA) İlksel
2025.03.06,05:39:14,36.2653,36.0783,13.3,,2.6,,KESECIK-(HATAY) İlksel
2025.03.06,06:08:30,37.1638,28.8213,5.0,,1.6,,KARACAOREN-(MUGLA) İlksel
2025.03.06,06:32:12,39.8568,38.7577,9.8,,1.8,,CAMDIBI-REFAHIYE (ERZINCAN) İlksel
2025.03.06,07:01:55,40.4787,29.2667,5.4,,1.3,,FINDIKLI-ORHANGAZI (BURSA) İlksel
2025.03.06,07:08:43,38.2688,38.0895,6.9,,1.7,,GORGU-YESILYURT (MALATYA) İlksel
2025.03.06,07:17:59,35.0837,23.6505,17.1,,3.5,,GIRIT ADASI (AKDENIZ) İlksel
2025.03.06,07:28:38,41.1192,39.8898,7.7,,2.3,,TRABZON ACIKLARI (KARADENIZ) İlksel
2025.03.06,07:42:19,40.3790,27.2088,12.8,,1.4,,ORTULUCE-BIGA (CANAKKALE) İlksel
2025.03.06,08:17:48,37.8253,36.3115,18.2,,1.4,,CIGSAR-ANDIRIN (KAHRAMANMARAS) İlksel
2025.03.06,08:41:07,38.4170,37.5820,8.2,,2.0,,YUKARIULUPINAR-DARENDE (MALATYA) İlksel
2025.03.06,08:57:02,37.6737,36.0600,24.9,,1.6,,AKCALIUSAGI-KOZAN (ADANA) İlksel
2025.03.06,09:09:56,40.4243,28.8342,11.8,,2.0,,GEMLIK KORFEZI (MARMARA DENIZI) İlksel
2025.03.06,09:20:18,36.7253,27.7608,74.4,,2.5,,DATCA ACIKLARI-MUGLA (EGE DENIZI) İlksel
2025.03.06,09:46:20,38.7072,43.3808,14.0,,2.1,,OTLUCA-(VAN) İlksel
2025.03.06,11:06:45,39.1093,27.1817,13.7,,1.7,,BERGAMA (IZMIR) İlksel
2025.03.06,11:14:14,37.1705,28.8353,9.3,,1.7,,KARACAOREN-(MUGLA) İlksel
2025.03.06,11:33:12,39.8072,39.1327,14.0,,1.9,,AKTAS-KEMAH (ERZINCAN) İlksel
2025.03.06,12:19:49,36.9777,35.7037,5.0,,1.7,,COKCAPINAR-CEYHAN (ADANA) İlksel
2025.03.06,12:31:47,37.9022,27.5832,15.5,,1.8,,HIDIRBEYLI-GERMENCIK (AYDIN) İlksel
2025.03.06,13:11:05,41.7767,26.7150,4.8,,1.7,,ORTAKCI-LALAPASA (EDIRNE) İlksel
2025.03.06,13:25:29,38.0830,28.9083,5.2,,1.9,,BOZALAN-BULDAN (DENIZLI) İlksel
2025.03.06,13:32:45,39.3440,29.2880,0.0,,1.7,,EMET (KUTAHYA) İlksel
2025.03.06,13:34:53,38.6580,43.6003,15.1,,2.2,,ERCEK-(VAN) İlksel
2025.03.06,14:04:58,42.3292,27.3482,5.0,,2.2,,BULGARISTAN İlksel
2025.03.06,14:07:44,36.6818,36.0358,15.8,,1.3,,ISKENDERUN KORFEZI (AKDENIZ) İlksel
2025.03.06,14:19:53,40.2040,32.9123,0.0,,1.8,,SIGIRLIHACI-CUBUK (ANKARA) İlksel
2025.03.06,14:30:49,36.2052,35.8545,9.4,,1.7,,BUYUKOBA-SAMANDAG (HATAY) İlksel
2025.03.06,14:34:24,35.6480,28.1277,8.4,,2.1,,AKDENIZ İlksel
2025.03.06,14:37:12,36.5942,25.5398,10.7,,2.4,,EGE DENIZI İlksel
2025.03.06,14:58:01,37.0172,29.1608,4.2,,2.5,,AKPINAR-CAMELI (DENIZLI) İlksel
2025.03.06,15:24:06,39.8638,28.8193,0.0,,1.8,,ALTINTAS-ORHANELI (BURSA) İlksel
2025.03.06,15:31:48,39.1012,40.1898,17.2,,2.6,,KEKLIKKOY-KARAKOCAN (ELAZIG) İlksel
2025.03.06,15:33:23,39.8308,39.1723,9.1,,2.1,,BALTASI-(ERZINCAN) İlksel
2025.03.06,15:42:52,36.5768,25.4315,9.7,,2.4,,EGE DENIZI İlksel
2025.03.06,16:20:46,36.5783,25.5093,5.0,,3.1,3.2,EGE DENIZI İlksel
2025.03.06,16:27:34,38.3657,37.5665,5.0,,1.5,,YUKARIULUPINAR-DARENDE (MALATYA) İlksel
2025.03.06,17:11:32,36.6543,25.6078,14.9,,2.4,,EGE DENIZI İlksel
2025.03.06,17:50:39,36.5930,25.6730,8.7,,2.0,,EGE DENIZI İlksel
2025.03.06,18:14:52,36.9082,28.9958,8.9,,1.8,,BOZBEL-DALAMAN (MUGLA) İlksel
2025.03.06,18:35:52,36.6430,25.6862,16.8,,1.8,,EGE DENIZI İlksel
2025.03.06,18:47:59,39.4953,28.1602,8.6,,1.9,,ISKELE-BIGADIC (BALIKESIR) İlksel
2025.03.06,18:49:30,38.8547,37.5560,5.0,,1.6,,YESILDERE-GURUN (SIVAS) İlksel
2025.03.06,19:07:05,40.7877,31.5645,12.5,,1.6,,PIRAHMETLER-(BOLU) İlksel
2025.03.06,19:08:21,36.6298,25.5960,10.0,,2.0,,EGE DENIZI İlksel
2025.03.06,19:14:18,37.9130,28.8442,14.2,,2.0,,KUMLUCA-SARAYKOY (DENIZLI) İlksel
2025.03.06,19:16:53,38.1138,36.8430,5.4,,2.1,,KAMISCIK-GOKSUN (KAHRAMANMARAS) İlksel
2025.03.06,19:43:06,38.3293,38.7585,8.2,,1.7,,SARIOT-KALE (MALATYA) İlksel
2025.03.06,20:02:32,36.6437,25.5732,13.3,,2.1,,EGE DENIZI İlksel
2025.03.06,20:11:58,36.6045,25.5730,12.5,,2.8,,EGE DENIZI İlksel
2025.03.06,20:14:16,36.6303,25.4805,8.1,,1.9,,EGE DENIZI İlksel
2025.03.06,20:35:05,36.6797,25.6128,5.0,,2.0,,EGE DENIZI İlksel
2025.03.06,20:37:43,36.6617,25.8858,1.8,,1.7,,EGE DENIZI İlksel
2025.03.06,20:54:29,38.7232,43.3858,13.6,,1.5,,HIDIRKOY-(VAN) İlksel
2025.03.06,20:59:29,36.7132,25.5928,21.8,,2.6,,EGE DENIZI İlksel
2025.03.06,21:36:09,37.1015,35.4883,25.4,,2.0,,KIZILKAS-SARICAM (ADANA) İlksel
2025.03.06,22:18:19,37.1307,28.8350,4.7,,1.3,,KARACAOREN-(MUGLA) İlksel
2025.03.06,22:29:38,36.0648,35.8803,6.9,,3.8,3.8,MAGARACIK-SAMANDAG (HATAY) İlksel
2025.03.06,22:33:16,40.7220,28.2448,17.1,,1.9,,MARMARA DENIZI İlksel
2025.03.06,23:27:49,39.0228,40.3073,8.0,,1.5,,YAZGULU-(BINGOL) İlksel
2025.03.06,23:43:22,39.8215,41.7737,5.0,,1.4,,YILANLI-KOPRUKOY (ERZURUM) İlksel
2025.03.06,23:46:58,37.1302,28.8487,14.1,,1.1,,OTMANLAR-KOYCEGIZ (MUGLA) İlksel
2025.03.07,00:00:53,36.6115,25.4967,11.0,,2.5,,EGE DENIZI İlksel
2025.03.07,00:09:13,36.9982,29.1497,3.1,,2.3,,AKPINAR-CAMELI (DENIZLI) İlksel
2025.03.07,00:20:37,44.1145,38.6378,16.8,,3.8,3.8,RUSYA İlksel
2025.03.07,00:55:26,40.5345,34.7487,10.1,,2.4,,SEYDIM-(CORUM) İlksel
2025.03.07,01:08:37,34.6935,37.9530,20.6,,3.3,3.3,SURIYE İlksel
2025.03.07,01:15:00,40.0830,27.7483,13.6,,0.9,,CAKMAK-GONEN (BALIKESIR) İlksel
2025.03.07,01:39:05,38.5072,37.2492,10.2,,1.3,,KECEMAGARA-ELBISTAN (KAHRAMANMARAS) İlksel
2025.03.07,01:41:57,38.5888,39.6458,5.0,,3.1,3.3,KUMYAZI-MADEN (ELAZIG) İlksel
2025.03.07,02:07:36,36.5668,25.5968,5.6,,2.3,,EGE DENIZI İlksel
2025.03.07,02:16:00,38.0722,36.6968,5.0,,1.2,,FINDIK-GOKSUN (KAHRAMANMARAS) İlksel
2025.03.07,02:25:16,37.5380,37.2385,5.2,,2.0,,TETIRLIK-PAZARCIK (KAHRAMANMARAS) İlksel
2025.03.07,02:31:55,39.1052,28.1812,11.1,,1.6,,KINIK-SINDIRGI (BALIKESIR) İlksel
2025.03.07,02:43:02,37.9063,27.5792,7.6,,1.7,,HIDIRBEYLI-GERMENCIK (AYDIN) İlksel
2025.03.07,02:45:43,37.9032,27.5847,9.2,,1.8,,HIDIRBEYLI-GERMENCIK (AYDIN) İlksel
2025.03.07,03:04:04,39.6410,26.2010,16.4,,2.0,,KOSEDERE-AYVACIK (CANAKKALE) İlksel
2025.03.07,03:32:26,35.9422,27.6235,5.0,,1.5,,EGE DENIZI İlksel
2025.03.07,04:20:50,38.0875,37.1210,7.9,,1.2,,ORTAOREN-EKINOZU (KAHRAMANMARAS) İlksel
2025.03.07,04:48:19,38.3333,38.1727,11.8,,1.8,,DURULDU-(MALATYA) İlksel
2025.03.07,05:07:15,39.0453,25.9722,7.7,,1.9,,MIDILLI ADASI GUNEYI (EGE DENIZI) İlksel
2025.03.07,05:49:18,40.6195,29.2150,11.0,,1.8,,KADIKOY-(YALOVA) İlksel
2025.03.07,06:06:39,38.5068,39.3000,9.3,,1.2,,BEKCITEPE-SIVRICE (ELAZIG) İlksel
2025.03.07,06:15:57,38.7378,43.5210,18.1,,1.6,,AKCAOREN-(VAN) İlksel
2025.03.07,06:59:00,37.1745,28.9313,5.0,,1.4,,ESENLER-BEYAGAC (DENIZLI) İlksel
2025.03.07,07:15:37,35.8577,30.7168,12.7,,2.1,,AKDENIZ İlksel
2025.03.07,07:36:17,40.5618,28.9205,8.5,,1.4,,MECIDIYE-ARMUTLU (YALOVA) İlksel
2025.03.07,08:16:15,36.9683,27.9872,5.4,,1.9,,GOKOVA KORFEZI (EGE DENIZI) İlksel
2025.03.07,08:35:17,39.9598,39.6115,4.2,,1.5,,ESKIYOL-KELKIT (GUMUSHANE) İlksel
2025.03.07,08:51:21,38.1200,36.7567,5.0,,2.3,,KORKMAZ-GOKSUN (KAHRAMANMARAS) İlksel
2025.03.07,08:58:11,40.3665,27.4070,9.4,,1.6,,BOZLAR-BIGA (CANAKKALE) İlksel
2025.03.07,09:23:52,39.2825,41.7395,16.3,,2.4,,TELLITEPE-HINIS (ERZURUM) İlksel
2025.03.07,09:27:54,37.1018,28.3682,6.3,,1.6,,KIZILAGAC-ULA (MUGLA) İlksel
2025.03.07,09:31:44,36.0867,27.7672,5.0,,2.1,,RODOS ADASI (AKDENIZ) İlksel
2025.03.07,09:33:59,36.6523,25.8117,15.5,,2.0,,EGE DENIZI İlksel
2025.03.07,09:45:21,36.5323,36.3400,1.4,,3.4,3.2,ALAYBEYLI-KIRIKHAN (HATAY) İlksel
2025.03.07,09:57:52,38.5372,39.2537,5.0,,1.3,,YEDIGOZE-(ELAZIG) İlksel
2025.03.07,10:03:12,38.1343,36.7718,8.3,,1.6,,DEVEBOYNU-AFSIN (KAHRAMANMARAS) İlksel
2025.03.07,10:51:18,35.9515,27.4150,7.3,,2.9,,EGE DENIZI İlksel
2025.03.07,11:10:49,39.4940,28.0570,5.0,,2.0,,COMLEKCI-BIGADIC (BALIKESIR) İlksel
2025.03.07,11:17:17,39.7308,40.5362,6.9,,2.2,,GUZBULAK-TERCAN (ERZINCAN) İlksel
2025.03.07,12:24:02,41.0878,25.2472,9.8,,1.9,,YUNANISTAN İlksel
2025.03.07,12:50:40,39.6287,31.4957,0.0,,1.7,,KARACAM-MIHALICCIK (ESKISEHIR) İlksel
2025.03.07,12:52:56,40.6683,27.4692,13.2,,2.1,,GUZELKOY ACIKLARI-TEKIRDAG (MARMARA DENIZI) İlksel
2025.03.07,13:09:52,38.0440,38.1397,7.6,,1.6,,PINARBASI-CELIKHAN (ADIYAMAN) İlksel
2025.03.07,13:19:12,37.1440,27.8608,0.0,,1.7,,BAGDAMLARI-MILAS (MUGLA) İlksel
2025.03.07,13:40:11,38.3630,27.3628,5.3,,1.6,,VISNELI-KEMALPASA (IZMIR) İlksel
2025.03.07,13:54:19,39.9223,28.8602,0.0,,1.7,,GUMUSPINAR-ORHANELI (BURSA) İlksel
2025.03.07,14:01:17,35.9310,27.5217,5.4,,1.8,,EGE DENIZI İlksel
2025.03.07,14:02:53,36.5632,25.4645,3.7,,1.9,,EGE DENIZI İlksel
2025.03.07,15:10:19,38.8950,39.7787,6.2,,2.5,,KAYACI-MAZGIRT (TUNCELI) İlksel
2025.03.07,15:17:00,38.4033,38.8910,5.4,,2.6,,YAYLANLI-BASKIL (ELAZIG) İlksel
2025.03.07,15:30:50,36.6427,25.6767,2.2,,3.4,3.3,EGE DENIZI İlksel
2025.03.07,15:39:01,38.0855,37.1105,5.0,,3.0,2.8,ORTAOREN-EKINOZU (KAHRAMANMARAS) İlksel
2025.03.07,16:42:07,36.6853,25.4657,21.4,,2.7,,EGE DENIZI İlksel
2025.03.07,18:03:19,40.3548,24.1575,4.4,,2.3,,YUNANISTAN İlksel
2025.03.07,18:04:28,39.2993,41.7670,7.6,,2.6,,BAYIRKOY-HINIS (ERZURUM) İlksel
2025.03.07,18:18:18,36.6102,25.4385,7.6,,2.0,,EGE DENIZI İlksel
2025.03.07,18:33:20,36.6033,25.3620,11.6,,2.1,,EGE DENIZI İlksel
2025.03.07,19:37:12,36.6832,25.6357,5.4,,2.1,,EGE DENIZI İlksel
2025.03.07,20:29:10,38.7267,43.1772,2.3,,2.5,,VAN GOLU İlksel
2025.03.07,21:04:50,38.1997,38.0127,6.1,,3.5,3.6,SUCATI-DOGANSEHIR (MALATYA) İlksel
2025.03.07,21:31:29,37.1130,28.4152,4.5,,1.5,,ULA (MUGLA) İlksel
2025.03.07,21:46:06,35.8278,31.6610,14.6,,2.4,,AKDENIZ İlksel
2025.03.07,21:49:14,36.6923,25.5905,8.2,,3.2,3.1,EGE DENIZI İlksel
2025.03.07,21:56:58,38.5898,38.1620,26.6,,1.4,,YAZIHAN (MALATYA) İlksel
2025.03.07,22:03:16,37.9215,36.6502,7.2,,1.5,,TEKIR-(KAHRAMANMARAS) İlksel
2025.03.07,23:14:15,36.6507,25.4663,9.0,,2.0,,EGE DENIZI İlksel
2025.03.07,23:36:14,38.5362,37.1825,5.0,,2.0,,BEYYURDU-ELBISTAN (KAHRAMANMARAS) İlksel
2025.03.07,23:45:09,35.4728,27.2872,14.7,,2.3,,AKDENIZ İlksel
2025.03.07,23:47:30,36.6518,25.5943,6.7,,2.2,,EGE DENIZI İlksel
2025.03.07,23:54:02,36.6813,25.5543,10.6,,3.0,2.9,EGE DENIZI İlksel
2025.03.08,00:01:11,36.6568,25.5708,14.5,,2.5,,EGE DENIZI İlksel
2025.03.08,00:10:27,36.4372,36.2598,6.7,,1.7,,SENBUK-BELEN (HATAY) İlksel
2025.03.08,00:53:50,39.0387,42.6332,14.9,,1.8,,KURTULMUSOGLU-MALAZGIRT (MUS) İlksel
2025.03.08,02:34:26,39.9688,36.1068,5.0,,1.6,,CIME-SULUSARAY (TOKAT) İlksel
2025.03.08,02:44:09,36.6908,25.5985,12.0,,2.3,,EGE DENIZI İlksel
2025.03.08,03:21:43,36.6877,25.5257,9.6,,2.6,,EGE DENIZI İlksel
2025.03.08,03:50:23,37.1997,28.8872,5.0,,1.6,,BEYAGAC (DENIZLI) İlksel
2025.03.08,03:57:54,40.3492,24.1327,5.5,,2.1,,YUNANISTAN İlksel
2025.03.08,04:12:02,38.6503,31.2010,10.2,,0.8,,ORTAKARABAG-BOLVADIN (AFYONKARAHISAR) İlksel
2025.03.08,04:27:33,39.0483,27.4688,10.0,,1.5,,ELMADERE-KINIK (IZMIR) İlksel
2025.03.08,04:41:28,37.3105,36.8603,5.4,,1.3,,MINEHUYUK-TURKOGLU (KAHRAMANMARAS) İlksel
2025.03.08,04:48:39,37.0040,29.1582,3.4,,2.6,,AKPINAR-CAMELI (DENIZLI) İlksel
2025.03.08,05:44:41,35.6532,27.2837,7.2,,1.9,,EGE DENIZI İlksel
2025.03.08,06:11:47,36.6592,25.5962,4.7,,2.3,,EGE DENIZI İlksel
2025.03.08,06:19:48,39.2787,41.7428,8.4,,1.5,,TELLITEPE-HINIS (ERZURUM) İlksel
2025.03.08,06:27:45,38.2622,38.2118,19.3,,1.3,,SEYITUSAGI-YESILYURT (MALATYA) İlksel
2025.03.08,06:29:44,40.3385,24.1163,4.7,,2.0,,YUNANISTAN İlksel
2025.03.08,06:36:45,35.9597,27.4425,7.3,,1.5,,EGE DENIZI İlksel
2025.03.08,07:16:08,40.1390,25.4472,8.9,,2.9,,EGE DENIZI İlksel
2025.03.08,07:28:15,36.6698,25.6763,6.3,,2.0,,EGE DENIZI İlksel
2025.03.08,07:44:39,42.7658,36.2190,14.4,,3.2,3.2,KARADENIZ İlksel
2025.03.08,07:47:01,42.6668,36.2557,12.7,,2.9,,KARADENIZ İlksel
2025.03.08,07:56:11,36.5975,25.4915,12.6,,2.5,,EGE DENIZI İlksel
2025.03.08,08:00:44,36.6017,25.4553,8.6,,1.9,,EGE DENIZI İlksel
2025.03.08,08:02:10,38.2598,25.8983,4.8,,1.8,,SAKIZ ADASI (EGE DENIZI) İlksel
2025.03.08,08:27:01,40.6737,44.1003,5.0,,4.5,4.6,ERMENISTAN İlksel
2025.03.08,08:28:44,35.9390,27.4685,2.5,,2.3,,EGE DENIZI İlksel
2025.03.08,08:31:49,36.6927,25.6822,15.5,,2.3,,EGE DENIZI İlksel
2025.03.08,08:52:31,39.9647,26.8970,6.2,,2.6,,KECIAGILI-CAN (CANAKKALE) İlksel
2025.03.08,09:29:57,36.9903,29.1645,4.4,,3.0,3.1,AKPINAR-CAMELI (DENIZLI) İlksel
2025.03.08,09:31:52,40.8840,44.2507,5.0,,3.1,3.4,ERMENISTAN İlksel
2025.03.08,09:54:14,36.7018,25.7600,5.4,,1.6,,EGE DENIZI İlksel
2025.03.08,09:58:49,39.9957,27.8907,20.6,,1.3,,HACIIBRAHIMPINARI-MANYAS (BALIKESIR) İlksel
2025.03.08,09:58:50,40.0530,27.9010,0.0,,1.2,,KUBAS-MANYAS (BALIKESIR) İlksel
2025.03.08,10:40:06,36.1182,27.7665,5.0,,2.7,,RODOS ADASI (AKDENIZ) İlksel
2025.03.08,11:20:17,40.5738,28.8923,10.8,,1.9,,MECIDIYE-ARMUTLU (YALOVA) İlksel
2025.03.08,11:56:49,39.7850,27.8970,9.2,,2.7,,KARACAOREN-(BALIKESIR) İlksel
2025.03.08,12:06:54,39.7922,27.8815,12.3,,2.6,,KARACAOREN-(BALIKESIR) İlksel
2025.03.08,12:08:42,38.7285,43.3970,5.0,,3.0,,HIDIRKOY-(VAN) İlksel
2025.03.08,12:09:33,39.7785,27.8787,9.0,,1.7,,KARAKOLKOY-(BALIKESIR) İlksel
2025.03.08,12:13:23,40.3438,24.1097,5.7,,2.3,,YUNANISTAN İlksel
2025.03.08,12:35:25,39.8045,27.9043,5.2,,1.6,,HALKAPINAR-(BALIKESIR) İlksel
2025.03.08,12:37:51,36.9527,35.7567,5.0,,1.6,,YENIKOYNAZIMBEY-CEYHAN (ADANA) İlksel
2025.03.08,12:42:45,37.8703,38.2160,5.0,,1.8,,AKCALI-(ADIYAMAN) İlksel
2025.03.08,13:10:21,39.0780,34.6490,5.0,,2.6,,KARAOVA-HACIBEKTAS (NEVSEHIR) İlksel
2025.03.08,13:58:53,38.0683,37.0817,5.4,,1.7,,KANDILKOY-EKINOZU (KAHRAMANMARAS) İlksel
2025.03.08,14:18:14,39.4205,29.2388,0.0,,1.8,,EGRIGOZ-EMET (KUTAHYA) İlksel
2025.03.08,14:52:36,38.6963,43.4117,5.0,,2.1,,KASIMOGLU-(VAN) İlksel
2025.03.08,14:56:42,37.6847,29.6330,14.1,,1.6,,BEYLERLI-CARDAK (DENIZLI) İlksel
2025.03.08,14:57:40,38.6637,43.4143,16.3,,2.4,,KASIMOGLU-(VAN) İlksel
2025.03.08,15:07:37,36.6483,25.5963,9.3,,2.2,,EGE DENIZI İlksel
2025.03.08,15:29:46,38.8725,24.9487,5.1,,2.5,,EGE DENIZI İlksel
2025.03.08,15:30:49,38.8687,24.9822,5.4,,2.7,,EGE DENIZI İlksel
2025.03.08,16:04:26,36.6043,25.5143,10.8,,2.4,,EGE DENIZI İlksel
2025.03.08,16:04:38,38.5405,37.2120,5.0,,1.3,,YAPILI-ELBISTAN (KAHRAMANMARAS) İlksel
2025.03.08,16:14:09,36.5908,25.4760,8.0,,1.9,,EGE DENIZI İlksel
2025.03.08,16:17:44,36.6040,25.4318,8.8,,2.3,,EGE DENIZI İlksel
2025.03.08,17:09:11,36.6262,25.5323,5.4,,1.9,,EGE DENIZI İlksel
2025.03.08,17:56:02,36.6763,25.6555,12.3,,2.2,,EGE DENIZI İlksel
2025.03.08,18:43:43,37.1323,28.8415,4.9,,2.0,,OTMANLAR-KOYCEGIZ (MUGLA) İlksel
2025.03.08,18:53:23,39.5253,28.1290,3.5,,1.9,,YENIKOY-BIGADIC (BALIKESIR) İlksel
2025.03.08,18:56:16,37.2583,36.9572,8.3,,3.7,3.5,INCIRLI-NURDAGI (GAZIANTEP) İlksel
2025.03.08,19:10:24,36.6650,25.6678,11.3,,2.0,,EGE DENIZI İlksel
2025.03.08,19:25:07,38.5687,30.3122,9.4,,1.8,,NUH-SINANPASA (AFYONKARAHISAR) İlksel
2025.03.08,19:29:32,38.1828,37.8320,10.2,,2.1,,POLAT-DOGANSEHIR (MALATYA) İlksel
2025.03.08,20:07:29,35.7203,25.4610,7.7,,2.9,,EGE DENIZI İlksel
2025.03.08,20:10:46,35.6617,31.7703,11.9,,2.1,,AKDENIZ İlksel
2025.03.08,20:28:09,36.6852,25.5098,13.9,,2.5,,EGE DENIZI İlksel
2025.03.08,20:42:11,36.6383,25.4490,5.2,,2.0,,EGE DENIZI İlksel
2025.03.08,21:28:26,39.7903,27.8870,5.3,,3.0,,KARACAOREN-(BALIKESIR) İlksel
2025.03.08,21:58:02,36.6622,25.4417,9.0,,2.3,,EGE DENIZI İlksel
2025.03.08,23:16:48,38.1193,37.0083,5.5,,1.8,,CALIS-ELBISTAN (KAHRAMANMARAS) İlksel
2025.03.08,23:47:35,36.6093,25.5222,22.8,,2.0,,EGE DENIZI İlksel
2025.03.08,23:55:57,36.6068,25.5388,8.5,,3.6,3.8,EGE DENIZI İlksel
2025.03.09,00:00:27,36.5773,25.6845,19.1,,2.0,,EGE DENIZI İlksel
2025.03.09,00:08:25,40.7545,28.7083,11.4,,1.6,,MARMARA DENIZI İlksel
2025.03.09,00:45:55,39.4835,37.3690,5.0,,1.5,,KAPUKAYA-ULAS (SIVAS) İlksel
2025.03.09,00:51:11,37.8183,36.2548,5.5,,2.6,,KAPAKLIKUYU-SAIMBEYLI (ADANA) İlksel
2025.03.09,02:48:11,36.0523,35.6918,5.0,,1.4,,AKDENIZ İlksel
2025.03.09,03:57:05,37.1573,28.5460,7.2,,1.6,,YAYLASOGUT-ULA (MUGLA) İlksel
2025.03.09,04:35:54,34.8845,29.0797,87.1,,4.3,4.2,AKDENIZ İlksel
2025.03.09,04:58:45,38.1170,37.8290,1.1,,2.6,,FINDIKKOY-DOGANSEHIR (MALATYA) İlksel
2025.03.09,05:20:32,36.7528,25.5073,13.7,,3.1,3.1,EGE DENIZI İlksel
2025.03.09,06:20:44,38.0932,38.5287,14.1,,1.7,,NARLI-SINCIK (ADIYAMAN) İlksel
2025.03.09,06:20:51,38.2067,36.6018,8.5,,1.3,,KAVSUT-GOKSUN (KAHRAMANMARAS) İlksel
2025.03.09,07:48:30,37.2083,36.9410,5.0,,2.0,,SATIRHUYUK-NURDAGI (GAZIANTEP) İlksel
2025.03.09,08:04:25,36.1170,27.3982,26.7,,1.6,,EGE DENIZI İlksel
2025.03.09,08:46:06,36.6392,25.5765,7.7,,2.3,,EGE DENIZI İlksel
2025.03.09,10:14:20,38.2388,38.6305,5.7,,3.7,3.7,KAVAKLIDERE-PUTURGE (MALATYA) İlksel
2025.03.09,12:35:33,37.1403,27.8915,13.1,,1.6,,BAGDAMLARI-MILAS (MUGLA) İlksel
2025.03.09,12:38:03,40.0080,41.3738,8.0,,2.1,,KUCUKTUY-PASINLER (ERZURUM) İlksel
2025.03.09,13:49:16,38.1267,36.5790,5.0,,2.0,,CAMDERE-GOKSUN (KAHRAMANMARAS) İlksel
2025.03.09,15:09:01,36.6750,25.5978,27.2,,2.2,,EGE DENIZI İlksel
2025.03.09,15:48:49,36.1567,27.7122,23.7,,1.7,,RODOS ADASI (AKDENIZ) İlksel
2025.03.09,16:06:02,40.0180,36.1538,8.6,,1.9,,CIRDAK-YESILYURT (TOKAT) İlksel
2025.03.09,16:15:46,35.9570,27.3720,9.1,,2.3,,EGE DENIZI İlksel
2025.03.09,17:15:05,40.2738,24.1323,11.8,,2.1,,YUNANISTAN İlksel
2025.03.09,17:31:29,39.2498,25.7540,6.3,,1.7,,EGE DENIZI İlksel
2025.03.09,19:24:59,38.5090,39.4392,5.1,,2.5,,GOLARDI-(ELAZIG) İlksel
2025.03.09,19:42:54,39.8265,32.9583,2.8,,1.6,,CANKAYA (ANKARA) İlksel
2025.03.09,20:16:03,39.5342,26.2215,10.1,,1.2,,TABAKLAR-AYVACIK (CANAKKALE) İlksel
2025.03.09,20:17:26,39.7673,41.7902,9.4,,1.8,,MESCITLI-KOPRUKOY (ERZURUM) REVIZE01 (2025.03.09 20:17:26)
2025.03.09,20:59:13,40.4735,29.2032,9.4,,2.3,,SAHINYURDU-GEMLIK (BURSA) İlksel
2025.03.09,21:24:01,37.8177,36.5733,5.4,,2.1,,CUKURHISAR-(KAHRAMANMARAS) İlksel
2025.03.09,22:27:09,39.4378,27.9792,5.7,,2.4,,DIKKONAK-BIGADIC (BALIKESIR) İlksel
2025.03.09,22:53:46,36.4610,36.2292,6.6,,2.6,,CAKALLI-BELEN (HATAY) İlksel
2025.03.10,00:08:18,38.6325,30.9988,8.5,,1.3,,CAY (AFYONKARAHISAR) İlksel
2025.03.10,00:22:05,38.3215,45.1133,5.3,,3.3,3.3,IRAN İlksel
2025.03.10,01:45:33,36.5165,25.5232,5.0,,3.1,3.1,EGE DENIZI İlksel
2025.03.10,02:28:00,40.0110,34.1888,5.0,,3.3,3.3,DAYINCIK-SUNGURLU (CORUM) İlksel
2025.03.10,02:34:35,39.6573,27.7062,14.1,,1.5,,BAKACAK-(BALIKESIR) İlksel
2025.03.10,03:29:43,36.4568,28.6955,5.0,,3.8,3.8,AKDENIZ İlksel
2025.03.10,03:39:16,36.4568,28.7390,5.9,,3.0,3.0,AKDENIZ İlksel
2025.03.10,04:30:28,37.8898,26.7177,8.0,,1.5,,EGE DENIZI İlksel
2025.03.10,04:34:52,39.4293,28.0148,6.6,,3.0,,ELYAPAN-BIGADIC (BALIKESIR) İlksel
2025.03.10,05:59:27,41.9565,24.1207,6.6,,3.3,3.3,BULGARISTAN İlksel
2025.03.10,06:22:08,38.3720,38.7717,5.0,,3.0,,TEPEKOY-KALE (MALATYA) İlksel
2025.03.10,06:36:28,37.1407,28.8142,7.5,,2.4,,KARACAOREN-(MUGLA) İlksel
2025.03.10,06:54:20,38.0182,34.3373,5.0,,1.7,,YAKACIK-ALTUNHISAR (NIGDE) İlksel
2025.03.10,07:25:10,39.4612,28.0000,5.0,,1.6,,AKYAR-BIGADIC (BALIKESIR) İlksel
2025.03.10,08:05:01,38.4797,39.4093,1.3,,1.5,,YONCAPINAR-MADEN (ELAZIG) İlksel
2025.03.10,08:27:57,36.4645,28.7250,5.0,,2.4,,AKDENIZ İlksel
2025.03.10,08:34:46,36.6010,25.4983,16.9,,2.3,,EGE DENIZI İlksel
2025.03.10,08:46:00,38.0237,34.2847,13.7,,1.3,,AKCAOREN-ALTUNHISAR (NIGDE) İlksel
2025.03.10,09:02:09,35.5543,31.6515,7.1,,1.5,,AKDENIZ İlksel
2025.03.10,09:18:48,40.8585,31.6457,9.9,,1.0,,CUKUROREN-(BOLU) İlksel
2025.03.10,09:20:27,36.6737,25.5463,17.8,,2.7,,EGE DENIZI İlksel
2025.03.10,09:30:52,36.5682,25.6192,9.1,,1.7,,EGE DENIZI İlksel
2025.03.10,09:37:06,36.5688,25.5750,6.4,,2.2,,EGE DENIZI İlksel
2025.03.10,09:54:47,38.2352,37.5062,9.5,,1.7,,KANGAL-ELBISTAN (KAHRAMANMARAS) İlksel
2025.03.10,09:59:06,36.5867,25.4932,4.5,,2.0,,EGE DENIZI İlksel
2025.03.10,10:10:20,36.6973,25.5617,9.7,,1.7,,EGE DENIZI İlksel
2025.03.10,10:34:17,39.0485,28.0710,16.6,,1.6,,KOMURCU-AKHISAR (MANISA) İlksel
2025.03.10,10:47:18,36.6328,25.5652,9.5,,1.8,,EGE DENIZI İlksel
2025.03.10,10:50:22,38.0867,37.5155,15.5,,1.5,,SUNNETKOY-ELBISTAN (KAHRAMANMARAS) İlksel
2025.03.10,10:52:16,36.4953,28.6855,12.4,,1.6,,AKDENIZ İlksel
2025.03.10,11:40:07,38.2738,38.5613,13.6,,1.6,,TANISIK-(MALATYA) İlksel
2025.03.10,12:23:53,38.2715,38.6145,5.0,,2.4,,PELITLI-(MALATYA) İlksel
2025.03.10,12:25:03,36.6723,25.6273,2.0,,1.5,,EGE DENIZI İlksel
2025.03.10,12:33:46,36.7308,25.5980,7.8,,2.8,,EGE DENIZI İlksel
2025.03.10,12:42:41,37.3573,37.0560,1.5,,1.4,,ARSLANBEY-PAZARCIK (KAHRAMANMARAS) İlksel
2025.03.10,13:04:33,39.2802,29.4113,27.2,,1.5,,OMERFAKI-EMET (KUTAHYA) İlksel
2025.03.10,13:31:38,36.9972,29.1668,26.7,,1.4,,AKPINAR-CAMELI (DENIZLI) İlksel
2025.03.10,13:37:23,36.6020,25.5422,12.1,,2.1,,EGE DENIZI İlksel
2025.03.10,13:55:37,38.7702,43.3402,5.0,,1.6,,SAHGELDI-(VAN) İlksel
2025.03.10,14:12:02,35.7348,27.3017,11.6,,2.2,,EGE DENIZI İlksel
2025.03.10,14:25:34,36.5362,25.5778,5.4,,1.5,,EGE DENIZI İlksel
2025.03.10,14:25:58,37.1065,35.7018,22.7,,1.7,,TATLIKUYU-CEYHAN (ADANA) İlksel
2025.03.10,14:35:58,34.6662,23.4390,11.5,,2.4,,GIRIT ADASI (AKDENIZ) İlksel
2025.03.10,15:06:43,38.4677,36.3863,18.0,,1.3,,KUCUKKABAKTEPE-SARIZ (KAYSERI) İlksel
2025.03.10,15:09:55,36.6502,25.5470,5.4,,2.3,,EGE DENIZI İlksel
2025.03.10,15:18:24,36.6938,25.7420,5.6,,1.9,,EGE DENIZI İlksel
2025.03.10,15:40:19,38.7842,38.9380,28.3,,1.7,,BALIBEY-(ELAZIG) İlksel
2025.03.10,15:53:45,37.1892,36.0572,7.3,,1.8,,GUNLUCE-CEYHAN (ADANA) İlksel
2025.03.10,16:24:10,38.1710,37.8730,12.3,,1.7,,POLAT-DOGANSEHIR (MALATYA) İlksel
2025.03.10,16:35:40,36.4593,28.7085,5.0,,3.3,3.2,AKDENIZ İlksel
2025.03.10,16:53:54,36.6778,25.6488,5.3,,2.7,,EGE DENIZI İlksel
2025.03.10,19:00:58,36.4870,28.9318,24.4,,2.0,,OLUDENIZ ACIKLARI-MUGLA (AKDENIZ) İlksel
2025.03.10,21:00:12,38.5433,40.3175,15.1,,1.5,,CAYBASI-GENC (BINGOL) İlksel
2025.03.10,22:07:48,39.4393,26.2708,10.5,,2.2,,EDREMIT KORFEZI (EGE DENIZI) İlksel
2025.03.10,22:19:55,39.4598,33.1935,11.7,,1.0,,SIRAPINAR-BALA (ANKARA) İlksel
2025.03.10,22:35:10,37.5982,35.4348,3.9,,2.9,,DARILIK-ALADAG (ADANA) İlksel
