Date,Time,Latitude,Longitude,Depth,MD,ML,Mw,Location
2025.06.01,00:35:17,39.2440,28.9653,7.5,,2.6,,YEMISLI-SIMAV (KUTAHYA) İlksel
2025.06.01,00:38:30,39.2412,28.9895,3.7,,1.6,,YEMISLI-SIMAV (KUTAHYA) İlksel
2025.06.01,00:58:52,39.1883,40.2678,5.0,,2.8,,DARKOPRU-KIGI (BINGOL) İlksel
2025.06.01,01:19:10,36.0793,31.1013,18.0,,4.1,,AKDENIZ İlksel
2025.06.01,02:00:28,38.4992,39.1810,7.9,,3.0,,DEDEPINARI-(ELAZIG) İlksel
2025.06.01,02:20:15,40.7680,28.6685,17.6,,1.6,,MARMARA DENIZI İlksel
2025.06.01,02:21:12,37.9843,38.0880,8.5,,1.6,,KURUCAOVA-DOGANSEHIR (MALATYA) İlksel
2025.06.01,02:24:31,38.5345,38.0038,7.3,,2.1,,IRIAGAC-YAZIHAN (MALATYA) İlksel
2025.06.01,02:32:08,39.2503,40.3242,25.3,,1.6,,ESME-KIGI (BINGOL) İlksel
2025.06.01,02:33:54,39.2257,40.3333,5.0,,2.0,,DEMIRKANAT-KIGI (BINGOL) İlksel
2025.06.01,02:43:53,40.1652,31.7513,4.6,,2.1,,HIRKATEPE-BEYPAZARI (ANKARA) İlksel
2025.06.01,02:46:00,36.2885,27.0127,9.9,,1.7,,EGE DENIZI İlksel
2025.06.01,03:00:25,39.2432,28.9912,6.8,,1.6,,YEMISLI-SIMAV (KUTAHYA) İlksel
2025.06.01,03:24:26,38.4725,40.5387,12.7,,1.4,,CEPER-LICE (DIYARBAKIR) İlksel
2025.06.01,03:30:15,38.5473,38.0125,7.3,,1.9,,CIVRIL-YAZIHAN (MALATYA) İlksel
2025.06.01,03:44:31,38.7415,43.0618,5.0,,2.1,,ESENKIYI-ADILCEVAZ (BITLIS) İlksel
2025.06.01,03:47:11,38.7395,43.0737,19.2,,1.8,,VAN GOLU İlksel
2025.06.01,03:49:47,38.3057,38.8477,13.6,,1.4,,GUNDEGER-PUTURGE (MALATYA) İlksel
2025.06.01,03:53:35,40.8565,28.4247,16.5,,1.6,,MARMARA DENIZI İlksel
2025.06.01,04:04:00,36.4428,29.1530,5.8,,1.4,,KARAAGAC-FETHIYE (MUGLA) İlksel
2025.06.01,04:26:58,36.2282,31.2448,10.5,,2.5,,AKDENIZ İlksel
2025.06.01,06:10:11,39.2602,28.9775,5.4,,3.0,,YEMISLI-SIMAV (KUTAHYA) İlksel
2025.06.01,06:33:31,38.5692,37.9862,2.8,,2.3,,IRIAGAC-YAZIHAN (MALATYA) İlksel
2025.06.01,06:37:36,36.6697,25.7555,5.0,,2.0,,EGE DENIZI İlksel
2025.06.01,06:50:39,39.2257,40.2723,7.0,,2.4,,DALLICA-KIGI (BINGOL) İlksel
2025.06.01,06:51:14,37.2887,29.5167,5.0,,2.0,,CAMKOY-GOLHISAR (BURDUR) İlksel
2025.06.01,07:10:21,39.1997,40.2747,5.0,,2.2,,DARKOPRU-KIGI (BINGOL) İlksel
2025.06.01,07:28:09,35.0593,25.1608,10.1,,3.5,,GIRIT ADASI (AKDENIZ) İlksel
2025.06.01,08:50:11,40.0245,27.8800,17.3,,2.0,,DARICA-MANYAS (BALIKESIR) İlksel
2025.06.01,08:51:58,40.0508,27.8348,17.2,,1.3,,SULEYMANLI-MANYAS (BALIKESIR) İlksel
2025.06.01,08:55:22,40.0563,27.8698,13.1,,1.7,,HACIYAKUP-MANYAS (BALIKESIR) İlksel
2025.06.01,08:56:33,40.0257,27.8545,15.5,,2.1,,DARICA-MANYAS (BALIKESIR) İlksel
2025.06.01,08:57:54,40.0492,27.8462,16.7,,2.9,,SULEYMANLI-MANYAS (BALIKESIR) İlksel
2025.06.01,09:49:33,36.6030,36.2877,8.2,,2.5,,GUZELKOY-ISKENDERUN (HATAY) İlksel
2025.06.01,09:49:33,36.5968,36.3183,7.6,,2.6,,YILANLI-KIRIKHAN (HATAY) İlksel
2025.06.01,10:15:32,40.0330,27.8492,11.0,,3.1,,SULEYMANLI-MANYAS (BALIKESIR) İlksel
2025.06.01,10:16:18,40.0410,27.8780,10.7,,2.0,,HACIYAKUP-MANYAS (BALIKESIR) İlksel
2025.06.01,10:18:29,40.0417,27.8462,17.8,,1.7,,SULEYMANLI-MANYAS (BALIKESIR) İlksel
2025.06.01,10:54:54,36.6527,25.6345,6.5,,3.3,3.3,EGE DENIZI İlksel
2025.06.01,10:55:50,37.2050,37.0497,8.3,,2.4,,ATALAR-SEHITKAMIL (GAZIANTEP) İlksel
2025.06.01,11:13:05,36.6445,25.5868,7.5,,2.3,,EGE DENIZI İlksel
2025.06.01,11:20:11,38.3243,27.2050,9.0,,1.8,,ZAFER-BUCA (IZMIR) İlksel
2025.06.01,11:20:12,39.2398,40.3000,8.6,,2.0,,DALLICA-KIGI (BINGOL) İlksel
2025.06.01,11:31:04,39.2415,40.2868,5.0,,2.3,,DALLICA-KIGI (BINGOL) İlksel
2025.06.01,11:41:28,38.0602,37.2450,8.3,,1.5,,GUMUSDOVEN-ELBISTAN (KAHRAMANMARAS) İlksel
2025.06.01,12:26:21,39.2308,40.2822,5.0,,4.4,4.5,DALLICA-KIGI (BINGOL) İlksel
2025.06.01,12:31:12,39.1760,40.2712,7.8,,2.9,,DARKOPRU-KIGI (BINGOL) İlksel
2025.06.01,12:55:37,39.2122,40.2892,5.9,,3.6,,DARKOPRU-KIGI (BINGOL) İlksel
2025.06.01,13:01:42,39.2220,40.2577,7.6,,2.6,,DALLICA-KIGI (BINGOL) İlksel
2025.06.01,13:07:32,36.6503,25.6885,12.9,,2.2,,EGE DENIZI İlksel
2025.06.01,13:39:25,39.2138,40.2978,5.0,,3.1,3.3,DEMIRKANAT-KIGI (BINGOL) İlksel
2025.06.01,13:53:35,39.1557,29.0290,15.3,,1.4,,KARACAOREN-SIMAV (KUTAHYA) İlksel
2025.06.01,14:33:32,39.2052,40.3052,9.1,,2.6,,DEMIRKANAT-KIGI (BINGOL) İlksel
2025.06.01,15:11:54,36.5317,28.7088,16.7,,1.7,,AKDENIZ İlksel
2025.06.01,15:15:30,39.2602,40.2585,5.0,,2.7,,YAZGUNU-KIGI (BINGOL) İlksel
2025.06.01,15:32:01,38.4388,25.4622,10.3,,3.2,3.2,EGE DENIZI İlksel
2025.06.01,15:41:14,38.4422,25.4883,11.9,,2.9,,EGE DENIZI İlksel
2025.06.01,16:05:21,40.4960,26.5192,8.5,,1.7,,SAROS KORFEZI (EGE DENIZI) İlksel
2025.06.01,16:12:21,37.8637,36.3030,5.0,,2.6,,PAYAMBURNU-GOKSUN (KAHRAMANMARAS) İlksel
2025.06.01,17:58:56,39.2493,28.9958,9.3,,1.9,,YEMISLI-SIMAV (KUTAHYA) İlksel
2025.06.01,18:03:39,39.2587,28.9747,11.9,,1.5,,YEMISLI-SIMAV (KUTAHYA) İlksel
2025.06.01,18:13:24,40.1113,25.9467,14.8,,1.7,,ESELEK-GOKCEADA (CANAKKALE) İlksel
2025.06.01,18:15:26,40.1135,25.9500,17.0,,1.8,,ESELEK-GOKCEADA (CANAKKALE) İlksel
2025.06.01,18:16:31,40.1108,25.9953,11.0,,1.8,,ESELEK-GOKCEADA (CANAKKALE) İlksel
2025.06.01,18:51:03,36.2448,36.0187,10.5,,1.7,,YAYLACIK-(HATAY) İlksel
2025.06.01,18:55:44,39.2520,40.3033,5.3,,1.9,,DALLICA-KIGI (BINGOL) İlksel
2025.06.01,19:04:15,34.9613,24.5832,24.6,,2.7,,GIRIT ADASI ACIKLARI (AKDENIZ) İlksel
2025.06.01,19:09:51,39.2495,40.2840,10.6,,2.0,,DALLICA-KIGI (BINGOL) İlksel
2025.06.01,19:18:36,39.2373,28.9918,8.4,,2.1,,YEMISLI-SIMAV (KUTAHYA) İlksel
2025.06.01,19:19:29,39.2445,40.3378,2.6,,2.1,,ESME-KIGI (BINGOL) İlksel
2025.06.01,19:52:48,39.2663,40.2357,9.8,,1.8,,ACIKGUNEY-KIGI (BINGOL) İlksel
2025.06.01,20:26:34,39.2223,40.2958,6.6,,3.3,3.5,DEMIRKANAT-KIGI (BINGOL) İlksel
2025.06.01,20:31:26,36.5830,31.6752,8.8,,4.0,3.8,YESILKOY ACIKLARI-ANTALYA (AKDENIZ) İlksel
2025.06.01,20:39:26,39.2405,40.3228,5.0,,3.3,3.5,DALLICA-KIGI (BINGOL) İlksel
2025.06.01,20:40:47,39.2730,28.9847,11.7,,1.4,,YESILDERE-SIMAV (KUTAHYA) İlksel
2025.06.01,20:41:33,36.5868,31.7223,18.0,,2.3,,YESILKOY ACIKLARI-ANTALYA (AKDENIZ) İlksel
2025.06.01,20:48:13,39.2513,40.3013,8.1,,2.0,,DALLICA-KIGI (BINGOL) İlksel
2025.06.01,21:01:08,39.2333,40.3187,2.1,,3.2,3.4,DEMIRKANAT-KIGI (BINGOL) İlksel
2025.06.01,21:06:53,36.1475,35.9130,12.4,,1.3,,KAPISUYU-SAMANDAG (HATAY) İlksel
2025.06.01,21:08:25,39.2230,40.2928,24.3,,1.8,,DEMIRKANAT-KIGI (BINGOL) İlksel
2025.06.01,21:20:23,39.2483,40.3192,8.8,,1.7,,DALLICA-KIGI (BINGOL) İlksel
2025.06.01,21:51:07,38.1227,38.5063,9.4,,1.4,,GECITLI-SINCIK (ADIYAMAN) İlksel
2025.06.01,22:10:53,39.2207,40.2720,5.7,,2.9,,DARKOPRU-KIGI (BINGOL) İlksel
2025.06.01,22:11:19,35.0177,25.1630,8.6,,2.5,,GIRIT ADASI (AKDENIZ) İlksel
2025.06.01,22:29:13,39.2237,40.3033,4.2,,2.0,,DEMIRKANAT-KIGI (BINGOL) İlksel
2025.06.01,23:12:27,40.6940,44.2957,8.3,,2.6,,ERMENISTAN İlksel
2025.06.01,23:17:29,39.2240,40.2967,8.3,,2.1,,DEMIRKANAT-KIGI (BINGOL) İlksel
2025.06.01,23:32:25,36.9332,28.8603,16.3,,1.8,,PINAR-KOYCEGIZ (MUGLA) İlksel
2025.06.01,23:52:01,38.1437,38.4640,5.0,,1.8,,AKSU-SINCIK (ADIYAMAN) İlksel
2025.06.02,00:02:51,39.2070,40.2703,5.0,,2.9,,DARKOPRU-KIGI (BINGOL) İlksel
2025.06.02,00:06:03,39.2343,40.2995,5.3,,2.0,,DALLICA-KIGI (BINGOL) İlksel
2025.06.02,00:18:51,40.0415,40.0732,20.8,,2.0,,AGAMCAGAM-OTLUKBELI (ERZINCAN) İlksel
2025.06.02,00:22:56,38.5287,37.9953,5.4,,1.3,,SADIKLI-YAZIHAN (MALATYA) İlksel
2025.06.02,00:26:06,38.4960,37.9887,8.7,,1.4,,KADIIBRAHIM-AKCADAG (MALATYA) İlksel
2025.06.02,00:31:27,36.6045,36.3215,7.0,,2.9,,ALIBEYCAGILI-KIRIKHAN (HATAY) İlksel
2025.06.02,00:38:47,39.1950,40.2790,5.0,,2.9,,DARKOPRU-KIGI (BINGOL) İlksel
2025.06.02,00:45:40,39.2343,40.2635,5.5,,1.8,,DALLICA-KIGI (BINGOL) İlksel
2025.06.02,00:55:05,39.2207,40.2832,7.7,,1.7,,DARKOPRU-KIGI (BINGOL) İlksel
2025.06.02,01:22:44,40.5215,25.5965,10.1,,1.5,,EGE DENIZI İlksel
2025.06.02,01:31:24,39.2388,40.2958,12.2,,1.9,,DALLICA-KIGI (BINGOL) İlksel
2025.06.02,01:43:12,38.8113,38.1190,3.1,,1.7,,BASKAVAK-HEKIMHAN (MALATYA) İlksel
2025.06.02,01:49:51,39.2273,40.2815,4.8,,2.1,,DALLICA-KIGI (BINGOL) İlksel
2025.06.02,02:06:59,38.5142,38.0153,5.0,,2.5,,KADIIBRAHIM-AKCADAG (MALATYA) İlksel
2025.06.02,02:11:27,39.1833,40.2740,8.0,,2.2,,DARKOPRU-KIGI (BINGOL) İlksel
2025.06.02,02:16:09,38.7170,26.6605,11.4,,2.4,,IZMIR KORFEZI (EGE DENIZI) İlksel
2025.06.02,03:07:18,38.5097,37.9995,8.0,,1.4,,KADIIBRAHIM-AKCADAG (MALATYA) İlksel
2025.06.02,03:14:49,39.2190,40.2803,5.0,,3.3,3.4,DARKOPRU-KIGI (BINGOL) İlksel
2025.06.02,03:16:25,41.4983,24.9053,2.0,,2.4,,YUNANISTAN İlksel
2025.06.02,03:24:33,40.0227,27.9517,5.0,,1.6,,KAPAKLI-MANYAS (BALIKESIR) İlksel
2025.06.02,03:25:48,39.2177,40.2663,5.4,,1.8,,DARKOPRU-KIGI (BINGOL) İlksel
2025.06.02,03:59:37,37.1315,42.4565,6.5,,2.8,,OVAKOY-SILOPI (SIRNAK) İlksel
2025.06.02,04:08:38,39.2218,40.2817,12.6,,1.9,,DALLICA-KIGI (BINGOL) İlksel
2025.06.02,04:48:06,39.1068,33.2955,5.4,,1.8,,AKIN-SEREFLIKOCHISAR (ANKARA) İlksel
2025.06.02,05:00:57,39.2412,29.0223,5.4,,1.5,,KATRANDAGI-EMET (KUTAHYA) İlksel
2025.06.02,05:11:14,39.0770,42.3768,8.4,,2.1,,GUMUSPINAR-BULANIK (MUS) İlksel
2025.06.02,05:28:54,39.2318,40.3303,25.3,,1.9,,DEMIRKANAT-KIGI (BINGOL) İlksel
2025.06.02,06:42:08,41.1545,23.7972,8.5,,2.0,,YUNANISTAN İlksel
2025.06.02,06:51:59,39.2503,40.2960,17.3,,1.7,,DALLICA-KIGI (BINGOL) İlksel
2025.06.02,06:52:46,35.7967,27.6012,12.1,,2.2,,AKDENIZ İlksel
2025.06.02,08:26:53,39.2423,40.2900,10.0,,2.3,,DALLICA-KIGI (BINGOL) İlksel
2025.06.02,08:43:24,38.2540,25.4995,14.8,,2.2,,EGE DENIZI İlksel
2025.06.02,10:48:33,37.3022,36.2832,16.7,,1.9,,CERCIOGLU-DUZICI (OSMANIYE) İlksel
2025.06.02,11:30:39,40.7640,31.6418,0.0,,1.4,,YENIKOY-(BOLU) İlksel
2025.06.02,11:58:28,39.8930,28.8640,0.0,,2.0,,IKIZOLUK-ORHANELI (BURSA) İlksel
2025.06.02,12:05:22,37.1625,27.8903,0.0,,1.4,,KARACAAGAC-MILAS (MUGLA) İlksel
2025.06.02,12:05:41,36.2407,36.1992,5.4,,1.3,,GUZELBURC-(HATAY) İlksel
2025.06.02,12:06:53,37.2058,27.9173,0.0,,1.7,,KAYADERE-MILAS (MUGLA) İlksel
2025.06.02,12:24:32,38.4808,27.2963,22.0,,1.0,,CICEKLI-BORNOVA (IZMIR) İlksel
2025.06.02,12:28:26,38.5082,27.2903,5.3,,1.5,,CICEKLI-BORNOVA (IZMIR) İlksel
2025.06.02,12:32:05,41.2953,28.9067,0.0,,0.9,,AGACLI-EYUP (ISTANBUL) İlksel
2025.06.02,12:40:35,38.3733,28.3408,12.5,,1.9,,HORZUMKESERLER-ALASEHIR (MANISA) İlksel
2025.06.02,12:57:46,41.1808,28.7990,0.0,,0.7,,PIRINCCI-EYUP (ISTANBUL) İlksel
2025.06.02,13:03:12,36.6215,26.7872,143.7,,2.2,,EGE DENIZI İlksel
2025.06.02,13:07:10,39.4392,28.1703,9.2,,2.0,,SALMANLI-BIGADIC (BALIKESIR) İlksel
2025.06.02,14:04:40,39.2198,40.2880,14.8,,1.8,,DARKOPRU-KIGI (BINGOL) İlksel
2025.06.02,14:39:18,37.4852,32.0962,5.6,,1.7,,YAYLACIK-SEYDISEHIR (KONYA) İlksel
2025.06.02,16:23:36,39.2145,40.2855,13.6,,1.8,,DARKOPRU-KIGI (BINGOL) İlksel
2025.06.02,16:25:13,39.3030,28.9072,5.3,,1.5,,ORTACA-SIMAV (KUTAHYA) İlksel
2025.06.02,16:56:41,38.0693,29.0468,12.8,,1.4,,ERTUGRUL-GUNEY (DENIZLI) İlksel
2025.06.02,17:04:38,39.2240,40.2765,11.3,,2.2,,DALLICA-KIGI (BINGOL) İlksel
2025.06.02,17:42:52,39.1965,29.0832,14.1,,2.2,,TOKAT-HISARCIK (KUTAHYA) İlksel
2025.06.02,17:42:52,39.2177,29.0753,10.0,,1.9,,KARAAGIL-HISARCIK (KUTAHYA) İlksel
2025.06.02,17:45:45,39.2560,28.9595,8.5,,2.0,,YENILER-SIMAV (KUTAHYA) İlksel
2025.06.02,17:50:07,39.6313,32.9690,15.7,,1.4,,BEYNAM-BALA (ANKARA) İlksel
2025.06.02,17:51:50,39.2558,28.9502,10.8,,1.4,,KARAKOCA-SIMAV (KUTAHYA) İlksel
2025.06.02,18:10:47,36.7067,25.8292,5.0,,2.2,,EGE DENIZI İlksel
2025.06.02,18:25:32,35.0807,25.1948,5.0,,2.2,,GIRIT ADASI (AKDENIZ) İlksel
2025.06.02,18:41:44,39.2477,28.9927,4.4,,1.2,,YEMISLI-SIMAV (KUTAHYA) İlksel
2025.06.02,18:56:53,38.0408,36.6520,5.4,,1.8,,GUCUKSU-GOKSUN (KAHRAMANMARAS) İlksel
2025.06.02,19:22:05,36.7070,25.6763,8.0,,2.4,,EGE DENIZI İlksel
2025.06.02,19:39:42,36.9955,31.2990,23.7,,1.5,,CARDAKKOY-MANAVGAT (ANTALYA) İlksel
2025.06.02,19:53:22,35.7512,25.9195,61.7,,2.8,,EGE DENIZI İlksel
2025.06.02,20:49:30,39.2352,29.0807,5.0,,1.7,,KATRANDAGI-EMET (KUTAHYA) İlksel
2025.06.02,20:55:36,36.7260,25.6698,9.6,,2.2,,EGE DENIZI İlksel
2025.06.02,21:00:44,36.5463,27.8640,9.1,,1.6,,EGE DENIZI İlksel
2025.06.02,21:30:43,37.1147,27.8542,9.0,,1.4,,PINARARASI-MILAS (MUGLA) İlksel
2025.06.02,21:43:17,37.1920,30.8612,107.6,,1.6,,KIRBAS-SERIK (ANTALYA) İlksel
2025.06.02,21:53:30,39.2172,40.3135,18.3,,1.7,,DEMIRKANAT-KIGI (BINGOL) İlksel
2025.06.02,22:50:44,39.1567,40.3047,9.0,,1.9,,CANAKCI-KIGI (BINGOL) İlksel
2025.06.02,22:58:42,39.3993,25.9352,9.1,,2.3,,BADEMLI ACIKLARI-CANAKKALE (EGE DENIZI) İlksel
2025.06.02,23:20:49,38.2770,38.5677,5.0,,2.4,,TANISIK-(MALATYA) İlksel
2025.06.02,23:22:15,38.2700,38.6085,16.0,,2.1,,PELITLI-(MALATYA) İlksel
2025.06.02,23:38:19,35.7737,25.9762,24.9,,3.4,3.2,EGE DENIZI İlksel
2025.06.03,00:37:41,40.8865,28.2107,11.3,,1.6,,SILIVRI ACIKLARI-ISTANBUL (MARMARA DENIZI) İlksel
2025.06.03,00:53:11,37.8028,29.2535,4.9,,1.4,,GURLEYIK-HONAZ (DENIZLI) İlksel
2025.06.03,01:27:09,37.9250,37.9422,5.0,,2.9,,ERKENEK-DOGANSEHIR (MALATYA) İlksel
2025.06.03,01:37:04,38.5783,37.9565,11.5,,1.3,,EPREME-YAZIHAN (MALATYA) İlksel
2025.06.03,01:38:56,37.6587,35.9302,5.9,,1.9,,MAHYALAR-KOZAN (ADANA) İlksel
2025.06.03,02:17:27,36.6750,28.2398,76.0,,5.7,5.6,BOZBURUN ACIKLARI-MUGLA (AKDENIZ) İlksel
2025.06.03,02:27:59,36.6310,27.9702,81.0,,2.3,,BOZBURUN ACIKLARI-MUGLA (EGE DENIZI) İlksel
2025.06.03,02:41:22,36.9128,28.0010,15.3,,1.4,,GOKOVA KORFEZI (EGE DENIZI) İlksel
2025.06.03,02:45:01,36.5837,28.1857,68.3,,2.0,,BOZBURUN ACIKLARI-MUGLA (AKDENIZ) İlksel
2025.06.03,02:47:43,36.9283,28.1942,12.0,,1.4,,KARACA-MARMARIS (MUGLA) İlksel
2025.06.03,03:01:06,36.6957,28.1603,80.1,,2.9,,BAYIR-MARMARIS (MUGLA) İlksel
2025.06.03,03:06:58,37.1642,28.3358,17.0,,2.2,,AKKAYA-(MUGLA) İlksel
2025.06.03,03:20:15,36.1173,29.0485,6.3,,2.1,,AKDENIZ İlksel
2025.06.03,04:02:21,38.1822,30.8985,11.6,,1.6,,AKDAG-GELENDOST (ISPARTA) İlksel
2025.06.03,04:20:05,36.6578,28.0728,73.7,,1.4,,SOGUTKOY-MARMARIS (MUGLA) İlksel
2025.06.03,05:03:45,39.2420,29.0363,5.4,,1.5,,KATRANDAGI-EMET (KUTAHYA) İlksel
2025.06.03,05:07:29,39.2325,40.2663,8.1,,2.0,,DALLICA-KIGI (BINGOL) İlksel
2025.06.03,05:36:56,36.6750,25.6655,10.9,,2.5,,EGE DENIZI İlksel
2025.06.03,05:37:22,40.8107,28.2415,5.0,,2.2,,SILIVRI ACIKLARI-ISTANBUL (MARMARA DENIZI) İlksel
2025.06.03,05:47:16,38.9607,26.2127,5.0,,2.4,,MIDILLI ADASI GUNEYI (EGE DENIZI) İlksel
2025.06.03,05:53:34,39.5360,39.6942,1.8,,2.4,,KALECIK-(ERZINCAN) İlksel
2025.06.03,06:55:45,36.9537,28.0922,23.2,,1.3,,GOKOVA KORFEZI (EGE DENIZI) İlksel
2025.06.03,06:57:30,39.2560,28.9413,5.4,,1.4,,KARAKOCA-SIMAV (KUTAHYA) İlksel
2025.06.03,06:57:55,38.4230,38.9675,11.2,,1.5,,YARUSAGI-SIVRICE (ELAZIG) İlksel
2025.06.03,07:06:35,36.3943,28.5222,18.6,,1.9,,AKDENIZ İlksel
2025.06.03,07:06:46,37.7720,36.4887,6.9,,2.6,,GEBEN-ANDIRIN (KAHRAMANMARAS) İlksel
2025.06.03,07:16:55,36.6608,25.7180,10.4,,3.1,3.1,EGE DENIZI İlksel
2025.06.03,07:33:55,36.6820,25.6643,15.3,,2.2,,EGE DENIZI İlksel
2025.06.03,07:55:42,39.2490,28.9747,5.4,,2.1,,YEMISLI-SIMAV (KUTAHYA) İlksel
2025.06.03,08:35:50,39.2663,28.9700,5.2,,1.7,,KARAKOCA-SIMAV (KUTAHYA) İlksel
2025.06.03,08:58:52,39.2268,29.0422,1.6,,1.2,,KATRANDAGI-EMET (KUTAHYA) İlksel
2025.06.03,09:12:00,39.5175,26.1103,12.8,,1.3,,GULPINAR-AYVACIK (CANAKKALE) İlksel
2025.06.03,09:21:52,35.3015,27.3447,14.2,,2.9,,AKDENIZ İlksel
2025.06.03,09:55:39,39.2268,40.2887,6.6,,2.1,,DALLICA-KIGI (BINGOL) İlksel
2025.06.03,09:56:57,39.1318,27.5477,0.0,,1.7,,DEREKOY-SOMA (MANISA) İlksel
2025.06.03,10:16:58,36.9840,28.0683,16.8,,2.3,,GOKOVA KORFEZI (EGE DENIZI) İlksel
2025.06.03,10:36:09,36.6730,25.8193,5.0,,2.2,,EGE DENIZI İlksel
2025.06.03,11:10:25,36.6757,25.5655,3.1,,2.0,,EGE DENIZI İlksel
2025.06.03,11:11:15,38.0088,28.0188,8.0,,1.1,,CAYIRKOY-ODEMIS (IZMIR) İlksel
2025.06.03,11:45:01,36.6355,25.7757,12.9,,3.2,3.1,EGE DENIZI İlksel
2025.06.03,12:00:50,36.2672,33.5728,0.0,,1.3,,ULUPINAR-GULNAR (MERSIN) İlksel
2025.06.03,12:04:19,36.6707,25.7710,11.9,,3.2,3.2,EGE DENIZI İlksel
2025.06.03,12:05:27,36.6555,25.7737,5.5,,2.2,,EGE DENIZI İlksel
2025.06.03,12:11:56,36.6343,25.9517,5.0,,2.1,,EGE DENIZI İlksel
2025.06.03,12:17:20,36.4565,34.3755,5.7,,1.5,,ERDEMLI ACIKLARI-MERSIN (AKDENIZ) İlksel
2025.06.03,12:51:32,36.6235,28.5568,28.9,,1.5,,DALYAN ACIKLARI-MUGLA (AKDENIZ) İlksel
2025.06.03,12:58:14,39.4777,28.2427,14.3,,1.7,,YOLBASI-BIGADIC (BALIKESIR) İlksel
2025.06.03,13:21:14,36.5630,31.9903,18.4,,1.7,,ALANYA (ANTALYA) İlksel
2025.06.03,13:57:17,39.9402,23.9877,12.8,,2.7,,YUNANISTAN İlksel
2025.06.03,14:13:21,38.1767,36.7210,12.6,,1.7,,BUYUKKIZILCIK-GOKSUN (KAHRAMANMARAS) İlksel
2025.06.03,14:26:30,34.7825,25.8288,6.9,,5.1,5.1,GIRIT ADASI ACIKLARI (AKDENIZ) İlksel
2025.06.03,14:46:23,39.2105,40.3028,25.5,,1.9,,DEMIRKANAT-KIGI (BINGOL) İlksel
2025.06.03,14:50:15,38.6145,28.1508,5.3,,1.4,,POYRAZDAMLARI-SALIHLI (MANISA) İlksel
2025.06.03,15:09:40,39.2360,40.2788,8.7,,2.0,,DALLICA-KIGI (BINGOL) İlksel
2025.06.03,15:29:24,40.8918,28.4012,14.7,,1.5,,MARMARA DENIZI İlksel
2025.06.03,15:37:07,36.7408,26.3030,5.0,,2.3,,EGE DENIZI İlksel
2025.06.03,15:53:10,38.1168,32.6358,0.0,,1.1,,CANDIR-SELCUKLU (KONYA) İlksel
2025.06.03,16:15:37,39.4667,25.8860,9.9,,1.7,,GULPINAR ACIKLARI-CANAKKALE (EGE DENIZI) İlksel
2025.06.03,17:10:36,39.2458,40.2838,12.0,,2.4,,DALLICA-KIGI (BINGOL) İlksel
2025.06.03,17:28:11,39.2200,40.2740,7.1,,2.2,,DARKOPRU-KIGI (BINGOL) İlksel
2025.06.03,17:36:51,38.4648,39.1890,5.0,,1.4,,DEDEYOLU-SIVRICE (ELAZIG) İlksel
2025.06.03,18:15:36,40.0610,27.8165,19.7,,1.7,,DOGANCI-MANYAS (BALIKESIR) İlksel
2025.06.03,18:16:20,39.3772,39.0737,6.3,,2.0,,YESILYAZI-OVACIK (TUNCELI) İlksel
2025.06.03,18:47:21,40.0940,27.7415,13.2,,2.6,,CAKMAK-GONEN (BALIKESIR) İlksel
2025.06.03,18:53:58,35.7433,25.5745,12.6,,2.4,,EGE DENIZI İlksel
2025.06.03,18:57:47,40.8142,28.1178,8.9,,2.9,,MARMARA DENIZI İlksel
2025.06.03,19:57:35,36.6695,25.6362,14.4,,2.7,,EGE DENIZI İlksel
2025.06.03,19:58:05,36.7032,25.5213,7.0,,2.6,,EGE DENIZI İlksel
2025.06.03,20:09:50,39.8975,28.8085,0.0,,1.7,,YENIDANISMENT-ORHANELI (BURSA) İlksel
2025.06.03,20:21:24,39.5192,39.9442,8.2,,2.4,,DAGYOLU-PULUMUR (TUNCELI) İlksel
2025.06.03,22:07:30,40.4428,42.2993,16.9,,1.8,,ICMESU-SENKAYA (ERZURUM) İlksel
2025.06.03,22:38:48,38.3232,27.2003,11.4,,2.3,,ZAFER-BUCA (IZMIR) İlksel
2025.06.03,23:13:31,36.3632,29.5022,12.0,,1.3,,CAMLIOVA-KAS (ANTALYA) İlksel
2025.06.03,23:20:38,40.2117,31.8593,5.0,,1.9,,BASOREN-BEYPAZARI (ANKARA) İlksel
2025.06.03,23:28:17,39.3108,41.6863,16.2,,1.8,,KARAAGAC-HINIS (ERZURUM) İlksel
2025.06.03,23:31:41,39.2670,41.6947,1.6,,2.4,,BEYYURDU-HINIS (ERZURUM) İlksel
2025.06.03,23:58:04,40.8592,28.4393,8.3,,2.1,,MARMARA DENIZI İlksel
2025.06.04,00:32:55,39.2138,40.2817,15.0,,1.9,,DARKOPRU-KIGI (BINGOL) İlksel
2025.06.04,00:48:44,39.5700,25.9400,8.0,,1.2,,GULPINAR ACIKLARI-CANAKKALE (EGE DENIZI) İlksel
2025.06.04,00:59:29,39.6633,39.7185,8.6,,1.5,,MERTEKLI-(ERZINCAN) İlksel
2025.06.04,01:13:33,39.4805,29.3285,13.3,,1.4,,OPANOZU-TAVSANLI (KUTAHYA) İlksel
2025.06.04,01:17:13,38.3792,30.9965,4.5,,1.1,,KIRKBAS-YALVAC (ISPARTA) İlksel
2025.06.04,01:25:07,39.2317,26.0162,17.7,,1.5,,MIDILLI ADASI (EGE DENIZI) İlksel
2025.06.04,01:29:51,34.9568,24.2583,18.4,,2.9,,GIRIT ADASI (AKDENIZ) İlksel
2025.06.04,01:34:29,37.6588,35.9645,3.6,,1.9,,CAMLARCA-KOZAN (ADANA) İlksel
2025.06.04,01:48:15,37.5972,35.9627,3.7,,1.8,,MINNETLI-KOZAN (ADANA) İlksel
2025.06.04,01:57:35,37.6770,35.8992,5.0,,1.9,,CULLUUSAGI-KOZAN (ADANA) İlksel
2025.06.04,01:58:40,37.9277,27.6318,9.0,,1.5,,BOZKOY-GERMENCIK (AYDIN) İlksel
2025.06.04,02:28:56,35.8687,28.1197,11.6,,3.0,,AKDENIZ İlksel
2025.06.04,02:39:49,39.2553,29.0015,7.5,,3.2,3.2,YESILDERE-SIMAV (KUTAHYA) İlksel
2025.06.04,02:41:06,39.2402,29.0087,9.7,,2.0,,YEMISLI-SIMAV (KUTAHYA) İlksel
2025.06.04,02:45:16,39.2532,28.9977,7.7,,2.2,,YEMISLI-SIMAV (KUTAHYA) İlksel
2025.06.04,02:55:28,37.1353,28.8613,6.0,,1.3,,OTMANLAR-KOYCEGIZ (MUGLA) İlksel
2025.06.04,02:57:03,38.2032,36.8917,5.0,,1.7,,ORDEKKOY-AFSIN (KAHRAMANMARAS) İlksel
2025.06.04,03:04:00,37.6398,35.9660,5.0,,1.7,,CAMLARCA-KOZAN (ADANA) İlksel
2025.06.04,03:04:33,37.0877,31.0452,73.4,,1.8,,GOKCEPINAR-SERIK (ANTALYA) İlksel
2025.06.04,03:33:27,38.2503,38.8603,17.5,,0.8,,ORMELI-PUTURGE (MALATYA) İlksel
2025.06.04,03:36:07,39.2430,29.0158,5.3,,1.5,,YEMISLI-SIMAV (KUTAHYA) İlksel
2025.06.04,03:48:22,39.2480,29.0257,5.3,,1.6,,KATRANDAGI-EMET (KUTAHYA) İlksel
2025.06.04,03:56:02,37.6738,35.9907,5.0,,1.8,,KUYUBELI-KOZAN (ADANA) İlksel
2025.06.04,04:04:03,38.7070,43.1755,5.0,,2.1,,AGARTI-(VAN) İlksel
2025.06.04,04:06:11,40.4213,28.9027,11.3,,2.2,,GEMLIK KORFEZI (MARMARA DENIZI) İlksel
2025.06.04,04:21:00,39.2088,29.0663,11.3,,1.5,,KARACAOREN-SIMAV (KUTAHYA) İlksel
2025.06.04,04:45:19,39.2280,29.0807,5.0,,1.2,,KATRANDAGI-EMET (KUTAHYA) İlksel
2025.06.04,05:06:03,37.9973,37.6028,5.0,,2.6,,GOVDELI-DOGANSEHIR (MALATYA) İlksel
2025.06.04,05:22:56,37.9793,37.5775,6.9,,1.6,,TATLAR-NURHAK (KAHRAMANMARAS) İlksel
2025.06.04,05:40:22,40.5493,32.7423,7.1,,2.4,,EGERLIDEREKOY-KIZILCAHAMAM (ANKARA) İlksel
2025.06.04,05:40:47,38.3395,38.1433,5.0,,1.8,,KUSDOGAN-YESILYURT (MALATYA) İlksel
2025.06.04,05:49:45,40.5673,32.7415,5.0,,1.4,,EGERLIDEREKOY-KIZILCAHAMAM (ANKARA) İlksel
2025.06.04,06:44:38,38.0653,37.6062,8.0,,1.6,,GOVDELI-DOGANSEHIR (MALATYA) İlksel
2025.06.04,06:46:35,39.2387,40.3075,5.8,,2.6,,DALLICA-KIGI (BINGOL) İlksel
2025.06.04,07:04:30,35.8340,25.5930,5.0,,2.4,,EGE DENIZI İlksel
2025.06.04,07:25:50,38.3442,38.7118,16.3,,1.6,,BENTKOY-KALE (MALATYA) İlksel
2025.06.04,07:39:57,38.3193,38.5763,24.2,,1.6,,HISARTEPE-(MALATYA) İlksel
2025.06.04,08:05:17,39.2378,29.0417,5.3,,1.6,,KATRANDAGI-EMET (KUTAHYA) İlksel
2025.06.04,10:28:28,35.5115,26.5068,4.7,,2.3,,GIRIT ADASI (AKDENIZ) İlksel
2025.06.04,10:46:48,36.5970,34.2783,22.1,,1.5,,KOCAHASANLI-ERDEMLI (MERSIN) İlksel
2025.06.04,11:22:18,39.4327,26.2423,23.9,,1.3,,EDREMIT KORFEZI (EGE DENIZI) İlksel
2025.06.04,11:27:20,39.4455,25.8570,10.4,,1.9,,GULPINAR ACIKLARI-CANAKKALE (EGE DENIZI) İlksel
2025.06.04,11:59:18,36.4247,25.3888,5.9,,1.0,,EGE DENIZI İlksel
2025.06.04,11:59:18,36.4020,25.3927,6.1,,1.0,,EGE DENIZI REVIZE01 (2025.06.04 11:59:18)
2025.06.04,13:00:47,39.3942,28.1297,7.9,,1.9,,BIGADIC (BALIKESIR) İlksel
2025.06.04,13:11:43,37.3768,41.7890,5.7,,3.4,3.5,KAYI-IDIL (SIRNAK) İlksel
2025.06.04,13:20:30,39.3875,39.4645,5.4,,2.2,,YONCALI-OVACIK (TUNCELI) İlksel
2025.06.04,13:49:23,40.1682,34.5237,5.1,,1.6,,KIRANKISLA-SUNGURLU (CORUM) İlksel
2025.06.04,14:26:31,38.1602,26.1840,8.6,,2.0,,CESME ACIKLARI-IZMIR (EGE DENIZI) İlksel
2025.06.04,14:48:48,39.4747,37.4652,1.5,,2.3,,KORUBASI-ULAS (SIVAS) İlksel
2025.06.04,15:12:29,36.6095,28.1283,77.0,,3.1,3.0,TASLICA-MARMARIS (MUGLA) İlksel
2025.06.04,15:37:24,35.1217,25.7852,5.0,,2.1,,GIRIT ADASI (AKDENIZ) İlksel
2025.06.04,15:58:05,39.1897,40.2613,5.1,,2.0,,DARKOPRU-KIGI (BINGOL) İlksel
2025.06.04,16:04:18,36.3295,28.5600,30.1,,2.8,,AKDENIZ İlksel
2025.06.04,17:34:45,38.5262,39.5992,6.3,,2.4,,TEPECIK-MADEN (ELAZIG) İlksel
2025.06.04,17:45:41,37.7797,36.3350,5.4,,1.9,,CIGSAR-ANDIRIN (KAHRAMANMARAS) İlksel
2025.06.04,17:56:39,41.1338,28.9480,0.0,,1.1,,KAGITHANE (ISTANBUL) İlksel
2025.06.04,18:15:55,39.4420,28.1145,7.9,,1.6,,KADIKOY-BIGADIC (BALIKESIR) İlksel
2025.06.04,18:17:40,39.4583,28.1028,12.4,,1.6,,KADIKOY-BIGADIC (BALIKESIR) İlksel
2025.06.04,18:50:39,40.3583,34.0117,7.7,,2.1,,KAVLAKLI-KIZILIRMAK (CANKIRI) İlksel
2025.06.04,18:56:41,39.2530,40.3478,27.7,,1.9,,ESME-KIGI (BINGOL) İlksel
2025.06.04,19:53:42,37.7402,43.8997,5.0,,2.3,,ISIKLAR-(HAKKARI) İlksel
2025.06.04,19:57:39,36.6778,28.1393,68.5,,1.9,,SOGUTKOY-MARMARIS (MUGLA) İlksel
2025.06.04,20:14:16,37.1253,28.8365,8.9,,1.7,,OTMANLAR-KOYCEGIZ (MUGLA) İlksel
2025.06.04,20:18:13,37.1387,42.4068,5.0,,3.7,3.9,OVAKOY-SILOPI (SIRNAK) İlksel
2025.06.04,20:31:19,38.9090,27.9232,12.8,,1.7,,SEHITLER-AKHISAR (MANISA) İlksel
2025.06.04,20:35:40,40.8228,28.2560,7.8,,3.5,,SILIVRI ACIKLARI-ISTANBUL (MARMARA DENIZI) İlksel
2025.06.04,20:41:42,38.4145,38.9570,4.3,,1.7,,SARITAS-BASKIL (ELAZIG) İlksel
2025.06.04,21:08:02,40.8108,28.2968,10.9,,1.8,,MARMARA DENIZI İlksel
2025.06.04,21:24:10,38.2928,37.8513,7.7,,1.4,,HANCERLI-AKCADAG (MALATYA) İlksel
2025.06.04,21:25:37,39.1933,29.0515,11.1,,1.6,,KARACAOREN-SIMAV (KUTAHYA) İlksel
2025.06.04,21:36:35,36.2847,34.9063,15.1,,1.8,,AKDENIZ İlksel
2025.06.04,21:51:57,40.8305,28.1578,11.2,,2.1,,MARMARA DENIZI İlksel
2025.06.04,21:55:43,38.3727,25.5775,5.0,,2.2,,EGE DENIZI İlksel
2025.06.04,22:02:23,39.3393,25.6530,7.6,,2.1,,EGE DENIZI İlksel
2025.06.04,22:30:38,40.8220,28.2865,5.4,,2.0,,SILIVRI ACIKLARI-ISTANBUL (MARMARA DENIZI) İlksel
2025.06.04,22:30:55,40.8325,28.2832,7.6,,1.9,,SILIVRI ACIKLARI-ISTANBUL (MARMARA DENIZI) İlksel
2025.06.04,22:39:34,39.0058,41.9292,18.7,,1.5,,OLURDERE-BULANIK (MUS) İlksel
2025.06.04,23:46:37,38.4093,28.4332,27.5,,1.3,,CAGLAYAN-ALASEHIR (MANISA) İlksel
2025.06.05,00:21:48,36.7333,35.9295,7.0,,2.1,,ISKENDERUN KORFEZI (AKDENIZ) İlksel
2025.06.05,00:22:58,40.7300,32.9463,9.1,,2.2,,HACILAR-CERKES (CANKIRI) İlksel
2025.06.05,00:58:29,39.2353,29.0015,4.3,,2.1,,YEMISLI-SIMAV (KUTAHYA) İlksel
2025.06.05,01:05:18,38.1112,37.8278,3.3,,1.4,,TOPRAKTEPE-DOGANSEHIR (MALATYA) İlksel
2025.06.05,01:06:21,40.8780,33.0395,14.3,,2.0,,HUYUKKOY-ATKARACALAR (CANKIRI) İlksel
2025.06.05,01:12:06,36.2920,36.1355,6.4,,2.7,,OGLAKOREN-(HATAY) İlksel
2025.06.05,01:14:10,38.0898,37.1132,5.0,,1.6,,ORTAOREN-EKINOZU (KAHRAMANMARAS) İlksel
2025.06.05,01:46:04,37.1198,28.8518,13.1,,1.5,,OTMANLAR-KOYCEGIZ (MUGLA) İlksel
2025.06.05,02:37:59,36.3863,36.2452,9.8,,1.1,,OVAKENT-(HATAY) İlksel
2025.06.05,04:04:10,35.6805,30.8888,11.1,,1.8,,AKDENIZ İlksel
2025.06.05,04:09:25,39.4165,40.3867,3.1,,2.0,,GELINPERTEK-YEDISU (BINGOL) İlksel
2025.06.05,04:18:29,40.2302,31.7500,15.1,,1.3,,KOZAGAC-BEYPAZARI (ANKARA) İlksel
2025.06.05,04:29:19,35.7955,35.5408,8.6,,2.1,,AKDENIZ İlksel
2025.06.05,05:25:46,40.2865,24.0945,6.9,,2.2,,YUNANISTAN İlksel
2025.06.05,05:30:20,36.6663,25.6755,5.0,,2.6,,EGE DENIZI İlksel
2025.06.05,06:03:17,36.0572,28.1277,1.3,,1.7,,AKDENIZ İlksel
2025.06.05,07:03:05,39.2337,40.3012,6.5,,3.1,3.1,DALLICA-KIGI (BINGOL) İlksel
2025.06.05,07:05:09,39.2375,40.2943,4.4,,2.0,,DALLICA-KIGI (BINGOL) İlksel
2025.06.05,07:22:58,38.5248,37.9743,7.8,,1.4,,SADIKLI-YAZIHAN (MALATYA) İlksel
2025.06.05,07:32:31,35.7952,32.2108,85.2,,4.2,,AKDENIZ İlksel
2025.06.05,07:56:17,37.9392,28.7802,4.9,,2.9,,KABAAGAC-SARAYKOY (DENIZLI) İlksel
2025.06.05,08:00:35,37.9470,28.7820,7.2,,1.7,,SAVCILI-BUHARKENT (AYDIN) İlksel
2025.06.05,08:18:38,40.1415,24.8372,27.5,,4.8,4.8,EGE DENIZI İlksel
2025.06.05,08:30:43,40.1400,24.8992,5.3,,2.0,,EGE DENIZI İlksel
2025.06.05,08:52:18,38.2758,37.7422,13.6,,1.3,,CEVIRME-AKCADAG (MALATYA) İlksel
2025.06.05,09:00:20,36.4385,28.0655,33.3,,1.4,,EGE DENIZI İlksel
2025.06.05,09:00:53,38.4438,23.6137,5.0,,2.1,,YUNANISTAN İlksel
2025.06.05,09:16:21,35.5522,23.1995,23.1,,2.8,,GIRIT ADASI (AKDENIZ) İlksel
2025.06.05,09:49:51,39.2248,40.2100,13.9,,1.5,,ZEYNELLI-YAYLADERE (BINGOL) İlksel
2025.06.05,10:04:03,40.0292,34.9880,14.1,,1.6,,CATALKAYA-ALACA (CORUM) İlksel
2025.06.05,10:08:50,40.4115,26.9983,21.5,,1.6,,KEMER-BIGA (CANAKKALE) İlksel
2025.06.05,10:09:32,37.1482,36.0857,25.2,,1.7,,BURHANLI-CEYHAN (ADANA) İlksel
2025.06.05,10:33:03,36.9787,36.4488,5.6,,1.6,,YAGIZLAR-ISLAHIYE (GAZIANTEP) İlksel
2025.06.05,10:33:05,40.3275,28.6488,5.1,,1.8,,SOGUTPINAR-MUDANYA (BURSA) İlksel
2025.06.05,10:50:31,38.2327,38.0723,0.0,,1.4,,KIRLANGIC-YESILYURT (MALATYA) İlksel
2025.06.05,11:10:27,37.7903,29.5885,5.1,,1.6,,BOZKURT (DENIZLI) İlksel
2025.06.05,11:20:02,35.9268,27.2068,5.2,,1.9,,EGE DENIZI İlksel
2025.06.05,11:30:14,38.5335,41.5980,3.4,,2.1,,KOCAINIS-MUTKI (BITLIS) İlksel
2025.06.05,11:34:12,37.9988,37.6045,1.4,,2.9,,GOVDELI-DOGANSEHIR (MALATYA) İlksel
2025.06.05,11:50:26,37.1375,27.8872,0.0,,1.7,,BAGDAMLARI-MILAS (MUGLA) İlksel
2025.06.05,12:22:02,38.8170,40.0275,1.5,,2.1,,GULLUCE-KARAKOCAN (ELAZIG) İlksel
2025.06.05,12:45:59,37.7857,36.5695,9.1,,1.4,,KAYNAR-(KAHRAMANMARAS) İlksel
2025.06.05,12:52:43,39.4610,28.1525,19.1,,2.0,,CAMKOY-BIGADIC (BALIKESIR) İlksel
2025.06.05,12:59:27,40.8303,28.3105,13.9,,1.8,,MARMARA DENIZI İlksel
2025.06.05,13:03:52,36.0762,28.1575,2.1,,2.2,,AKDENIZ İlksel
2025.06.05,13:26:51,36.6492,25.6653,17.2,,2.2,,EGE DENIZI İlksel
2025.06.05,13:29:38,40.8232,28.2970,5.4,,1.7,,MARMARA DENIZI İlksel
2025.06.05,14:20:35,36.0802,31.0893,10.3,,2.1,,AKDENIZ İlksel
2025.06.05,14:29:15,40.8120,27.8192,17.9,,1.8,,MARMARA DENIZI İlksel
2025.06.05,14:53:55,35.0755,24.0300,31.5,,3.0,,GIRIT ADASI (AKDENIZ) İlksel
2025.06.05,15:02:49,39.6018,38.2567,5.0,,2.1,,YUREKTASI-IMRANLI (SIVAS) İlksel
2025.06.05,15:32:09,39.0877,33.2975,8.6,,1.9,,AKIN-SEREFLIKOCHISAR (ANKARA) İlksel
2025.06.05,16:53:00,39.5530,28.9477,20.9,,1.3,,KARDESLER-DURSUNBEY (BALIKESIR) İlksel
2025.06.05,16:54:15,39.9523,24.3755,12.7,,1.8,,YUNANISTAN İlksel
2025.06.05,17:04:56,36.6240,25.6567,7.9,,2.2,,EGE DENIZI İlksel
2025.06.05,17:05:16,40.7360,28.6242,18.0,,1.7,,MARMARA DENIZI İlksel
2025.06.05,17:23:21,35.6283,25.2708,15.4,,2.0,,GIRIT ADASI (AKDENIZ) İlksel
2025.06.05,17:37:04,37.6167,36.0123,11.2,,1.8,,BOZTAHTA-KOZAN (ADANA) İlksel
2025.06.05,18:11:26,38.5015,38.0537,12.2,,1.4,,ILICAK-AKCADAG (MALATYA) İlksel
2025.06.05,18:32:28,36.1115,28.5275,28.5,,2.0,,AKDENIZ İlksel
2025.06.05,18:36:54,38.7605,27.0335,4.3,,1.6,,CITAK-ALIAGA (IZMIR) İlksel
2025.06.05,19:02:44,37.6530,35.9565,14.4,,1.5,,CURUKLU-KOZAN (ADANA) İlksel
2025.06.05,19:07:09,36.3340,26.7210,6.5,,2.1,,EGE DENIZI İlksel
2025.06.05,19:08:33,38.4297,37.5082,5.5,,1.3,,SUGUL-DARENDE (MALATYA) İlksel
2025.06.05,19:44:22,37.1978,28.6347,8.3,,1.5,,CAKMAK-(MUGLA) İlksel
2025.06.05,20:25:31,37.2433,37.0797,6.5,,2.1,,EVRI-PAZARCIK (KAHRAMANMARAS) İlksel
2025.06.05,20:29:57,34.2272,26.3405,11.8,,3.1,3.1,GIRIT ADASI ACIKLARI (AKDENIZ) İlksel
2025.06.05,20:34:34,40.7168,28.6427,14.2,,1.7,,MARMARA DENIZI İlksel
2025.06.05,20:44:22,37.9710,37.5962,5.0,,1.0,,TATLAR-NURHAK (KAHRAMANMARAS) İlksel
2025.06.05,20:51:41,40.7123,28.6108,11.4,,1.6,,MARMARA DENIZI İlksel
2025.06.05,21:03:15,38.1893,37.1675,10.0,,1.5,,ELBISTAN (KAHRAMANMARAS) İlksel
2025.06.05,21:06:24,38.0910,38.5750,5.8,,1.7,,ARIKONAK-SINCIK (ADIYAMAN) İlksel
2025.06.05,21:07:21,40.7008,28.6443,12.5,,1.6,,MARMARA DENIZI İlksel
2025.06.05,21:11:44,38.1813,30.8923,13.1,,1.2,,AKDAG-GELENDOST (ISPARTA) İlksel
2025.06.05,21:19:01,40.7093,28.6240,15.1,,1.9,,MARMARA DENIZI İlksel
2025.06.05,21:19:50,40.7115,28.6082,17.5,,1.5,,MARMARA DENIZI İlksel
2025.06.05,21:38:40,38.9993,43.6518,24.5,,1.2,,ALKASNAK-MURADIYE (VAN) İlksel
2025.06.05,21:40:00,39.0588,38.0030,5.0,,2.0,,DIKILI-HEKIMHAN (MALATYA) İlksel
2025.06.05,22:17:22,38.2692,38.8223,13.7,,1.3,,AKTARLI-PUTURGE (MALATYA) İlksel
2025.06.05,22:22:20,39.2110,27.6825,7.2,,1.5,,YIRCA-SOMA (MANISA) İlksel
2025.06.05,22:45:58,39.1178,33.2743,5.3,,1.3,,AKIN-SEREFLIKOCHISAR (ANKARA) İlksel
2025.06.05,23:09:24,37.6185,35.8823,24.9,,1.1,,KARABUCAK-KOZAN (ADANA) İlksel
2025.06.05,23:12:39,38.0518,37.2612,9.6,,1.2,,GOZPINAR-EKINOZU (KAHRAMANMARAS) İlksel
2025.06.05,23:26:20,39.2178,40.2810,26.0,,1.5,,DARKOPRU-KIGI (BINGOL) İlksel
2025.06.05,23:29:50,40.7168,28.6105,7.2,,2.1,,MARMARA DENIZI İlksel
2025.06.05,23:33:42,39.2570,28.9805,8.0,,1.0,,YEMISLI-SIMAV (KUTAHYA) İlksel
2025.06.05,23:41:18,37.7968,37.3172,27.3,,1.0,,KUCUKCERIT-CAGLAYANCERIT (KAHRAMANMARAS) İlksel
2025.06.06,00:03:06,38.0922,37.1763,5.2,,1.0,,EKINOZU (KAHRAMANMARAS) İlksel
2025.06.06,00:28:51,33.9257,27.5972,87.4,,3.3,3.5,GIRIT ADASI ACIKLARI (AKDENIZ) İlksel
2025.06.06,00:41:13,36.1273,25.7477,8.4,,1.9,,EGE DENIZI İlksel
2025.06.06,00:50:05,39.2132,29.0417,7.6,,1.5,,EGIRLER-SIMAV (KUTAHYA) İlksel
2025.06.06,02:32:07,40.8273,28.1765,5.9,,2.1,,SILIVRI ACIKLARI-ISTANBUL (MARMARA DENIZI) İlksel
2025.06.06,03:00:05,39.2308,40.2932,7.9,,2.5,,DALLICA-KIGI (BINGOL) İlksel
2025.06.06,03:05:10,35.9472,25.9690,9.5,,2.1,,EGE DENIZI İlksel
2025.06.06,03:57:49,39.6580,27.8287,10.4,,1.9,,KALAYCILAR-(BALIKESIR) İlksel
2025.06.06,04:03:13,39.6770,33.3525,7.2,,1.6,,KUCUKSARIKAYALAR-BAHSILI (KIRIKKALE) İlksel
2025.06.06,04:33:41,39.1710,27.8353,9.4,,0.9,,GELENBE-KIRKAGAC (MANISA) İlksel
2025.06.06,04:36:17,40.3315,24.0973,5.5,,2.0,,YUNANISTAN İlksel
2025.06.06,04:50:57,39.9228,39.3237,6.5,,2.1,,YESILYURT-KELKIT (GUMUSHANE) İlksel
2025.06.06,04:58:57,40.2888,43.2155,17.2,,1.7,,AKYAYLA-KAGIZMAN (KARS) İlksel
2025.06.06,05:03:15,39.9808,39.2882,4.4,,1.8,,CEMALLI-KELKIT (GUMUSHANE) İlksel
2025.06.06,05:27:05,35.9795,29.0757,13.5,,1.8,,AKDENIZ İlksel
2025.06.06,05:57:33,38.1653,38.6408,6.9,,1.0,,BASMEZRA-PUTURGE (MALATYA) İlksel
2025.06.06,06:06:58,37.9235,30.8395,19.1,,1.2,,EGIRDIR (ISPARTA) İlksel
2025.06.06,06:10:25,38.2202,38.5878,5.0,,2.7,,SOGUTLU-PUTURGE (MALATYA) İlksel
2025.06.06,06:12:27,38.2312,38.5737,5.0,,1.9,,GULUMUSAGI-(MALATYA) İlksel
2025.06.06,06:38:52,39.2498,40.3178,25.8,,1.4,,DALLICA-KIGI (BINGOL) İlksel
2025.06.06,07:13:30,39.4665,26.9800,11.9,,1.4,,SARKOY-BURHANIYE (BALIKESIR) İlksel
2025.06.06,08:38:04,40.8393,28.2918,18.1,,1.5,,MARMARA DENIZI İlksel
2025.06.06,09:21:20,37.7215,36.2500,5.4,,1.4,,OSMANCIK-ANDIRIN (KAHRAMANMARAS) İlksel
2025.06.06,09:48:33,38.1917,37.4557,5.4,,2.0,,GUCUK-ELBISTAN (KAHRAMANMARAS) İlksel
2025.06.06,09:56:55,40.8740,28.2550,23.3,,1.5,,SILIVRI ACIKLARI-ISTANBUL (MARMARA DENIZI) İlksel
2025.06.06,10:04:02,37.0535,36.0288,5.8,,1.2,,AZIZLI-CEYHAN (ADANA) İlksel
2025.06.06,10:24:09,37.8648,37.8375,5.0,,2.3,,CANKARA-GOLBASI (ADIYAMAN) İlksel
2025.06.06,10:31:06,37.8603,37.6160,20.5,,1.5,,MEYDANKOY-GOLBASI (ADIYAMAN) İlksel
2025.06.06,10:47:06,37.8160,37.6428,5.0,,2.1,,OZAN-GOLBASI (ADIYAMAN) İlksel
2025.06.06,11:03:04,37.6533,35.8832,5.4,,1.8,,KARABUCAK-KOZAN (ADANA) İlksel
2025.06.06,11:48:04,40.7257,28.6392,10.2,,2.2,,MARMARA DENIZI İlksel
2025.06.06,12:18:11,39.2483,28.9892,11.1,,1.3,,YEMISLI-SIMAV (KUTAHYA) İlksel
2025.06.06,12:18:34,35.2105,23.3358,70.8,,3.7,3.8,GIRIT ADASI (AKDENIZ) İlksel
2025.06.06,12:18:43,39.2065,40.3008,11.9,,1.5,,DARKOPRU-KIGI (BINGOL) İlksel
2025.06.06,12:35:38,34.9772,23.2822,22.4,,2.9,,GIRIT ADASI (AKDENIZ) İlksel
2025.06.06,12:55:17,39.2337,29.0002,11.8,,1.3,,YEMISLI-SIMAV (KUTAHYA) İlksel
2025.06.06,12:59:40,37.4873,37.3788,11.0,,1.5,,ULUBAHCE-PAZARCIK (KAHRAMANMARAS) İlksel
2025.06.06,13:12:22,37.1258,28.9205,9.9,,1.9,,OTMANLAR-KOYCEGIZ (MUGLA) İlksel
2025.06.06,14:08:29,37.1365,28.5558,8.3,,1.7,,GOLCUK-ULA (MUGLA) İlksel
2025.06.06,14:56:00,38.5655,37.9817,4.4,,1.8,,IRIAGAC-YAZIHAN (MALATYA) İlksel
2025.06.06,15:03:35,39.1797,40.2873,14.9,,2.0,,DARKOPRU-KIGI (BINGOL) İlksel
2025.06.06,15:12:56,39.4233,37.2870,9.0,,1.7,,KERTMEKARACAOREN-ULAS (SIVAS) İlksel
2025.06.06,15:16:44,38.4857,38.0428,3.6,,1.4,,ILICAK-AKCADAG (MALATYA) İlksel
2025.06.06,15:20:29,38.5930,37.2862,5.0,,1.5,,KURUDERE-DARENDE (MALATYA) İlksel
2025.06.06,15:23:15,39.3980,28.4958,5.4,,1.8,,YUKARIGOCEK-BIGADIC (BALIKESIR) İlksel
2025.06.06,15:24:37,36.7875,27.9695,14.5,,1.6,,GOKOVA KORFEZI (EGE DENIZI) İlksel
2025.06.06,15:33:35,38.0477,37.6418,5.2,,1.7,,BEGRE-DOGANSEHIR (MALATYA) İlksel
2025.06.06,15:43:25,38.4997,39.2980,2.4,,1.9,,BEKCITEPE-SIVRICE (ELAZIG) İlksel
2025.06.06,16:00:41,38.5583,37.9922,6.9,,1.4,,IRIAGAC-YAZIHAN (MALATYA) İlksel
2025.06.06,16:02:24,40.7188,27.4102,10.4,,1.3,,GUZELKOY ACIKLARI-TEKIRDAG (MARMARA DENIZI) İlksel
2025.06.06,16:04:03,38.4672,39.2222,1.5,,2.6,,ALINCIK-SIVRICE (ELAZIG) İlksel
2025.06.06,16:58:29,38.3615,37.5265,6.0,,1.3,,YOGUNSOGUT-ELBISTAN (KAHRAMANMARAS) İlksel
2025.06.06,16:58:56,40.8560,28.0812,25.3,,1.6,,MARMARA DENIZI İlksel
2025.06.06,17:16:01,38.5615,37.9780,3.8,,2.0,,IRIAGAC-YAZIHAN (MALATYA) İlksel
2025.06.06,17:33:36,39.2505,28.9825,9.4,,1.5,,YEMISLI-SIMAV (KUTAHYA) İlksel
2025.06.06,17:38:03,38.6153,31.6832,8.2,,1.5,,KORASI-TUZLUKCU (KONYA) İlksel
2025.06.06,17:39:44,38.4137,37.7643,1.9,,1.4,,AKSUT-AKCADAG (MALATYA) İlksel
2025.06.06,18:14:57,39.1588,40.2657,5.0,,1.2,,SARIHAN-KARAKOCAN (ELAZIG) İlksel
2025.06.06,18:21:57,39.6327,26.4562,8.5,,1.8,,TARTISIK-AYVACIK (CANAKKALE) İlksel
2025.06.06,18:28:35,37.8657,36.2412,16.1,,1.2,,TOPALLAR-SAIMBEYLI (ADANA) İlksel
2025.06.06,18:55:04,39.4238,37.2408,7.1,,2.3,,ESKIKARAHISAR-ULAS (SIVAS) İlksel
2025.06.06,19:04:28,38.3015,38.2410,4.6,,1.9,,YAKINCA-YESILYURT (MALATYA) İlksel
2025.06.06,19:15:48,39.2027,40.2773,8.9,,2.0,,DARKOPRU-KIGI (BINGOL) İlksel
2025.06.06,19:31:05,38.3155,38.1337,7.6,,1.3,,KUYULU-YESILYURT (MALATYA) İlksel
2025.06.06,19:52:47,37.9373,27.1247,8.7,,1.7,,KUSADASI KORFEZI (EGE DENIZI) İlksel
2025.06.06,19:53:05,37.9497,27.1240,4.6,,1.5,,KUSADASI KORFEZI (EGE DENIZI) İlksel
2025.06.06,20:59:45,36.4538,28.9398,21.9,,2.0,,OLUDENIZ ACIKLARI-MUGLA (AKDENIZ) İlksel
2025.06.06,21:16:05,37.8008,29.4517,10.7,,1.3,,SAPACA-HONAZ (DENIZLI) İlksel
2025.06.06,21:22:58,37.7280,37.6482,5.4,,1.5,,ORENLI-GOLBASI (ADIYAMAN) İlksel
2025.06.06,21:59:48,37.4240,37.1422,5.1,,2.3,,ESKINARLI-PAZARCIK (KAHRAMANMARAS) İlksel
2025.06.06,22:18:34,38.2837,37.1528,4.9,,1.5,,DOGAN-ELBISTAN (KAHRAMANMARAS) İlksel
2025.06.06,23:03:43,39.5358,39.6458,2.6,,1.6,,TATLISU-(ERZINCAN) İlksel
2025.06.06,23:25:30,36.7747,27.9803,8.8,,2.1,,GOKOVA KORFEZI (EGE DENIZI) İlksel
2025.06.06,23:36:37,38.5503,37.9755,7.0,,1.3,,IRIAGAC-YAZIHAN (MALATYA) İlksel
2025.06.07,00:18:39,40.2403,24.0730,5.5,,2.0,,YUNANISTAN İlksel
2025.06.07,00:24:24,40.1050,41.9035,5.0,,1.2,,ILICASU-KOPRUKOY (ERZURUM) İlksel
2025.06.07,00:36:49,38.8785,37.2667,5.4,,1.2,,GOKCEYAZI-GURUN (SIVAS) İlksel
2025.06.07,00:41:21,40.0637,27.7688,5.4,,1.6,,ALASAR-GONEN (BALIKESIR) İlksel
2025.06.07,00:55:03,42.0672,25.4847,8.4,,1.7,,BULGARISTAN İlksel
2025.06.07,01:09:22,40.2328,24.0020,5.0,,1.4,,YUNANISTAN İlksel
2025.06.07,01:51:14,39.4425,37.4100,7.7,,1.0,,KARAGOL-ULAS (SIVAS) İlksel
2025.06.07,01:59:19,37.8888,27.1593,11.3,,1.3,,KUSADASI KORFEZI (EGE DENIZI) İlksel
2025.06.07,02:04:41,38.0403,38.4102,23.8,,0.9,,KARACAYIR-CELIKHAN (ADIYAMAN) İlksel
2025.06.07,02:09:59,37.4875,37.2298,5.0,,1.7,,YARBASI-PAZARCIK (KAHRAMANMARAS) İlksel
2025.06.07,02:25:41,38.2107,43.1245,5.3,,1.6,,UZUNTEKNE-CATAK (VAN) İlksel
2025.06.07,02:32:51,36.9305,27.2803,4.3,,1.7,,AKYARLAR-BODRUM (MUGLA) İlksel
2025.06.07,02:34:30,38.1288,37.8342,16.1,,1.1,,FINDIKKOY-DOGANSEHIR (MALATYA) İlksel
2025.06.07,02:36:01,37.8910,38.3653,6.8,,1.4,,CAMLICA-(ADIYAMAN) İlksel
2025.06.07,02:42:55,37.9437,27.1418,5.8,,1.5,,KUSADASI KORFEZI (EGE DENIZI) İlksel
2025.06.07,02:58:10,38.1600,36.8780,9.0,,1.7,,ESENCE-AFSIN (KAHRAMANMARAS) İlksel
2025.06.07,02:59:22,37.7435,35.3558,4.4,,2.5,,KAPUZBASI-YAHYALI (KAYSERI) İlksel
2025.06.07,03:01:46,37.0648,36.0483,5.0,,1.0,,LALEGOLU-TOPRAKKALE (OSMANIYE) İlksel
2025.06.07,03:31:22,39.2982,41.0200,6.3,,1.7,,KARLIOVA (BINGOL) İlksel
2025.06.07,03:52:12,40.8167,28.2925,10.4,,2.3,,MARMARA DENIZI İlksel
2025.06.07,03:58:01,40.3342,24.0497,5.2,,1.5,,YUNANISTAN İlksel
2025.06.07,04:01:19,40.8267,28.2542,9.7,,1.6,,SILIVRI ACIKLARI-ISTANBUL (MARMARA DENIZI) İlksel
2025.06.07,04:11:26,37.1195,28.9022,10.0,,1.5,,OTMANLAR-KOYCEGIZ (MUGLA) İlksel
2025.06.07,04:13:42,38.0148,27.0768,5.7,,1.1,,KUSADASI KORFEZI (EGE DENIZI) İlksel
2025.06.07,04:20:29,38.3037,37.8158,12.7,,1.1,,ORTAKOY-AKCADAG (MALATYA) İlksel
2025.06.07,04:26:30,38.4657,39.0028,22.8,,1.0,,SAKABASI-(ELAZIG) İlksel
2025.06.07,04:51:39,39.2057,29.0418,6.4,,1.5,,KARACAOREN-SIMAV (KUTAHYA) İlksel
2025.06.07,05:03:33,38.2078,36.6698,8.9,,1.0,,ESENKOY-GOKSUN (KAHRAMANMARAS) İlksel
2025.06.07,05:05:12,38.1002,36.4822,14.0,,1.1,,MAHMUTBEY-GOKSUN (KAHRAMANMARAS) İlksel
2025.06.07,05:14:42,40.8238,28.2847,6.8,,2.3,,SILIVRI ACIKLARI-ISTANBUL (MARMARA DENIZI) İlksel
2025.06.07,05:30:20,36.6857,25.7375,7.6,,2.3,,EGE DENIZI İlksel
2025.06.07,05:54:22,37.1775,28.7063,12.0,,1.1,,TURGUT-ULA (MUGLA) İlksel
2025.06.07,06:13:02,35.5682,27.2287,19.8,,2.5,,AKDENIZ İlksel
2025.06.07,06:21:48,38.2212,29.6755,6.6,,1.9,,YAMANLAR-CIVRIL (DENIZLI) İlksel
2025.06.07,06:25:22,35.1163,26.4360,50.7,,2.5,,GIRIT ADASI (AKDENIZ) İlksel
2025.06.07,06:29:18,38.1292,36.5917,8.3,,1.1,,KANLIKAVAK-GOKSUN (KAHRAMANMARAS) İlksel
2025.06.07,06:32:07,38.6852,33.6567,5.0,,1.3,,CALOREN-SEREFLIKOCHISAR (ANKARA) İlksel
2025.06.07,07:12:28,36.8675,28.3835,5.0,,1.0,,ADAKOY-MARMARIS (MUGLA) İlksel
2025.06.07,07:20:41,36.6180,36.1945,5.8,,2.0,,CINARLI-ISKENDERUN (HATAY) İlksel
2025.06.07,07:23:22,38.6938,26.6837,6.0,,2.0,,IZMIR KORFEZI (EGE DENIZI) İlksel
2025.06.07,07:24:49,38.3863,37.5662,4.5,,2.5,,YUKARIULUPINAR-DARENDE (MALATYA) İlksel
2025.06.07,07:54:20,37.7120,29.2170,14.8,,1.3,,KARATAS-(DENIZLI) İlksel
2025.06.07,08:02:14,38.5428,44.7818,5.0,,2.9,,TURKIYE-IRAN SINIR BOLGESI İlksel
2025.06.07,08:25:27,40.2240,24.0367,6.0,,2.2,,YUNANISTAN İlksel
2025.06.07,08:45:46,36.4538,28.9483,8.4,,1.8,,OLUDENIZ ACIKLARI-MUGLA (AKDENIZ) İlksel
2025.06.07,08:46:08,38.0853,37.3037,5.0,,1.4,,OZCANLI-ELBISTAN (KAHRAMANMARAS) İlksel
2025.06.07,08:54:39,37.8503,30.6530,6.8,,1.8,,KULEONU-(ISPARTA) İlksel
2025.06.07,08:55:02,40.8435,28.4180,19.1,,1.7,,MARMARA DENIZI İlksel
2025.06.07,08:55:56,40.0312,28.8877,8.0,,1.4,,NALINLAR-ORHANELI (BURSA) İlksel
2025.06.07,09:01:41,39.2485,29.0078,10.1,,1.0,,YEMISLI-SIMAV (KUTAHYA) İlksel
2025.06.07,09:08:33,38.1180,36.5940,5.4,,1.4,,KANLIKAVAK-GOKSUN (KAHRAMANMARAS) İlksel
2025.06.07,09:28:09,38.2565,38.1153,9.3,,1.5,,GORGU-YESILYURT (MALATYA) İlksel
2025.06.07,10:14:43,36.6805,36.4135,9.6,,1.5,,GUVENC-HASSA (HATAY) İlksel
2025.06.07,11:13:38,38.1958,30.7310,10.3,,1.6,,GENCALI-SENIRKENT (ISPARTA) İlksel
2025.06.07,11:21:00,36.0368,29.0875,11.6,,1.5,,AKDENIZ İlksel
2025.06.07,11:32:21,38.1078,36.6077,4.7,,1.8,,KANLIKAVAK-GOKSUN (KAHRAMANMARAS) İlksel
2025.06.07,11:35:52,36.5193,31.5662,5.0,,3.2,3.2,ANTALYA KORFEZI (AKDENIZ) İlksel
2025.06.07,11:51:15,36.7790,27.9830,6.1,,1.9,,GOKOVA KORFEZI (EGE DENIZI) İlksel
2025.06.07,13:18:29,36.6148,26.7902,5.4,,2.3,,EGE DENIZI İlksel
2025.06.07,13:44:05,38.8200,31.5555,12.5,,1.2,,ORENKOY-EMIRDAG (AFYONKARAHISAR) İlksel
2025.06.07,13:48:07,40.6578,36.4328,7.2,,2.3,,TANOBA-ERBAA (TOKAT) İlksel
2025.06.07,14:01:06,36.5952,26.8222,5.0,,2.3,,EGE DENIZI İlksel
2025.06.07,14:14:18,36.4222,28.7537,6.5,,3.2,3.1,AKDENIZ İlksel
2025.06.07,14:48:44,36.3887,28.7492,13.2,,1.6,,AKDENIZ İlksel
2025.06.07,14:50:06,37.8575,29.7210,2.7,,1.2,,DARICILAR-DAZKIRI (AFYONKARAHISAR) İlksel
2025.06.07,14:55:25,38.4037,38.7447,5.0,,1.5,,SALKIMLI-KALE (MALATYA) İlksel
2025.06.07,14:56:11,40.8432,28.0012,16.7,,1.7,,MARMARA EREGLISI ACIKLARI-TEKIRDAG (MARMARA DENIZIİlksel
2025.06.07,15:23:07,36.3353,29.6422,49.3,,1.5,,SINNELI-KAS (ANTALYA) İlksel
2025.06.07,15:46:18,40.3217,24.1425,12.2,,5.3,5.4,YUNANISTAN İlksel
2025.06.07,15:53:53,40.3125,24.1388,11.4,,3.9,,YUNANISTAN İlksel
2025.06.07,16:11:18,40.3563,24.1377,7.6,,3.3,,YUNANISTAN İlksel
2025.06.07,16:23:14,40.3162,24.1150,12.6,,2.2,,YUNANISTAN İlksel
2025.06.07,16:25:15,40.2362,24.1212,7.2,,2.7,,YUNANISTAN İlksel
2025.06.07,16:33:26,37.1285,28.5460,6.2,,1.8,,GOLCUK-ULA (MUGLA) İlksel
2025.06.07,16:40:35,38.2370,30.7722,7.9,,1.5,,GENCALI-SENIRKENT (ISPARTA) İlksel
2025.06.07,16:54:25,40.2982,24.0920,5.1,,2.4,,YUNANISTAN İlksel
2025.06.07,17:01:43,40.2993,24.1392,5.4,,2.5,,YUNANISTAN İlksel
2025.06.07,17:04:18,40.2340,24.1025,10.1,,2.0,,YUNANISTAN İlksel
2025.06.07,17:07:07,40.3093,24.1332,5.5,,2.1,,YUNANISTAN İlksel
2025.06.07,17:12:27,40.2710,24.1357,7.0,,2.8,,YUNANISTAN İlksel
2025.06.07,17:40:09,38.3088,37.7912,4.7,,2.2,,ORTAKOY-AKCADAG (MALATYA) İlksel
2025.06.07,18:02:44,38.3020,37.7693,3.1,,2.1,,DUTLU-AKCADAG (MALATYA) İlksel
2025.06.07,18:09:48,38.1002,36.6092,8.5,,1.4,,KANLIKAVAK-GOKSUN (KAHRAMANMARAS) İlksel
2025.06.07,18:28:00,40.3043,24.1627,10.6,,3.5,,YUNANISTAN İlksel
2025.06.07,18:42:55,40.3222,24.1613,9.1,,3.1,,YUNANISTAN İlksel
2025.06.07,18:51:22,38.3893,37.5117,5.0,,2.5,,YUKARIULUPINAR-DARENDE (MALATYA) İlksel
2025.06.07,19:07:36,38.1560,36.7303,1.9,,1.8,,YAZIKOY-AFSIN (KAHRAMANMARAS) İlksel
2025.06.07,19:09:28,36.5020,26.7167,120.3,,4.2,,EGE DENIZI İlksel
2025.06.07,19:24:01,39.2273,29.0177,7.4,,2.1,,EGIRLER-SIMAV (KUTAHYA) İlksel
2025.06.07,19:37:06,39.2258,29.0240,5.4,,2.1,,EGIRLER-SIMAV (KUTAHYA) İlksel
2025.06.07,19:42:25,38.6202,31.5902,11.2,,1.2,,MEVLUTLU-TUZLUKCU (KONYA) İlksel
2025.06.07,20:14:37,40.3445,24.1757,6.4,,3.0,,YUNANISTAN İlksel
2025.06.07,20:24:35,38.6235,37.9587,4.6,,1.5,,TAHTALI-YAZIHAN (MALATYA) İlksel
2025.06.07,20:37:03,37.3073,32.4248,8.1,,1.7,,TAHTALI-CUMRA (KONYA) İlksel
2025.06.07,20:51:41,38.0585,36.5963,10.5,,1.6,,HACIOMER-GOKSUN (KAHRAMANMARAS) İlksel
2025.06.07,21:07:42,38.2917,38.8502,7.2,,3.1,,GUNDEGER-PUTURGE (MALATYA) İlksel
2025.06.07,21:14:00,37.3463,43.8482,5.0,,2.4,,CANAKLI-(HAKKARI) İlksel
2025.06.07,21:39:40,40.8202,28.2968,8.6,,3.1,,MARMARA DENIZI İlksel
2025.06.07,22:05:01,40.3265,24.1393,7.3,,2.1,,YUNANISTAN İlksel
2025.06.07,22:29:48,37.9153,37.9153,4.5,,1.3,,ERKENEK-DOGANSEHIR (MALATYA) İlksel
2025.06.07,23:02:19,40.8780,31.6800,5.8,,2.0,,MESCICELE-(BOLU) İlksel
2025.06.07,23:35:38,40.3185,24.1720,6.0,,2.2,,YUNANISTAN İlksel
2025.06.07,23:36:45,37.3773,37.0872,8.5,,1.0,,MAKSUTUSAGI-PAZARCIK (KAHRAMANMARAS) İlksel
2025.06.08,00:06:07,34.5265,31.8765,4.6,,2.7,,AKDENIZ İlksel
2025.06.08,00:14:13,40.8160,27.7005,6.1,,1.9,,MARMARA DENIZI İlksel
2025.06.08,00:26:27,40.8587,28.3188,5.4,,1.7,,MARMARA DENIZI İlksel
2025.06.08,00:40:34,40.2888,24.1017,10.4,,1.7,,YUNANISTAN İlksel
2025.06.08,00:58:36,40.2643,24.1132,4.7,,1.8,,YUNANISTAN İlksel
2025.06.08,01:16:19,39.1793,29.0577,9.0,,1.6,,KARACAOREN-SIMAV (KUTAHYA) İlksel
2025.06.08,01:18:20,37.9753,36.3517,21.3,,1.1,,HUGTAS-GOKSUN (KAHRAMANMARAS) İlksel
2025.06.08,01:24:17,38.3050,38.8073,5.0,,1.6,,BOLUKKAYA-PUTURGE (MALATYA) İlksel
2025.06.08,02:05:18,36.1763,33.0802,14.5,,1.7,,BAHCEKOYAGI-BOZYAZI (MERSIN) İlksel
2025.06.08,02:06:07,40.8362,28.4150,2.0,,1.8,,MARMARA DENIZI İlksel
2025.06.08,02:08:13,40.8250,28.4235,13.5,,1.8,,MARMARA DENIZI İlksel
2025.06.08,02:21:30,42.5958,26.2890,8.1,,2.1,,BULGARISTAN İlksel
2025.06.08,02:48:35,40.2993,24.1520,5.0,,2.0,,YUNANISTAN İlksel
2025.06.08,03:10:42,38.1313,37.8250,5.0,,2.2,,FINDIKKOY-DOGANSEHIR (MALATYA) İlksel
2025.06.08,03:23:12,36.8418,28.0515,66.5,,1.6,,GOKOVA KORFEZI (EGE DENIZI) İlksel
2025.06.08,04:04:36,37.6235,35.9580,6.3,,1.2,,CAMLARCA-KOZAN (ADANA) İlksel
2025.06.08,04:26:10,37.9087,36.6348,8.8,,1.6,,TEKIR-(KAHRAMANMARAS) İlksel
2025.06.08,04:37:52,37.2835,35.4720,7.8,,1.4,,SAYCA-IMAMOGLU (ADANA) İlksel
2025.06.08,04:41:44,39.2167,40.3102,7.3,,2.1,,DEMIRKANAT-KIGI (BINGOL) İlksel
2025.06.08,04:47:08,40.8082,28.0533,12.4,,1.8,,MARMARA DENIZI İlksel
2025.06.08,04:48:11,40.8827,28.3567,4.6,,1.6,,MARMARA DENIZI İlksel
2025.06.08,04:49:08,39.2528,40.3063,11.2,,1.5,,DALLICA-KIGI (BINGOL) İlksel
2025.06.08,05:00:43,40.3080,24.1595,6.4,,3.0,3.0,YUNANISTAN İlksel
2025.06.08,05:16:10,40.8470,28.4257,5.0,,2.1,,MARMARA DENIZI İlksel
2025.06.08,05:17:03,38.4790,39.1578,3.7,,1.4,,KAVALLI-SIVRICE (ELAZIG) İlksel
2025.06.08,05:48:01,40.8195,28.2798,10.0,,3.1,3.1,SILIVRI ACIKLARI-ISTANBUL (MARMARA DENIZI) İlksel
2025.06.08,06:36:35,39.1362,29.1442,11.2,,1.9,,INLICE-SIMAV (KUTAHYA) İlksel
2025.06.08,06:37:23,39.2353,28.9902,3.9,,1.8,,YEMISLI-SIMAV (KUTAHYA) İlksel
2025.06.08,06:48:22,39.2240,29.0330,5.6,,1.7,,EGIRLER-SIMAV (KUTAHYA) İlksel
2025.06.08,06:51:34,38.4263,38.9408,16.2,,2.0,,SARITAS-BASKIL (ELAZIG) İlksel
2025.06.08,07:20:42,38.1717,37.8028,8.0,,1.6,,CAVUSLU-DOGANSEHIR (MALATYA) İlksel
2025.06.08,07:36:42,40.3147,24.1273,6.8,,2.1,,YUNANISTAN İlksel
2025.06.08,08:27:53,40.2302,27.0162,12.2,,1.4,,COMLEKCI-BIGA (CANAKKALE) İlksel
2025.06.08,08:39:24,38.3293,38.8483,7.7,,1.4,,UYANIK-KALE (MALATYA) İlksel
2025.06.08,08:44:19,38.9718,27.8977,9.1,,1.9,,CAMONU-AKHISAR (MANISA) İlksel
2025.06.08,08:46:18,38.9928,27.8990,7.4,,1.4,,YENICE-AKHISAR (MANISA) İlksel
2025.06.08,08:52:44,41.0595,33.8765,4.2,,1.8,,YUKARIBERCIN-TOSYA (KASTAMONU) İlksel
2025.06.08,09:39:48,37.7750,36.3005,8.0,,2.0,,CIGSAR-ANDIRIN (KAHRAMANMARAS) İlksel
2025.06.08,10:10:56,38.0998,36.5232,8.3,,1.1,,ALICLIBUCAK-GOKSUN (KAHRAMANMARAS) İlksel
2025.06.08,10:47:17,39.1755,29.0745,11.7,,1.3,,KARACAOREN-SIMAV (KUTAHYA) İlksel
2025.06.08,10:54:07,37.6757,35.9187,11.1,,1.6,,MAHYALAR-KOZAN (ADANA) İlksel
2025.06.08,11:19:14,38.2518,25.3975,5.0,,2.2,,EGE DENIZI İlksel
2025.06.08,11:19:27,40.3445,24.0765,7.8,,1.8,,YUNANISTAN İlksel
2025.06.08,11:23:58,36.7250,28.0353,23.7,,1.5,,BOZBURUN-MARMARIS (MUGLA) İlksel
2025.06.08,11:28:23,38.1792,30.8722,5.3,,1.1,,AKDAG-GELENDOST (ISPARTA) İlksel
2025.06.08,11:30:58,36.0042,28.1598,7.9,,1.7,,AKDENIZ İlksel
2025.06.08,11:35:17,39.2352,29.0108,5.3,,1.5,,YEMISLI-SIMAV (KUTAHYA) İlksel
2025.06.08,11:41:40,40.8472,28.2662,17.0,,1.6,,SILIVRI ACIKLARI-ISTANBUL (MARMARA DENIZI) İlksel
2025.06.08,11:45:21,40.3033,24.0962,4.5,,1.6,,YUNANISTAN İlksel
2025.06.08,11:56:30,38.2468,37.7563,7.8,,1.3,,CEVIRME-AKCADAG (MALATYA) İlksel
2025.06.08,12:02:09,37.1715,27.9200,16.9,,1.8,,KARACAAGAC-MILAS (MUGLA) İlksel
2025.06.08,12:07:21,37.1275,27.9038,12.5,,1.6,,SEKKOY-MILAS (MUGLA) İlksel
2025.06.08,12:16:30,38.9352,40.2248,11.3,,1.8,,KURUCA-(BINGOL) İlksel
2025.06.08,12:30:42,37.5703,35.8327,19.2,,1.2,,DUZAGAC-KOZAN (ADANA) İlksel
2025.06.08,12:53:34,39.2143,29.0315,5.2,,2.0,,EGIRLER-SIMAV (KUTAHYA) İlksel
2025.06.08,12:56:41,39.2142,29.0408,5.9,,2.0,,EGIRLER-SIMAV (KUTAHYA) İlksel
2025.06.08,12:56:51,38.4233,37.5635,7.1,,2.6,,ASAGIULUPINAR-DARENDE (MALATYA) İlksel
2025.06.08,12:59:23,39.2257,29.0225,5.7,,2.0,,EGIRLER-SIMAV (KUTAHYA) İlksel
2025.06.08,13:17:23,39.2015,29.0173,12.3,,2.2,,EGIRLER-SIMAV (KUTAHYA) İlksel
2025.06.08,13:20:09,39.2260,40.3160,8.7,,1.6,,DEMIRKANAT-KIGI (BINGOL) İlksel
2025.06.08,13:20:33,39.2208,29.0128,4.2,,2.4,,EGIRLER-SIMAV (KUTAHYA) İlksel
2025.06.08,13:25:00,38.3917,37.5660,5.0,,1.8,,YUKARIULUPINAR-DARENDE (MALATYA) İlksel
2025.06.08,13:42:56,36.9528,29.0887,8.8,,1.5,,KARABAYIR-CAMELI (DENIZLI) İlksel
2025.06.08,14:09:26,40.8075,28.1242,6.2,,2.1,,MARMARA DENIZI İlksel
2025.06.08,14:19:43,38.4203,37.5093,23.1,,1.5,,SUGUL-DARENDE (MALATYA) İlksel
2025.06.08,14:25:06,39.2230,29.0012,4.3,,2.0,,YEMISLI-SIMAV (KUTAHYA) İlksel
2025.06.08,14:27:45,38.3483,38.9925,8.6,,1.4,,GORGULU-SIVRICE (ELAZIG) İlksel
2025.06.08,14:28:41,39.2023,29.0127,5.4,,2.3,,EGIRLER-SIMAV (KUTAHYA) İlksel
2025.06.08,14:32:33,39.1205,29.1310,5.0,,0.9,,SENKOY-SIMAV (KUTAHYA) İlksel
2025.06.08,15:23:49,40.8295,28.4158,13.6,,1.9,,MARMARA DENIZI İlksel
2025.06.08,15:28:31,40.8115,28.1222,7.8,,1.9,,MARMARA DENIZI İlksel
2025.06.08,15:43:23,40.3342,24.1090,7.0,,2.0,,YUNANISTAN İlksel
2025.06.08,16:03:46,40.1962,31.7700,5.0,,2.0,,HIRKATEPE-BEYPAZARI (ANKARA) İlksel
2025.06.08,16:06:53,39.1677,29.0953,10.4,,1.7,,SOGUT-SIMAV (KUTAHYA) İlksel
2025.06.08,17:01:47,40.0427,38.9722,10.9,,2.1,,KARAYAPRAK-REFAHIYE (ERZINCAN) İlksel
2025.06.08,17:33:21,38.4263,37.5103,7.0,,1.5,,SUGUL-DARENDE (MALATYA) İlksel
2025.06.08,17:34:21,39.2348,29.0030,3.8,,3.3,3.2,YEMISLI-SIMAV (KUTAHYA) İlksel
2025.06.08,17:36:33,34.6115,26.4095,85.6,,3.6,,GIRIT ADASI ACIKLARI (AKDENIZ) İlksel
2025.06.08,17:40:15,38.1135,37.0015,5.4,,1.8,,CALIS-ELBISTAN (KAHRAMANMARAS) İlksel
2025.06.08,17:42:23,39.1470,29.0058,18.0,,1.4,,HACIAHMETOGLU-SIMAV (KUTAHYA) İlksel
2025.06.08,17:46:27,39.2352,29.0057,10.5,,1.6,,YEMISLI-SIMAV (KUTAHYA) İlksel
2025.06.08,17:48:31,39.2367,29.0127,5.4,,2.3,,YEMISLI-SIMAV (KUTAHYA) İlksel
2025.06.08,18:01:20,37.6977,35.9332,4.6,,1.7,,SERIFLI-KOZAN (ADANA) İlksel
2025.06.08,18:03:52,39.2343,29.0020,9.8,,2.0,,YEMISLI-SIMAV (KUTAHYA) İlksel
2025.06.08,18:06:08,39.2037,29.0093,11.9,,1.8,,EGIRLER-SIMAV (KUTAHYA) İlksel
2025.06.08,18:12:32,39.1942,29.0283,11.0,,2.1,,KARACAOREN-SIMAV (KUTAHYA) İlksel
2025.06.08,18:22:12,39.2328,29.0267,5.4,,2.3,,KATRANDAGI-EMET (KUTAHYA) İlksel
2025.06.08,18:29:35,40.2792,24.1557,13.2,,2.0,,YUNANISTAN İlksel
2025.06.08,18:32:05,39.2023,29.0527,12.3,,2.1,,KARACAOREN-SIMAV (KUTAHYA) İlksel
2025.06.08,19:08:34,39.1980,40.2682,11.6,,2.0,,DARKOPRU-KIGI (BINGOL) İlksel
2025.06.08,19:45:06,36.2920,28.3288,68.3,,2.7,,AKDENIZ İlksel
2025.06.08,19:53:47,39.2195,28.9932,10.2,,1.4,,EGIRLER-SIMAV (KUTAHYA) İlksel
2025.06.08,20:14:13,35.9917,27.2548,5.0,,3.4,3.4,EGE DENIZI İlksel
2025.06.08,20:25:03,39.2312,29.0182,5.1,,2.3,,YEMISLI-SIMAV (KUTAHYA) İlksel
2025.06.08,20:40:28,38.6902,26.5680,11.3,,3.3,3.4,IZMIR KORFEZI (EGE DENIZI) İlksel
2025.06.08,20:57:10,39.1947,40.2923,5.2,,2.7,,DARKOPRU-KIGI (BINGOL) İlksel
2025.06.08,20:59:37,38.0488,26.0935,5.4,,1.9,,EGE DENIZI İlksel
2025.06.08,21:29:13,39.1875,29.0670,11.9,,1.6,,KARACAOREN-SIMAV (KUTAHYA) İlksel
2025.06.08,21:29:41,37.6675,35.9860,5.3,,1.5,,KUYUBELI-KOZAN (ADANA) İlksel
2025.06.08,21:59:00,37.6503,35.9307,5.0,,3.3,3.2,CURUKLU-KOZAN (ADANA) İlksel
2025.06.08,22:05:20,39.2060,29.0580,11.3,,1.8,,KARACAOREN-SIMAV (KUTAHYA) İlksel
2025.06.08,22:18:21,39.2187,29.0292,5.1,,1.7,,EGIRLER-SIMAV (KUTAHYA) İlksel
2025.06.08,22:23:41,39.2253,28.9785,11.7,,1.4,,YEMISLI-SIMAV (KUTAHYA) İlksel
2025.06.08,22:28:06,39.2315,29.0063,5.6,,1.9,,YEMISLI-SIMAV (KUTAHYA) İlksel
2025.06.08,22:46:36,39.1990,29.0673,11.2,,1.8,,KARACAOREN-SIMAV (KUTAHYA) İlksel
2025.06.08,23:04:01,39.2278,28.9835,5.6,,2.8,,YEMISLI-SIMAV (KUTAHYA) İlksel
2025.06.08,23:07:16,40.2677,24.1245,13.6,,2.0,,YUNANISTAN İlksel
2025.06.08,23:11:55,39.2322,29.0128,10.1,,1.4,,YEMISLI-SIMAV (KUTAHYA) İlksel
2025.06.08,23:45:40,39.2278,29.0173,5.4,,2.0,,YEMISLI-SIMAV (KUTAHYA) İlksel
2025.06.08,23:50:25,39.2222,29.0348,10.2,,1.8,,EGIRLER-SIMAV (KUTAHYA) İlksel
2025.06.08,23:55:32,39.4105,44.0668,3.6,,2.5,,KIZILKAYA-DOGUBAYAZIT (AGRI) İlksel
2025.06.09,00:02:32,39.2098,29.0667,7.2,,1.7,,KARAAGIL-HISARCIK (KUTAHYA) İlksel
2025.06.09,00:03:00,37.9115,36.6668,8.2,,2.1,,TEKIR-(KAHRAMANMARAS) İlksel
2025.06.09,00:53:03,39.2175,29.0170,9.5,,1.4,,EGIRLER-SIMAV (KUTAHYA) İlksel
2025.06.09,00:57:38,36.3157,29.0057,14.3,,1.2,,BOGAZICI-FETHIYE (MUGLA) İlksel
2025.06.09,01:13:21,39.2183,29.0027,5.4,,1.8,,EGIRLER-SIMAV (KUTAHYA) İlksel
2025.06.09,01:20:38,40.0410,27.8485,17.1,,2.5,,SULEYMANLI-MANYAS (BALIKESIR) İlksel
2025.06.09,01:40:55,39.1678,29.1247,8.3,,1.4,,TOKAT-HISARCIK (KUTAHYA) İlksel
2025.06.09,01:45:24,36.9087,42.5097,29.1,,1.9,,IRAK İlksel
2025.06.09,01:50:53,39.1663,29.1085,13.2,,1.6,,TOKAT-HISARCIK (KUTAHYA) İlksel
2025.06.09,02:08:41,37.6212,35.4422,10.6,,1.1,,DARILIK-ALADAG (ADANA) İlksel
2025.06.09,02:23:33,39.2270,29.0098,8.0,,0.9,,YEMISLI-SIMAV (KUTAHYA) İlksel
2025.06.09,02:27:11,39.2432,28.9023,8.4,,0.8,,KAYALIDERE-SIMAV (KUTAHYA) İlksel
2025.06.09,02:35:00,37.7902,43.6333,6.3,,2.0,,UCDOGAN-GURPINAR (VAN) İlksel
2025.06.09,02:37:19,39.1868,29.0842,13.8,,1.6,,TOKAT-HISARCIK (KUTAHYA) İlksel
2025.06.09,03:05:17,39.2338,28.9900,4.2,,3.3,3.4,YEMISLI-SIMAV (KUTAHYA) İlksel
2025.06.09,03:06:48,39.2005,29.0458,12.1,,2.2,,KARACAOREN-SIMAV (KUTAHYA) İlksel
2025.06.09,03:12:22,39.2505,28.9410,3.5,,2.0,,YENILER-SIMAV (KUTAHYA) İlksel
2025.06.09,03:13:56,39.2442,28.9620,3.6,,2.1,,YEMISLI-SIMAV (KUTAHYA) İlksel
2025.06.09,03:19:24,39.2168,28.9917,5.9,,2.6,,EGIRLER-SIMAV (KUTAHYA) İlksel
2025.06.09,03:20:07,39.2150,29.0205,12.7,,3.2,3.2,EGIRLER-SIMAV (KUTAHYA) İlksel
2025.06.09,03:21:23,39.2320,28.9935,4.2,,3.2,3.2,YEMISLI-SIMAV (KUTAHYA) İlksel
2025.06.09,03:30:10,38.1418,38.4345,5.0,,2.1,,AKSU-SINCIK (ADIYAMAN) İlksel
2025.06.09,03:35:14,39.1480,29.1442,11.5,,1.5,,INLICE-SIMAV (KUTAHYA) İlksel
2025.06.09,03:38:15,39.1602,29.1153,12.4,,1.5,,SOGUT-SIMAV (KUTAHYA) İlksel
2025.06.09,03:44:53,39.2247,29.0315,5.4,,1.9,,EGIRLER-SIMAV (KUTAHYA) İlksel
2025.06.09,04:05:16,39.2258,28.9817,6.2,,1.5,,YEMISLI-SIMAV (KUTAHYA) İlksel
2025.06.09,04:09:50,39.2435,29.0012,3.6,,2.3,,YEMISLI-SIMAV (KUTAHYA) İlksel
2025.06.09,04:17:16,38.5142,39.3008,5.0,,2.0,,ACIPAYAM-(ELAZIG) İlksel
2025.06.09,04:37:40,37.8362,29.1703,18.4,,1.3,,KOCADERE-(DENIZLI) İlksel
2025.06.09,04:42:36,36.5773,28.3590,64.5,,1.9,,AKDENIZ İlksel
2025.06.09,05:03:19,37.6745,35.8688,7.6,,1.4,,CULLUUSAGI-KOZAN (ADANA) İlksel
2025.06.09,05:20:16,39.2218,29.0397,9.7,,1.2,,EGIRLER-SIMAV (KUTAHYA) İlksel
2025.06.09,05:29:29,39.2237,28.9920,5.3,,1.9,,YEMISLI-SIMAV (KUTAHYA) İlksel
2025.06.09,05:45:04,39.2015,29.0348,5.4,,1.6,,KARACAOREN-SIMAV (KUTAHYA) İlksel
2025.06.09,05:56:43,39.2080,29.0118,9.9,,1.8,,EGIRLER-SIMAV (KUTAHYA) İlksel
2025.06.09,06:09:50,36.1798,35.9323,22.4,,1.8,,CAMLIYAYLA-SAMANDAG (HATAY) İlksel
2025.06.09,06:31:35,34.4742,26.4048,87.6,,3.4,3.4,GIRIT ADASI ACIKLARI (AKDENIZ) İlksel
2025.06.09,06:32:07,38.5112,38.0570,5.0,,1.4,,ILICAK-AKCADAG (MALATYA) İlksel
2025.06.09,07:05:56,39.2188,29.0218,5.3,,1.5,,EGIRLER-SIMAV (KUTAHYA) İlksel
2025.06.09,08:33:05,40.8128,28.1217,9.6,,1.8,,MARMARA DENIZI İlksel
2025.06.09,08:35:25,38.3915,28.5815,3.1,,1.8,,ISIKLAR-ALASEHIR (MANISA) İlksel
2025.06.09,08:44:44,37.6740,35.9263,4.4,,1.5,,MAHYALAR-KOZAN (ADANA) İlksel
2025.06.09,08:51:45,39.2322,29.0027,5.8,,3.0,,YEMISLI-SIMAV (KUTAHYA) İlksel
2025.06.09,08:56:31,39.2190,29.0242,5.4,,2.0,,EGIRLER-SIMAV (KUTAHYA) İlksel
2025.06.09,09:01:23,38.1302,37.4897,5.1,,1.3,,SUNNETKOY-ELBISTAN (KAHRAMANMARAS) İlksel
2025.06.09,09:11:07,39.1967,29.0533,1.1,,1.3,,KARACAOREN-SIMAV (KUTAHYA) İlksel
2025.06.09,09:32:50,39.1263,29.0815,15.5,,1.4,,SOGUT-SIMAV (KUTAHYA) İlksel
2025.06.09,09:40:19,39.2372,28.9585,5.3,,1.9,,YEMISLI-SIMAV (KUTAHYA) İlksel
2025.06.09,09:42:00,39.2133,28.9785,6.1,,1.8,,EGIRLER-SIMAV (KUTAHYA) İlksel
2025.06.09,10:35:59,39.2137,29.0492,5.4,,1.4,,EGIRLER-SIMAV (KUTAHYA) İlksel
2025.06.09,10:48:18,38.5160,39.2847,5.0,,1.1,,ACIPAYAM-(ELAZIG) İlksel
2025.06.09,10:48:53,39.2193,29.0498,10.8,,1.2,,KATRANDAGI-EMET (KUTAHYA) İlksel
2025.06.09,11:09:53,39.0145,27.8448,8.6,,2.8,,GOKCEAHMET-AKHISAR (MANISA) İlksel
2025.06.09,11:45:53,36.0457,35.8952,11.8,,2.6,,SAMANDAG (HATAY) İlksel
2025.06.09,13:00:07,36.2528,33.7657,2.9,,1.0,,AKDERE-SILIFKE (MERSIN) İlksel
2025.06.09,13:12:35,39.0105,27.8657,10.5,,2.0,,DINGILLER-AKHISAR (MANISA) İlksel
2025.06.09,13:12:58,38.1235,38.4055,1.8,,2.0,,SALKONAK-YESILYURT (MALATYA) İlksel
2025.06.09,13:21:24,39.2360,28.9987,5.4,,3.8,3.6,YEMISLI-SIMAV (KUTAHYA) İlksel
2025.06.09,13:25:51,39.2213,28.9912,5.4,,2.0,,YEMISLI-SIMAV (KUTAHYA) İlksel
2025.06.09,13:26:19,39.2355,29.0767,5.0,,2.0,,KATRANDAGI-EMET (KUTAHYA) İlksel
2025.06.09,13:27:01,39.1933,29.0225,5.6,,2.2,,KARACAOREN-SIMAV (KUTAHYA) İlksel
2025.06.09,13:28:25,39.2240,29.0053,5.4,,2.1,,YEMISLI-SIMAV (KUTAHYA) İlksel
2025.06.09,13:29:07,39.1600,28.9842,5.3,,2.0,,NASA-SIMAV (KUTAHYA) İlksel
2025.06.09,13:33:07,39.1427,29.1340,4.1,,1.2,,INLICE-SIMAV (KUTAHYA) İlksel
2025.06.09,13:50:00,38.0628,37.3092,5.0,,2.0,,AGCASAR-NURHAK (KAHRAMANMARAS) İlksel
2025.06.09,14:04:38,39.1242,29.1500,11.0,,1.2,,INLICE-SIMAV (KUTAHYA) İlksel
2025.06.09,14:27:48,39.2377,29.0408,5.4,,1.3,,KATRANDAGI-EMET (KUTAHYA) İlksel
2025.06.09,14:49:06,39.2143,29.0648,8.0,,1.7,,KATRANDAGI-EMET (KUTAHYA) İlksel
2025.06.09,14:58:10,38.2363,38.7412,15.6,,1.4,,PAZARCIK-PUTURGE (MALATYA) İlksel
2025.06.09,16:04:14,39.2332,28.9997,9.6,,2.1,,YEMISLI-SIMAV (KUTAHYA) İlksel
2025.06.09,16:05:42,39.2398,29.0053,5.3,,3.2,3.0,YEMISLI-SIMAV (KUTAHYA) İlksel
2025.06.09,16:10:08,40.2640,24.1377,11.3,,2.0,,YUNANISTAN İlksel
2025.06.09,17:33:40,39.6973,33.3268,5.4,,2.1,,SARIKAYALAR-BAHSILI (KIRIKKALE) İlksel
2025.06.09,17:47:45,37.1203,36.6702,9.1,,1.7,,KOZDERE-ISLAHIYE (GAZIANTEP) İlksel
2025.06.09,17:56:29,39.2257,29.0333,5.9,,2.3,,EGIRLER-SIMAV (KUTAHYA) İlksel
2025.06.09,18:02:18,39.2152,29.0178,5.4,,2.1,,EGIRLER-SIMAV (KUTAHYA) İlksel
2025.06.09,18:30:51,39.2540,40.8707,16.3,,2.0,,KAYNAK-KARLIOVA (BINGOL) İlksel
2025.06.09,19:06:02,40.2423,24.1223,7.2,,2.3,,YUNANISTAN İlksel
2025.06.09,19:15:17,39.2412,28.9878,9.5,,1.2,,YEMISLI-SIMAV (KUTAHYA) İlksel
2025.06.09,19:16:26,40.8332,28.1560,9.9,,1.7,,MARMARA DENIZI İlksel
2025.06.09,19:27:50,39.2222,29.0248,12.4,,1.6,,EGIRLER-SIMAV (KUTAHYA) İlksel
2025.06.09,19:30:29,39.2408,28.9087,12.5,,1.5,,KAYALIDERE-SIMAV (KUTAHYA) İlksel
2025.06.09,19:33:56,36.7412,25.7233,9.9,,2.1,,EGE DENIZI İlksel
2025.06.09,19:35:12,39.2210,29.0225,7.2,,2.3,,EGIRLER-SIMAV (KUTAHYA) İlksel
2025.06.09,19:38:28,39.1842,29.0640,11.9,,1.8,,KARACAOREN-SIMAV (KUTAHYA) İlksel
2025.06.09,19:40:27,37.1500,28.6848,5.0,,1.5,,TURGUT-ULA (MUGLA) İlksel
2025.06.09,20:14:28,39.1747,29.0710,11.5,,1.7,,KARACAOREN-SIMAV (KUTAHYA) İlksel
2025.06.09,20:18:04,36.7372,25.6717,7.9,,1.8,,EGE DENIZI İlksel
2025.06.09,20:25:33,38.0832,36.9737,19.4,,1.5,,KARADUT-GOKSUN (KAHRAMANMARAS) İlksel
2025.06.09,20:47:08,39.2365,29.0005,5.3,,2.5,,YEMISLI-SIMAV (KUTAHYA) İlksel
2025.06.09,20:53:26,40.3972,27.8890,11.2,,3.6,,HAMAMLI-ERDEK (BALIKESIR) İlksel
2025.06.09,20:54:43,39.2020,29.0552,9.5,,2.1,,KARACAOREN-SIMAV (KUTAHYA) İlksel
2025.06.09,21:28:56,39.1258,29.1303,4.7,,1.3,,SENKOY-SIMAV (KUTAHYA) İlksel
2025.06.09,21:45:27,39.2280,29.0288,7.7,,2.2,,EGIRLER-SIMAV (KUTAHYA) İlksel
2025.06.09,21:47:08,39.2137,29.0250,10.0,,1.7,,EGIRLER-SIMAV (KUTAHYA) İlksel
2025.06.09,22:39:52,39.1765,40.2660,8.9,,2.0,,SARIHAN-KARAKOCAN (ELAZIG) İlksel
2025.06.09,22:51:06,36.9405,28.8168,1.6,,1.4,,PINAR-KOYCEGIZ (MUGLA) İlksel
2025.06.09,23:09:11,39.2368,29.0018,5.6,,1.7,,YEMISLI-SIMAV (KUTAHYA) İlksel
2025.06.09,23:10:38,39.2272,29.0210,5.4,,2.2,,EGIRLER-SIMAV (KUTAHYA) İlksel
2025.06.09,23:31:29,39.2388,29.0005,11.4,,1.7,,YEMISLI-SIMAV (KUTAHYA) İlksel
2025.06.09,23:43:53,38.4197,37.2415,11.8,,1.4,,GOKCEK-ELBISTAN (KAHRAMANMARAS) İlksel
2025.06.09,23:44:04,39.1492,29.1150,15.0,,1.4,,SOGUT-SIMAV (KUTAHYA) İlksel
2025.06.10,00:15:52,38.1405,38.2998,5.0,,2.2,,ASAGIKOY-YESILYURT (MALATYA) İlksel
2025.06.10,00:20:03,39.4563,37.2877,8.0,,2.4,,ORENLICE-ULAS (SIVAS) İlksel
2025.06.10,00:36:06,37.6542,35.9942,1.9,,3.2,3.1,BOZTAHTA-KOZAN (ADANA) İlksel
2025.06.10,01:21:41,40.7017,31.5767,5.0,,0.9,,SULTANBEY-(BOLU) İlksel
2025.06.10,01:24:22,40.8820,28.4682,5.3,,1.5,,GURPINAR ACIKLARI-ISTANBUL (MARMARA DENIZI) İlksel
2025.06.10,01:54:56,36.5685,25.6132,9.3,,2.1,,EGE DENIZI İlksel
2025.06.10,02:18:56,36.1720,28.8973,5.0,,1.3,,AKDENIZ İlksel
2025.06.10,02:26:46,36.5848,25.5748,8.1,,2.4,,EGE DENIZI İlksel
2025.06.10,02:32:12,37.6447,35.9565,5.7,,1.6,,CURUKLU-KOZAN (ADANA) İlksel
2025.06.10,02:33:58,40.3342,24.0330,5.8,,1.5,,YUNANISTAN İlksel
2025.06.10,02:50:05,37.1305,28.8710,9.9,,1.4,,OTMANLAR-KOYCEGIZ (MUGLA) İlksel
2025.06.10,03:08:16,37.6412,35.9262,5.0,,1.3,,CURUKLU-KOZAN (ADANA) İlksel
2025.06.10,03:12:08,39.7202,26.0708,7.9,,1.3,,TAVAKLI ACIKLARI-CANAKKALE (EGE DENIZI) İlksel
2025.06.10,03:23:08,40.8790,28.2885,15.0,,1.4,,MARMARA DENIZI İlksel
2025.06.10,03:25:21,38.3833,38.7508,5.0,,2.0,,SALKIMLI-KALE (MALATYA) İlksel
2025.06.10,03:44:15,37.8472,27.0203,7.7,,1.5,,KUSADASI KORFEZI (EGE DENIZI) İlksel
2025.06.10,03:54:30,39.2100,40.2790,5.0,,2.0,,DARKOPRU-KIGI (BINGOL) İlksel
2025.06.10,04:22:57,36.6258,25.6102,8.5,,2.5,,EGE DENIZI İlksel
2025.06.10,04:24:32,37.7577,27.2240,5.4,,1.6,,KUSADASI KORFEZI (EGE DENIZI) İlksel
2025.06.10,04:27:58,39.2172,29.0313,5.3,,2.0,,EGIRLER-SIMAV (KUTAHYA) İlksel
2025.06.10,04:34:51,36.7997,27.6815,6.7,,2.6,,KIZLAN-DATCA (MUGLA) İlksel
2025.06.10,04:36:35,37.6607,35.9452,6.3,,1.3,,CURUKLU-KOZAN (ADANA) İlksel
2025.06.10,04:39:34,36.7592,27.6467,5.0,,1.6,,KARAKOY-DATCA (MUGLA) İlksel
2025.06.10,04:46:50,40.3068,24.1400,12.4,,2.9,,YUNANISTAN İlksel
2025.06.10,05:24:05,35.8955,31.5033,11.7,,1.9,,AKDENIZ İlksel
2025.06.10,05:40:32,36.7777,27.9412,8.6,,1.5,,GOKOVA KORFEZI (EGE DENIZI) İlksel
2025.06.10,05:43:12,39.1793,29.0572,23.1,,1.2,,KARACAOREN-SIMAV (KUTAHYA) İlksel
2025.06.10,05:54:10,39.1927,29.0302,13.7,,1.2,,KARACAOREN-SIMAV (KUTAHYA) İlksel
2025.06.10,05:55:10,37.5002,37.1088,5.0,,1.7,,KARTAL-(KAHRAMANMARAS) İlksel
2025.06.10,06:04:13,40.2807,24.1433,14.3,,3.8,3.8,YUNANISTAN İlksel
2025.06.10,06:07:56,39.2485,28.9918,7.9,,1.3,,YEMISLI-SIMAV (KUTAHYA) İlksel
2025.06.10,06:19:50,36.6808,25.6027,7.7,,2.3,,EGE DENIZI İlksel
2025.06.10,06:32:01,37.6487,35.9718,5.0,,1.7,,CAMLARCA-KOZAN (ADANA) İlksel
2025.06.10,06:47:45,37.0902,28.5667,14.4,,1.5,,KIYRA-ULA (MUGLA) İlksel
2025.06.10,07:17:47,40.2888,24.1100,6.5,,2.6,,YUNANISTAN İlksel
2025.06.10,07:25:40,39.2193,29.0607,5.5,,1.7,,KATRANDAGI-EMET (KUTAHYA) İlksel
