Date,Time,Latitude,Longitude,Depth,MD,ML,Mw,Location
2025.06.01,00:35:17,39.2440,28.9653,7.5,,2.6,,YEMISLI-SIMAV (KUTAHYA) İlksel
2025.06.01,00:38:30,39.2412,28.9895,3.7,,1.6,,YEMISLI-SIMAV (KUTAHYA) İlksel
2025.06.01,00:58:52,39.1883,40.2678,5.0,,2.8,,DARKOPRU-KIGI (BINGOL) İlksel
2025.06.01,01:19:10,36.0793,31.1013,18.0,,4.1,,AKDENIZ İlksel
2025.06.01,02:00:28,38.4992,39.1810,7.9,,3.0,,DEDEPINARI-(ELAZIG) İlksel
2025.06.01,02:24:31,38.5345,38.0038,7.3,,2.1,,IRIAGAC-YAZIHAN (MALATYA) İlksel
