Date,Time,Latitude,Longitude,Depth,MD,ML,Mw,Location
2025.12.01,00:01:02,39.2452,28.9877,3.1,,1.3,,YEMISLI-SIMAV (KUTAHYA) İlksel
2025.12.01,00:06:19,39.2207,28.9400,13.9,,1.3,,HAMZABEY-SIMAV (KUTAHYA) İlksel
2025.12.01,00:10:24,39.1997,28.9108,13.8,,1.4,,ORENLI-SIMAV (KUTAHYA) İlksel
2025.12.01,00:10:31,38.2760,37.5570,18.2,,1.3,,SEVDILI-ELBISTAN (KAHRAMANMARAS) İlksel
2025.12.01,00:19:33,39.2053,27.9697,8.6,,1.5,,AKKOCALI-AKHISAR (MANISA) İlksel
2025.12.01,00:21:23,38.5858,27.1037,2.1,,1.7,,YAHSELLI-MENEMEN (IZMIR) İlksel
2025.12.01,00:34:26,40.0272,38.6322,4.4,,2.4,,GUNALAN-GOLOVA (SIVAS) İlksel
2025.12.01,00:48:26,38.0908,36.6132,4.7,,1.1,,KANLIKAVAK-GOKSUN (KAHRAMANMARAS) İlksel
2025.12.01,00:53:46,38.2122,38.0800,19.4,,1.0,,ISIKLI-YESILYURT (MALATYA) İlksel
2025.12.01,00:58:07,39.5892,25.9865,13.5,,2.1,,GULPINAR ACIKLARI-CANAKKALE (EGE DENIZI) İlksel
2025.12.01,01:23:28,40.7368,32.8460,5.0,,1.7,,DAGCUKUROREN-CERKES (CANKIRI) İlksel
2025.12.01,01:24:52,39.0777,25.9785,7.1,,1.9,,MIDILLI ADASI GUNEYI (EGE DENIZI) İlksel
2025.12.01,01:33:15,39.1050,25.9675,6.9,,1.8,,MIDILLI ADASI GUNEYI (EGE DENIZI) İlksel
2025.12.01,01:43:31,36.1213,28.2962,27.3,,2.4,,AKDENIZ İlksel
2025.12.01,01:46:49,37.0723,28.3217,4.8,,2.5,,AKYAKA-ULA (MUGLA) İlksel
2025.12.01,01:49:23,39.2073,28.1798,11.4,,1.4,,YAYLACIK-SINDIRGI (BALIKESIR) İlksel
2025.12.01,02:07:25,37.1360,28.8368,2.8,,1.4,,KARACAOREN-(MUGLA) İlksel
2025.12.01,02:20:53,39.0355,40.4213,12.2,,1.4,,SUDUGUNU-(BINGOL) İlksel
2025.12.01,02:31:40,38.1340,38.3743,16.5,,1.0,,SALKONAK-YESILYURT (MALATYA) İlksel
2025.12.01,02:40:52,39.0702,28.0405,11.2,,1.7,,KOCAKAGAN-AKHISAR (MANISA) İlksel
2025.12.01,02:44:26,37.0203,28.0707,7.9,,1.6,,KULTAK-MILAS (MUGLA) İlksel
2025.12.01,03:11:29,37.1487,36.8692,5.0,,1.9,,TULLUCE-NURDAGI (GAZIANTEP) İlksel
2025.12.01,04:18:17,38.7135,26.4748,12.7,,2.4,,EGE DENIZI İlksel
2025.12.01,04:26:35,39.2548,28.0518,10.7,,1.2,,ALACAATLI-SINDIRGI (BALIKESIR) İlksel
2025.12.01,04:43:15,38.0175,36.4835,4.9,,1.2,,GOKSUN (KAHRAMANMARAS) İlksel
2025.12.01,05:03:13,39.2628,28.1215,7.5,,1.3,,IBILLER-SINDIRGI (BALIKESIR) İlksel
2025.12.01,05:06:46,39.1490,28.3335,11.2,,1.2,,KUCUKDAGDERE-SINDIRGI (BALIKESIR) İlksel
2025.12.01,05:15:32,39.2192,28.0868,7.9,,1.4,,KERTIL-SINDIRGI (BALIKESIR) İlksel
2025.12.01,05:16:14,38.2038,38.5162,12.5,,1.2,,GULUMUSAGI-(MALATYA) İlksel
2025.12.01,05:32:37,39.2530,29.0188,2.4,,1.3,,YESILDERE-SIMAV (KUTAHYA) İlksel
2025.12.01,05:35:08,39.1775,28.2425,9.2,,1.3,,BAYRAKLI-SINDIRGI (BALIKESIR) İlksel
2025.12.01,05:44:51,39.0130,29.7083,5.5,,1.9,,CUKUROREN-GEDIZ (KUTAHYA) İlksel
2025.12.01,06:00:20,37.1317,36.6248,2.9,,2.1,,KUSCUMUSTAFA-ISLAHIYE (GAZIANTEP) İlksel
2025.12.01,06:03:16,39.1560,28.3163,9.6,,1.3,,KUCUKDAGDERE-SINDIRGI (BALIKESIR) İlksel
2025.12.01,06:26:48,39.2618,28.1033,12.5,,2.7,,KARAGUR-SINDIRGI (BALIKESIR) İlksel
2025.12.01,06:36:50,39.2475,28.0868,8.9,,1.3,,KOZLU-SINDIRGI (BALIKESIR) İlksel
2025.12.01,07:31:29,39.1965,28.1342,12.7,,2.2,,ORMANICI-SINDIRGI (BALIKESIR) İlksel
2025.12.01,07:33:41,37.0590,28.2252,2.4,,1.5,,KIRAN-(MUGLA) İlksel
2025.12.01,07:46:25,39.2575,29.0202,10.5,,1.4,,YESILDERE-SIMAV (KUTAHYA) İlksel
2025.12.01,07:58:26,39.2882,28.1632,12.5,,1.6,,CELEBILER-SINDIRGI (BALIKESIR) İlksel
2025.12.01,08:22:55,39.1585,29.4420,1.7,,1.4,,PUSATLAR-CAVDARHISAR (KUTAHYA) İlksel
2025.12.01,08:23:49,39.2055,28.2967,9.4,,1.6,,ASLANDEDE-SINDIRGI (BALIKESIR) İlksel
2025.12.01,08:36:18,39.1330,28.3108,11.8,,1.3,,YUREGIL-SINDIRGI (BALIKESIR) İlksel
2025.12.01,08:37:31,39.1802,28.2387,7.9,,1.6,,BAYRAKLI-SINDIRGI (BALIKESIR) İlksel
2025.12.01,08:40:23,39.2145,28.1748,9.5,,0.9,,YAYLACIK-SINDIRGI (BALIKESIR) İlksel
2025.12.01,08:42:16,39.2047,28.1785,8.1,,1.8,,YAYLACIK-SINDIRGI (BALIKESIR) İlksel
2025.12.01,08:49:20,38.1410,38.4898,5.0,,1.2,,AKSU-SINCIK (ADIYAMAN) İlksel
2025.12.01,09:12:11,38.0602,36.4885,6.5,,1.6,,HACIMIRZA-GOKSUN (KAHRAMANMARAS) İlksel
2025.12.01,09:22:16,39.2300,28.1115,10.6,,1.8,,BAYIRLI-SINDIRGI (BALIKESIR) İlksel
2025.12.01,09:33:05,39.2587,29.0103,12.4,,1.5,,YESILDERE-SIMAV (KUTAHYA) İlksel
2025.12.01,09:48:49,39.1787,28.1540,8.3,,1.3,,SINANDEDE-SINDIRGI (BALIKESIR) İlksel
2025.12.01,09:52:06,35.7428,27.7333,5.3,,2.3,,AKDENIZ İlksel
2025.12.01,10:08:30,39.2630,28.3675,7.1,,1.8,,KIRANKOY-SINDIRGI (BALIKESIR) İlksel
2025.12.01,10:13:41,39.2345,28.3285,2.8,,1.1,,OSMANLAR-SINDIRGI (BALIKESIR) İlksel
2025.12.01,10:21:36,40.5020,30.1412,0.0,,1.1,,KARAPINAR-PAMUKOVA (SAKARYA) İlksel
2025.12.01,10:23:50,39.1842,28.2505,16.3,,1.0,,ISIKLAR-SINDIRGI (BALIKESIR) İlksel
2025.12.01,10:29:06,39.2073,28.1520,7.5,,1.2,,YAYLACIK-SINDIRGI (BALIKESIR) İlksel
2025.12.01,10:34:32,39.2282,28.1733,8.8,,1.3,,SINDIRGI (BALIKESIR) İlksel
2025.12.01,11:15:33,39.5537,32.8667,0.0,,1.4,,CIMSIT-GOLBASI (ANKARA) İlksel
2025.12.01,11:21:28,38.4903,39.1713,2.2,,1.7,,DEDEPINARI-(ELAZIG) İlksel
2025.12.01,11:23:51,41.2483,24.7068,4.4,,2.6,,YUNANISTAN İlksel
2025.12.01,11:33:54,39.4705,28.1157,4.9,,1.6,,DEGIRMENLI-BIGADIC (BALIKESIR) İlksel
2025.12.01,11:36:09,36.9820,29.7745,5.0,,2.9,,KUCUKLU-KORKUTELI (ANTALYA) İlksel
2025.12.01,11:45:40,39.1590,28.0552,9.9,,2.1,,ISACA-AKHISAR (MANISA) İlksel
2025.12.01,11:57:04,39.2858,27.5948,9.2,,1.5,,KUM-SOMA (MANISA) İlksel
2025.12.01,12:01:26,38.0055,36.3133,5.0,,1.9,,KAZANDERE-GOKSUN (KAHRAMANMARAS) İlksel
2025.12.01,12:15:49,39.2645,29.0570,18.0,,0.7,,KATRANDAGI-EMET (KUTAHYA) REVIZE01 (2025.12.01 12:15:49)
2025.12.01,12:40:10,39.9405,27.5293,4.8,,1.2,,YESILKOY-YENICE (CANAKKALE) İlksel
2025.12.01,12:43:19,39.2040,28.1572,13.3,,1.5,,YAYLACIK-SINDIRGI (BALIKESIR) İlksel
2025.12.01,12:48:50,36.3693,34.2185,5.0,,1.5,,KIZKALESI-ERDEMLI (MERSIN) İlksel
2025.12.01,12:52:57,39.2233,28.1855,9.6,,1.5,,PURSUNLER-SINDIRGI (BALIKESIR) İlksel
2025.12.01,12:56:29,38.3743,38.8243,5.2,,1.3,,KARAAGAC-KALE (MALATYA) İlksel
2025.12.01,12:58:51,36.8318,27.8247,12.7,,1.8,,GOKOVA KORFEZI (EGE DENIZI) İlksel
2025.12.01,13:02:40,35.2975,33.6528,4.0,,1.6,,KIBRIS-BESPARMAK İlksel
2025.12.01,13:02:44,39.2377,28.1345,17.2,,1.6,,MANDIRA-SINDIRGI (BALIKESIR) İlksel
2025.12.01,13:09:43,39.6847,27.6285,5.0,,1.5,,KOCAAVSAR-(BALIKESIR) İlksel
2025.12.01,13:21:57,39.2052,28.2573,5.2,,1.2,,ILICA-SINDIRGI (BALIKESIR) İlksel
2025.12.01,13:43:23,39.2692,27.7095,0.0,,1.4,,KOZLUOREN-SOMA (MANISA) İlksel
2025.12.01,13:46:12,39.1350,28.3120,15.7,,1.2,,YUREGIL-SINDIRGI (BALIKESIR) İlksel
2025.12.01,13:49:39,39.1695,28.2478,5.3,,1.2,,BAYRAKLI-SINDIRGI (BALIKESIR) İlksel
2025.12.01,13:59:38,36.1153,33.5625,0.0,,1.0,,BUYUKECELI-GULNAR (MERSIN) İlksel
2025.12.01,14:08:47,39.1693,28.2820,11.2,,1.5,,ISIKLAR-SINDIRGI (BALIKESIR) İlksel
2025.12.01,14:09:36,39.1372,28.3633,4.2,,1.3,,YAYLABAYIR-SINDIRGI (BALIKESIR) İlksel
2025.12.01,14:10:53,39.1363,28.1717,13.8,,1.0,,AKTAS-SINDIRGI (BALIKESIR) İlksel
2025.12.01,14:29:39,40.4063,24.0123,5.8,,1.9,,YUNANISTAN İlksel
2025.12.01,14:43:15,39.1000,28.3212,5.2,,1.0,,YUREGIL-SINDIRGI (BALIKESIR) İlksel
2025.12.01,14:56:59,39.1960,28.2187,9.9,,1.4,,ILICA-SINDIRGI (BALIKESIR) İlksel
2025.12.01,15:05:47,36.1630,33.3280,5.0,,0.6,,AYDINCIK (MERSIN) İlksel
2025.12.01,15:10:50,39.1782,28.2445,8.1,,1.4,,BAYRAKLI-SINDIRGI (BALIKESIR) İlksel
2025.12.01,15:11:00,38.5952,37.9668,8.8,,1.9,,CAVUS-YAZIHAN (MALATYA) İlksel
2025.12.01,15:39:48,39.1795,28.1825,15.0,,1.8,,AKTAS-SINDIRGI (BALIKESIR) İlksel
2025.12.01,15:48:24,39.2613,29.0097,27.6,,1.1,,YESILDERE-SIMAV (KUTAHYA) İlksel
2025.12.01,16:16:50,39.7367,26.0535,13.4,,1.9,,ODUN ISKELE ACIKLARI-CANAKKALE (EGE DENIZI) İlksel
2025.12.01,16:24:01,37.3210,27.9363,0.0,,1.3,,KOZAGAC-YATAGAN (MUGLA) İlksel
2025.12.01,16:37:40,37.9668,27.1153,5.0,,1.6,,KUSADASI KORFEZI (EGE DENIZI) İlksel
2025.12.01,16:40:41,38.3285,38.8323,5.3,,1.8,,UYANIK-KALE (MALATYA) İlksel
2025.12.01,16:42:10,39.1725,28.2262,11.1,,3.0,,BAYRAKLI-SINDIRGI (BALIKESIR) İlksel
2025.12.01,16:44:55,39.1488,28.2812,10.9,,1.3,,YUREGIL-SINDIRGI (BALIKESIR) İlksel
2025.12.01,16:51:50,39.1655,28.2315,8.1,,2.4,,BAYRAKLI-SINDIRGI (BALIKESIR) İlksel
2025.12.01,16:55:27,39.1183,28.3505,12.4,,1.2,,YAYLABAYIR-SINDIRGI (BALIKESIR) İlksel
2025.12.01,17:03:41,39.1743,28.3695,18.1,,1.2,,YAYLABAYIR-SINDIRGI (BALIKESIR) İlksel
2025.12.01,17:09:33,39.2463,29.0362,15.2,,1.4,,KATRANDAGI-EMET (KUTAHYA) İlksel
2025.12.01,17:19:08,39.2328,28.9275,16.9,,1.3,,YENILER-SIMAV (KUTAHYA) İlksel
2025.12.01,17:22:56,39.2502,29.0167,10.9,,1.7,,YESILDERE-SIMAV (KUTAHYA) İlksel
2025.12.01,17:31:35,38.5645,39.3632,20.0,,1.8,,CAGLAR-(ELAZIG) İlksel
2025.12.01,17:48:08,39.1728,28.2790,9.7,,1.6,,ISIKLAR-SINDIRGI (BALIKESIR) İlksel
2025.12.01,17:58:35,39.2033,28.1107,20.9,,1.4,,KERTIL-SINDIRGI (BALIKESIR) İlksel
2025.12.01,18:11:05,38.4403,40.4118,5.5,,3.3,3.2,KALABA-HANI (DIYARBAKIR) İlksel
2025.12.01,18:15:14,40.4130,26.3047,18.5,,1.4,,SAROS KORFEZI (EGE DENIZI) İlksel
2025.12.01,18:23:31,39.2170,28.0107,9.8,,1.9,,SAHINKAYA-SINDIRGI (BALIKESIR) İlksel
2025.12.01,18:32:05,38.9763,35.8685,7.7,,1.4,,SULTANHANI-BUNYAN (KAYSERI) İlksel
2025.12.01,18:35:30,38.9327,26.0572,7.6,,3.4,3.4,MIDILLI ADASI GUNEYI (EGE DENIZI) İlksel
2025.12.01,18:58:54,39.2145,28.1560,11.6,,2.7,,YAYLACIK-SINDIRGI (BALIKESIR) İlksel
2025.12.01,19:04:34,39.2267,29.0918,1.5,,1.3,,KARAAGIL-HISARCIK (KUTAHYA) İlksel
2025.12.01,19:07:57,39.2478,29.0415,5.0,,1.1,,KATRANDAGI-EMET (KUTAHYA) İlksel
2025.12.01,19:27:14,39.1900,28.0787,16.6,,1.1,,KERTIL-SINDIRGI (BALIKESIR) İlksel
2025.12.01,20:10:19,39.1668,28.2162,9.3,,2.3,,AKTAS-SINDIRGI (BALIKESIR) İlksel
2025.12.01,20:16:50,39.1492,28.2998,13.6,,2.9,,YUREGIL-SINDIRGI (BALIKESIR) İlksel
2025.12.01,20:27:28,38.9195,26.1008,14.4,,1.9,,MIDILLI ADASI GUNEYI (EGE DENIZI) İlksel
2025.12.01,20:36:28,39.1725,28.2355,13.4,,1.4,,BAYRAKLI-SINDIRGI (BALIKESIR) İlksel
2025.12.01,20:43:02,39.1517,28.2893,11.8,,2.8,,YUREGIL-SINDIRGI (BALIKESIR) İlksel
2025.12.01,20:46:02,38.0028,38.3358,5.4,,1.6,,AKSU-CELIKHAN (ADIYAMAN) İlksel
2025.12.01,20:53:13,36.9522,27.6700,5.3,,1.6,,GOKOVA KORFEZI (EGE DENIZI) İlksel
2025.12.01,20:53:23,39.1750,28.1583,14.2,,2.0,,SINANDEDE-SINDIRGI (BALIKESIR) İlksel
2025.12.01,21:10:12,39.3270,28.0660,9.0,,1.8,,CAKILLI-SINDIRGI (BALIKESIR) İlksel
2025.12.01,21:26:20,37.1042,28.6028,13.8,,1.2,,ARICILAR-ULA (MUGLA) İlksel
2025.12.01,21:33:12,39.1783,28.2753,11.8,,1.5,,ISIKLAR-SINDIRGI (BALIKESIR) İlksel
2025.12.01,21:51:42,39.1557,28.2102,15.8,,2.4,,AKTAS-SINDIRGI (BALIKESIR) İlksel
2025.12.01,21:59:10,36.5352,28.8668,19.1,,1.5,,FETHIYE KORFEZI (AKDENIZ) İlksel
2025.12.01,22:00:29,37.0348,28.2908,4.2,,1.1,,AKYAKA-ULA (MUGLA) İlksel
2025.12.01,22:04:00,38.9202,26.0590,8.2,,3.4,3.4,MIDILLI ADASI GUNEYI (EGE DENIZI) İlksel
2025.12.01,22:07:30,38.9273,26.0862,8.4,,2.0,,MIDILLI ADASI GUNEYI (EGE DENIZI) İlksel
2025.12.01,22:10:03,38.9243,26.0758,8.0,,1.8,,MIDILLI ADASI GUNEYI (EGE DENIZI) İlksel
2025.12.01,22:14:33,39.2410,28.1387,11.4,,1.4,,MANDIRA-SINDIRGI (BALIKESIR) İlksel
2025.12.01,22:23:27,35.4708,29.4550,14.0,,1.9,,AKDENIZ İlksel
2025.12.01,22:50:52,39.2143,28.1572,9.2,,1.7,,YAYLACIK-SINDIRGI (BALIKESIR) İlksel
2025.12.01,22:51:18,38.4782,38.0395,4.4,,3.2,3.1,ILICAK-AKCADAG (MALATYA) İlksel
2025.12.01,23:05:33,39.2352,28.0697,10.5,,1.8,,ALAKIR-SINDIRGI (BALIKESIR) İlksel
2025.12.01,23:08:52,39.1573,28.2013,12.0,,1.4,,AKTAS-SINDIRGI (BALIKESIR) İlksel
2025.12.01,23:20:31,38.1425,38.5642,4.2,,1.9,,ARIKONAK-SINCIK (ADIYAMAN) İlksel
2025.12.01,23:31:49,38.1533,37.7740,14.0,,1.3,,CAVUSLU-DOGANSEHIR (MALATYA) İlksel
2025.12.01,23:46:10,38.4837,38.0228,14.8,,1.1,,KEKLIKPINARI-AKCADAG (MALATYA) İlksel
2025.12.01,23:49:57,38.4877,37.9955,20.2,,1.3,,KEKLIKPINARI-AKCADAG (MALATYA) İlksel
2025.12.01,23:50:22,40.7963,27.9535,6.3,,1.5,,MARMARA DENIZI İlksel
2025.12.01,23:54:38,38.4512,38.0255,21.7,,1.0,,YUKARIORUKCU-AKCADAG (MALATYA) İlksel
2025.12.01,23:57:04,39.1547,28.1908,11.8,,1.2,,AKTAS-SINDIRGI (BALIKESIR) İlksel
2025.12.01,23:59:00,37.0943,28.6112,10.9,,1.4,,ARICILAR-ULA (MUGLA) İlksel
2025.12.02,00:18:08,38.9390,26.0952,3.7,,2.9,,MIDILLI ADASI GUNEYI (EGE DENIZI) İlksel
2025.12.02,00:45:23,39.2197,28.2148,19.5,,1.1,,PURSUNLER-SINDIRGI (BALIKESIR) İlksel
2025.12.02,00:59:56,39.2307,28.1013,7.8,,1.3,,KOZLU-SINDIRGI (BALIKESIR) İlksel
2025.12.02,01:06:34,38.2117,38.5150,6.9,,1.5,,GULUMUSAGI-(MALATYA) İlksel
2025.12.02,01:22:08,39.1880,28.2197,8.6,,1.1,,ILICA-SINDIRGI (BALIKESIR) İlksel
2025.12.02,01:25:10,40.3755,27.2460,5.2,,0.9,,ORTULUCE-BIGA (CANAKKALE) İlksel
2025.12.02,01:36:24,37.9132,36.6472,5.0,,2.2,,TEKIR-(KAHRAMANMARAS) İlksel
2025.12.02,01:59:09,38.1247,37.4548,5.0,,1.5,,SUNNETKOY-ELBISTAN (KAHRAMANMARAS) İlksel
2025.12.02,02:01:36,39.1535,28.2843,9.4,,2.1,,ISIKLAR-SINDIRGI (BALIKESIR) İlksel
2025.12.02,02:14:19,39.2978,27.8952,2.6,,1.7,,FIRDANLAR-KIRKAGAC (MANISA) İlksel
2025.12.02,02:16:58,38.9513,26.0943,7.7,,2.2,,MIDILLI ADASI GUNEYI (EGE DENIZI) İlksel
2025.12.02,02:44:17,39.2160,28.1532,13.0,,3.1,3.0,MANDIRA-SINDIRGI (BALIKESIR) İlksel
2025.12.02,02:56:35,39.1942,28.1475,8.5,,1.4,,ORMANICI-SINDIRGI (BALIKESIR) İlksel
2025.12.02,02:59:15,39.1320,28.1165,12.9,,1.4,,SINANDEDE-SINDIRGI (BALIKESIR) İlksel
2025.12.02,03:18:44,39.3902,26.0775,5.5,,2.2,,BADEMLI ACIKLARI-CANAKKALE (EGE DENIZI) İlksel
2025.12.02,03:28:30,39.1425,28.2540,10.9,,1.5,,BAYRAKLI-SINDIRGI (BALIKESIR) İlksel
2025.12.02,03:41:56,38.5025,38.0342,3.1,,1.3,,ILICAK-AKCADAG (MALATYA) İlksel
2025.12.02,03:43:37,39.1828,28.1370,10.0,,2.1,,ORMANICI-SINDIRGI (BALIKESIR) İlksel
2025.12.02,03:56:04,40.3427,27.7788,12.0,,1.7,,ERDEK KORFEZI (MARMARA DENIZI) İlksel
2025.12.02,03:57:59,40.3297,27.7808,14.8,,2.3,,HIDIRKOY-BANDIRMA (BALIKESIR) İlksel
2025.12.02,04:17:49,38.7145,40.3263,13.0,,1.5,,DEDEBAGI-GENC (BINGOL) İlksel
2025.12.02,04:32:35,39.6840,26.4672,19.9,,1.5,,MISVAK-AYVACIK (CANAKKALE) İlksel
2025.12.02,04:38:22,39.1753,28.2277,8.0,,1.6,,BAYRAKLI-SINDIRGI (BALIKESIR) İlksel
2025.12.02,04:40:33,39.2148,28.1215,10.4,,1.2,,BAYIRLI-SINDIRGI (BALIKESIR) İlksel
2025.12.02,04:53:37,35.0118,33.4558,17.1,,0.8,,KIBRIS-LEFKOSA İlksel
2025.12.02,05:01:04,39.1922,28.1358,9.7,,1.8,,ORMANICI-SINDIRGI (BALIKESIR) İlksel
2025.12.02,05:22:00,39.2387,28.0977,8.2,,1.6,,KOZLU-SINDIRGI (BALIKESIR) İlksel
2025.12.02,05:37:49,40.5918,27.9165,7.7,,1.8,,ERDEK ACIKLARI-BALIKESIR (MARMARA DENIZI) İlksel
2025.12.02,05:45:13,39.1923,27.7318,7.4,,1.3,,BAYAT-SOMA (MANISA) İlksel
2025.12.02,05:53:01,37.9430,38.0158,5.0,,1.5,,RESADIYE-DOGANSEHIR (MALATYA) İlksel
2025.12.02,05:55:39,39.0930,28.1352,4.9,,1.4,,HANPASA-AKHISAR (MANISA) İlksel
2025.12.02,06:03:48,37.9758,36.3842,7.5,,2.0,,HUGTAS-GOKSUN (KAHRAMANMARAS) İlksel
2025.12.02,06:07:16,40.6085,27.8672,11.7,,3.2,,ERDEK ACIKLARI-BALIKESIR (MARMARA DENIZI) İlksel
2025.12.02,06:10:22,37.9423,36.3423,5.0,,1.4,,YOGUNOLUK-GOKSUN (KAHRAMANMARAS) İlksel
2025.12.02,06:18:10,39.2188,28.0560,11.2,,2.9,,ALAKIR-SINDIRGI (BALIKESIR) İlksel
2025.12.02,06:29:43,39.1622,28.2902,13.4,,1.2,,ISIKLAR-SINDIRGI (BALIKESIR) İlksel
2025.12.02,06:45:07,37.9083,36.4552,1.2,,1.6,,DEGIRMENDERE-GOKSUN (KAHRAMANMARAS) İlksel
2025.12.02,06:48:37,39.1637,28.2175,6.9,,1.2,,AKTAS-SINDIRGI (BALIKESIR) İlksel
2025.12.02,06:56:32,39.2235,29.0297,15.3,,1.5,,EGIRLER-SIMAV (KUTAHYA) İlksel
2025.12.02,07:07:00,39.2250,29.0452,6.3,,1.0,,KATRANDAGI-EMET (KUTAHYA) İlksel
2025.12.02,07:12:28,39.1788,28.2225,9.9,,1.6,,AKTAS-SINDIRGI (BALIKESIR) İlksel
2025.12.02,07:17:34,39.1677,28.1507,12.4,,3.0,,SINANDEDE-SINDIRGI (BALIKESIR) İlksel
2025.12.02,07:43:21,39.1712,28.1652,9.6,,1.7,,SINANDEDE-SINDIRGI (BALIKESIR) İlksel
2025.12.02,07:49:49,39.1745,28.1785,10.1,,2.2,,AKTAS-SINDIRGI (BALIKESIR) İlksel
2025.12.02,08:15:58,39.1897,28.2070,7.7,,1.8,,ILICA-SINDIRGI (BALIKESIR) İlksel
2025.12.02,08:20:46,39.2452,28.1252,8.5,,1.3,,BAYIRLI-SINDIRGI (BALIKESIR) İlksel
2025.12.02,08:24:47,39.2072,28.0957,7.7,,2.7,,KERTIL-SINDIRGI (BALIKESIR) İlksel
2025.12.02,08:45:30,39.1147,28.2783,5.0,,1.7,,YUREGIL-SINDIRGI (BALIKESIR) İlksel
2025.12.02,08:50:23,39.0035,29.7230,6.6,,2.9,,CUKUROREN-GEDIZ (KUTAHYA) İlksel
