Date,Time,Latitude,Longitude,Depth,MD,ML,Mw,Location
2025.12.01,00:01:02,39.2452,28.9877,3.1,,1.3,,YEMISLI-SIMAV (KUTAHYA) İlksel
2025.12.01,00:06:19,39.2207,28.9400,13.9,,1.3,,HAMZABEY-SIMAV (KUTAHYA) İlksel
2025.12.01,00:10:24,39.1997,28.9108,13.8,,1.4,,ORENLI-SIMAV (KUTAHYA) İlksel
2025.12.01,00:10:31,38.2760,37.5570,18.2,,1.3,,SEVDILI-ELBISTAN (KAHRAMANMARAS) İlksel
2025.12.01,00:19:33,39.2053,27.9697,8.6,,1.5,,AKKOCALI-AKHISAR (MANISA) İlksel
2025.12.01,00:21:23,38.5858,27.1037,2.1,,1.7,,YAHSELLI-MENEMEN (IZMIR) İlksel
2025.12.01,00:34:26,40.0272,38.6322,4.4,,2.4,,GUNALAN-GOLOVA (SIVAS) İlksel
2025.12.01,00:48:26,38.0908,36.6132,4.7,,1.1,,KANLIKAVAK-GOKSUN (KAHRAMANMARAS) İlksel
2025.12.01,00:53:46,38.2122,38.0800,19.4,,1.0,,ISIKLI-YESILYURT (MALATYA) İlksel
2025.12.01,00:58:07,39.5892,25.9865,13.5,,2.1,,GULPINAR ACIKLARI-CANAKKALE (EGE DENIZI) İlksel
2025.12.01,01:23:28,40.7368,32.8460,5.0,,1.7,,DAGCUKUROREN-CERKES (CANKIRI) İlksel
2025.12.01,01:24:52,39.0777,25.9785,7.1,,1.9,,MIDILLI ADASI GUNEYI (EGE DENIZI) İlksel
2025.12.01,01:33:15,39.1050,25.9675,6.9,,1.8,,MIDILLI ADASI GUNEYI (EGE DENIZI) İlksel
2025.12.01,01:43:31,36.1213,28.2962,27.3,,2.4,,AKDENIZ İlksel
2025.12.01,01:46:49,37.0723,28.3217,4.8,,2.5,,AKYAKA-ULA (MUGLA) İlksel
2025.12.01,01:49:23,39.2073,28.1798,11.4,,1.4,,YAYLACIK-SINDIRGI (BALIKESIR) İlksel
2025.12.01,02:07:25,37.1360,28.8368,2.8,,1.4,,KARACAOREN-(MUGLA) İlksel
2025.12.01,02:20:53,39.0355,40.4213,12.2,,1.4,,SUDUGUNU-(BINGOL) İlksel
2025.12.01,02:31:40,38.1340,38.3743,16.5,,1.0,,SALKONAK-YESILYURT (MALATYA) İlksel
2025.12.01,02:40:52,39.0702,28.0405,11.2,,1.7,,KOCAKAGAN-AKHISAR (MANISA) İlksel
2025.12.01,02:44:26,37.0203,28.0707,7.9,,1.6,,KULTAK-MILAS (MUGLA) İlksel
2025.12.01,03:11:29,37.1487,36.8692,5.0,,1.9,,TULLUCE-NURDAGI (GAZIANTEP) İlksel
2025.12.01,04:18:17,38.7135,26.4748,12.7,,2.4,,EGE DENIZI İlksel
2025.12.01,04:26:35,39.2548,28.0518,10.7,,1.2,,ALACAATLI-SINDIRGI (BALIKESIR) İlksel
2025.12.01,04:43:15,38.0175,36.4835,4.9,,1.2,,GOKSUN (KAHRAMANMARAS) İlksel
2025.12.01,05:03:13,39.2628,28.1215,7.5,,1.3,,IBILLER-SINDIRGI (BALIKESIR) İlksel
2025.12.01,05:06:46,39.1490,28.3335,11.2,,1.2,,KUCUKDAGDERE-SINDIRGI (BALIKESIR) İlksel
2025.12.01,05:15:32,39.2192,28.0868,7.9,,1.4,,KERTIL-SINDIRGI (BALIKESIR) İlksel
2025.12.01,05:16:14,38.2038,38.5162,12.5,,1.2,,GULUMUSAGI-(MALATYA) İlksel
2025.12.01,05:32:37,39.2530,29.0188,2.4,,1.3,,YESILDERE-SIMAV (KUTAHYA) İlksel
2025.12.01,05:35:08,39.1775,28.2425,9.2,,1.3,,BAYRAKLI-SINDIRGI (BALIKESIR) İlksel
2025.12.01,05:44:51,39.0130,29.7083,5.5,,1.9,,CUKUROREN-GEDIZ (KUTAHYA) İlksel
2025.12.01,06:00:20,37.1317,36.6248,2.9,,2.1,,KUSCUMUSTAFA-ISLAHIYE (GAZIANTEP) İlksel
2025.12.01,06:03:16,39.1560,28.3163,9.6,,1.3,,KUCUKDAGDERE-SINDIRGI (BALIKESIR) İlksel
2025.12.01,06:26:48,39.2618,28.1033,12.5,,2.7,,KARAGUR-SINDIRGI (BALIKESIR) İlksel
2025.12.01,06:36:50,39.2475,28.0868,8.9,,1.3,,KOZLU-SINDIRGI (BALIKESIR) İlksel
2025.12.01,07:31:29,39.1965,28.1342,12.7,,2.2,,ORMANICI-SINDIRGI (BALIKESIR) İlksel
2025.12.01,07:33:41,37.0590,28.2252,2.4,,1.5,,KIRAN-(MUGLA) İlksel
2025.12.01,07:46:25,39.2575,29.0202,10.5,,1.4,,YESILDERE-SIMAV (KUTAHYA) İlksel
2025.12.01,07:58:26,39.2882,28.1632,12.5,,1.6,,CELEBILER-SINDIRGI (BALIKESIR) İlksel
2025.12.01,08:22:55,39.1585,29.4420,1.7,,1.4,,PUSATLAR-CAVDARHISAR (KUTAHYA) İlksel
2025.12.01,08:23:49,39.2055,28.2967,9.4,,1.6,,ASLANDEDE-SINDIRGI (BALIKESIR) İlksel
2025.12.01,08:36:18,39.1330,28.3108,11.8,,1.3,,YUREGIL-SINDIRGI (BALIKESIR) İlksel
2025.12.01,08:37:31,39.1802,28.2387,7.9,,1.6,,BAYRAKLI-SINDIRGI (BALIKESIR) İlksel
2025.12.01,08:40:23,39.2145,28.1748,9.5,,0.9,,YAYLACIK-SINDIRGI (BALIKESIR) İlksel
2025.12.01,08:42:16,39.2047,28.1785,8.1,,1.8,,YAYLACIK-SINDIRGI (BALIKESIR) İlksel
2025.12.01,08:49:20,38.1410,38.4898,5.0,,1.2,,AKSU-SINCIK (ADIYAMAN) İlksel
2025.12.01,09:12:11,38.0602,36.4885,6.5,,1.6,,HACIMIRZA-GOKSUN (KAHRAMANMARAS) İlksel
2025.12.01,09:22:16,39.2300,28.1115,10.6,,1.8,,BAYIRLI-SINDIRGI (BALIKESIR) İlksel
2025.12.01,09:33:05,39.2587,29.0103,12.4,,1.5,,YESILDERE-SIMAV (KUTAHYA) İlksel
2025.12.01,09:48:49,39.1787,28.1540,8.3,,1.3,,SINANDEDE-SINDIRGI (BALIKESIR) İlksel
2025.12.01,09:52:06,35.7428,27.7333,5.3,,2.3,,AKDENIZ İlksel
2025.12.01,10:08:30,39.2630,28.3675,7.1,,1.8,,KIRANKOY-SINDIRGI (BALIKESIR) İlksel
2025.12.01,10:13:41,39.2345,28.3285,2.8,,1.1,,OSMANLAR-SINDIRGI (BALIKESIR) İlksel
2025.12.01,10:21:36,40.5020,30.1412,0.0,,1.1,,KARAPINAR-PAMUKOVA (SAKARYA) İlksel
2025.12.01,10:23:50,39.1842,28.2505,16.3,,1.0,,ISIKLAR-SINDIRGI (BALIKESIR) İlksel
2025.12.01,10:29:06,39.2073,28.1520,7.5,,1.2,,YAYLACIK-SINDIRGI (BALIKESIR) İlksel
2025.12.01,10:34:32,39.2282,28.1733,8.8,,1.3,,SINDIRGI (BALIKESIR) İlksel
2025.12.01,11:15:33,39.5537,32.8667,0.0,,1.4,,CIMSIT-GOLBASI (ANKARA) İlksel
2025.12.01,11:21:28,38.4903,39.1713,2.2,,1.7,,DEDEPINARI-(ELAZIG) İlksel
2025.12.01,11:23:51,41.2483,24.7068,4.4,,2.6,,YUNANISTAN İlksel
2025.12.01,11:33:54,39.4705,28.1157,4.9,,1.6,,DEGIRMENLI-BIGADIC (BALIKESIR) İlksel
2025.12.01,11:36:09,36.9820,29.7745,5.0,,2.9,,KUCUKLU-KORKUTELI (ANTALYA) İlksel
2025.12.01,11:45:40,39.1590,28.0552,9.9,,2.1,,ISACA-AKHISAR (MANISA) İlksel
2025.12.01,11:57:04,39.2858,27.5948,9.2,,1.5,,KUM-SOMA (MANISA) İlksel
2025.12.01,12:01:26,38.0055,36.3133,5.0,,1.9,,KAZANDERE-GOKSUN (KAHRAMANMARAS) İlksel
2025.12.01,12:15:49,39.2645,29.0570,18.0,,0.7,,KATRANDAGI-EMET (KUTAHYA) REVIZE01 (2025.12.01 12:15:49)
2025.12.01,12:40:10,39.9405,27.5293,4.8,,1.2,,YESILKOY-YENICE (CANAKKALE) İlksel
2025.12.01,12:43:19,39.2040,28.1572,13.3,,1.5,,YAYLACIK-SINDIRGI (BALIKESIR) İlksel
2025.12.01,12:48:50,36.3693,34.2185,5.0,,1.5,,KIZKALESI-ERDEMLI (MERSIN) İlksel
2025.12.01,12:52:57,39.2233,28.1855,9.6,,1.5,,PURSUNLER-SINDIRGI (BALIKESIR) İlksel
2025.12.01,12:56:29,38.3743,38.8243,5.2,,1.3,,KARAAGAC-KALE (MALATYA) İlksel
2025.12.01,12:58:51,36.8318,27.8247,12.7,,1.8,,GOKOVA KORFEZI (EGE DENIZI) İlksel
2025.12.01,13:02:40,35.2975,33.6528,4.0,,1.6,,KIBRIS-BESPARMAK İlksel
2025.12.01,13:02:44,39.2377,28.1345,17.2,,1.6,,MANDIRA-SINDIRGI (BALIKESIR) İlksel
2025.12.01,13:09:43,39.6847,27.6285,5.0,,1.5,,KOCAAVSAR-(BALIKESIR) İlksel
2025.12.01,13:21:57,39.2052,28.2573,5.2,,1.2,,ILICA-SINDIRGI (BALIKESIR) İlksel
2025.12.01,13:43:23,39.2692,27.7095,0.0,,1.4,,KOZLUOREN-SOMA (MANISA) İlksel
2025.12.01,13:46:12,39.1350,28.3120,15.7,,1.2,,YUREGIL-SINDIRGI (BALIKESIR) İlksel
2025.12.01,13:49:39,39.1695,28.2478,5.3,,1.2,,BAYRAKLI-SINDIRGI (BALIKESIR) İlksel
2025.12.01,13:59:38,36.1153,33.5625,0.0,,1.0,,BUYUKECELI-GULNAR (MERSIN) İlksel
2025.12.01,14:08:47,39.1693,28.2820,11.2,,1.5,,ISIKLAR-SINDIRGI (BALIKESIR) İlksel
2025.12.01,14:09:36,39.1372,28.3633,4.2,,1.3,,YAYLABAYIR-SINDIRGI (BALIKESIR) İlksel
2025.12.01,14:10:53,39.1363,28.1717,13.8,,1.0,,AKTAS-SINDIRGI (BALIKESIR) İlksel
2025.12.01,14:29:39,40.4063,24.0123,5.8,,1.9,,YUNANISTAN İlksel
2025.12.01,14:43:15,39.1000,28.3212,5.2,,1.0,,YUREGIL-SINDIRGI (BALIKESIR) İlksel
2025.12.01,14:56:59,39.1960,28.2187,9.9,,1.4,,ILICA-SINDIRGI (BALIKESIR) İlksel
2025.12.01,15:05:47,36.1630,33.3280,5.0,,0.6,,AYDINCIK (MERSIN) İlksel
2025.12.01,15:10:50,39.1782,28.2445,8.1,,1.4,,BAYRAKLI-SINDIRGI (BALIKESIR) İlksel
2025.12.01,15:11:00,38.5952,37.9668,8.8,,1.9,,CAVUS-YAZIHAN (MALATYA) İlksel
2025.12.01,15:39:48,39.1795,28.1825,15.0,,1.8,,AKTAS-SINDIRGI (BALIKESIR) İlksel
2025.12.01,15:48:24,39.2613,29.0097,27.6,,1.1,,YESILDERE-SIMAV (KUTAHYA) İlksel
2025.12.01,16:16:50,39.7367,26.0535,13.4,,1.9,,ODUN ISKELE ACIKLARI-CANAKKALE (EGE DENIZI) İlksel
2025.12.01,16:24:01,37.3210,27.9363,0.0,,1.3,,KOZAGAC-YATAGAN (MUGLA) İlksel
2025.12.01,16:37:40,37.9668,27.1153,5.0,,1.6,,KUSADASI KORFEZI (EGE DENIZI) İlksel
2025.12.01,16:40:41,38.3285,38.8323,5.3,,1.8,,UYANIK-KALE (MALATYA) İlksel
2025.12.01,16:42:10,39.1725,28.2262,11.1,,3.0,,BAYRAKLI-SINDIRGI (BALIKESIR) İlksel
2025.12.01,16:44:55,39.1488,28.2812,10.9,,1.3,,YUREGIL-SINDIRGI (BALIKESIR) İlksel
2025.12.01,16:51:50,39.1655,28.2315,8.1,,2.4,,BAYRAKLI-SINDIRGI (BALIKESIR) İlksel
2025.12.01,16:55:27,39.1183,28.3505,12.4,,1.2,,YAYLABAYIR-SINDIRGI (BALIKESIR) İlksel
2025.12.01,17:03:41,39.1743,28.3695,18.1,,1.2,,YAYLABAYIR-SINDIRGI (BALIKESIR) İlksel
2025.12.01,17:09:33,39.2463,29.0362,15.2,,1.4,,KATRANDAGI-EMET (KUTAHYA) İlksel
2025.12.01,17:19:08,39.2328,28.9275,16.9,,1.3,,YENILER-SIMAV (KUTAHYA) İlksel
2025.12.01,17:22:56,39.2502,29.0167,10.9,,1.7,,YESILDERE-SIMAV (KUTAHYA) İlksel
2025.12.01,17:31:35,38.5645,39.3632,20.0,,1.8,,CAGLAR-(ELAZIG) İlksel
2025.12.01,17:48:08,39.1728,28.2790,9.7,,1.6,,ISIKLAR-SINDIRGI (BALIKESIR) İlksel
2025.12.01,17:58:35,39.2033,28.1107,20.9,,1.4,,KERTIL-SINDIRGI (BALIKESIR) İlksel
2025.12.01,18:11:05,38.4403,40.4118,5.5,,3.3,3.2,KALABA-HANI (DIYARBAKIR) İlksel
2025.12.01,18:15:14,40.4130,26.3047,18.5,,1.4,,SAROS KORFEZI (EGE DENIZI) İlksel
2025.12.01,18:23:31,39.2170,28.0107,9.8,,1.9,,SAHINKAYA-SINDIRGI (BALIKESIR) İlksel
2025.12.01,18:32:05,38.9763,35.8685,7.7,,1.4,,SULTANHANI-BUNYAN (KAYSERI) İlksel
2025.12.01,18:35:30,38.9327,26.0572,7.6,,3.4,3.4,MIDILLI ADASI GUNEYI (EGE DENIZI) İlksel
2025.12.01,18:58:54,39.2145,28.1560,11.6,,2.7,,YAYLACIK-SINDIRGI (BALIKESIR) İlksel
2025.12.01,19:04:34,39.2267,29.0918,1.5,,1.3,,KARAAGIL-HISARCIK (KUTAHYA) İlksel
2025.12.01,19:07:57,39.2478,29.0415,5.0,,1.1,,KATRANDAGI-EMET (KUTAHYA) İlksel
2025.12.01,19:27:14,39.1900,28.0787,16.6,,1.1,,KERTIL-SINDIRGI (BALIKESIR) İlksel
2025.12.01,20:10:19,39.1668,28.2162,9.3,,2.3,,AKTAS-SINDIRGI (BALIKESIR) İlksel
2025.12.01,20:16:50,39.1492,28.2998,13.6,,2.9,,YUREGIL-SINDIRGI (BALIKESIR) İlksel
2025.12.01,20:27:28,38.9195,26.1008,14.4,,1.9,,MIDILLI ADASI GUNEYI (EGE DENIZI) İlksel
2025.12.01,20:36:28,39.1725,28.2355,13.4,,1.4,,BAYRAKLI-SINDIRGI (BALIKESIR) İlksel
2025.12.01,20:43:02,39.1517,28.2893,11.8,,2.8,,YUREGIL-SINDIRGI (BALIKESIR) İlksel
2025.12.01,20:46:02,38.0028,38.3358,5.4,,1.6,,AKSU-CELIKHAN (ADIYAMAN) İlksel
2025.12.01,20:53:13,36.9522,27.6700,5.3,,1.6,,GOKOVA KORFEZI (EGE DENIZI) İlksel
2025.12.01,20:53:23,39.1750,28.1583,14.2,,2.0,,SINANDEDE-SINDIRGI (BALIKESIR) İlksel
2025.12.01,21:10:12,39.3270,28.0660,9.0,,1.8,,CAKILLI-SINDIRGI (BALIKESIR) İlksel
2025.12.01,21:26:20,37.1042,28.6028,13.8,,1.2,,ARICILAR-ULA (MUGLA) İlksel
2025.12.01,21:33:12,39.1783,28.2753,11.8,,1.5,,ISIKLAR-SINDIRGI (BALIKESIR) İlksel
2025.12.01,21:51:42,39.1557,28.2102,15.8,,2.4,,AKTAS-SINDIRGI (BALIKESIR) İlksel
2025.12.01,21:59:10,36.5352,28.8668,19.1,,1.5,,FETHIYE KORFEZI (AKDENIZ) İlksel
2025.12.01,22:00:29,37.0348,28.2908,4.2,,1.1,,AKYAKA-ULA (MUGLA) İlksel
2025.12.01,22:04:00,38.9202,26.0590,8.2,,3.4,3.4,MIDILLI ADASI GUNEYI (EGE DENIZI) İlksel
2025.12.01,22:07:30,38.9273,26.0862,8.4,,2.0,,MIDILLI ADASI GUNEYI (EGE DENIZI) İlksel
2025.12.01,22:10:03,38.9243,26.0758,8.0,,1.8,,MIDILLI ADASI GUNEYI (EGE DENIZI) İlksel
2025.12.01,22:14:33,39.2410,28.1387,11.4,,1.4,,MANDIRA-SINDIRGI (BALIKESIR) İlksel
2025.12.01,22:23:27,35.4708,29.4550,14.0,,1.9,,AKDENIZ İlksel
2025.12.01,22:50:52,39.2143,28.1572,9.2,,1.7,,YAYLACIK-SINDIRGI (BALIKESIR) İlksel
2025.12.01,22:51:18,38.4782,38.0395,4.4,,3.2,3.1,ILICAK-AKCADAG (MALATYA) İlksel
2025.12.01,23:05:33,39.2352,28.0697,10.5,,1.8,,ALAKIR-SINDIRGI (BALIKESIR) İlksel
2025.12.01,23:08:52,39.1573,28.2013,12.0,,1.4,,AKTAS-SINDIRGI (BALIKESIR) İlksel
2025.12.01,23:20:31,38.1425,38.5642,4.2,,1.9,,ARIKONAK-SINCIK (ADIYAMAN) İlksel
2025.12.01,23:31:49,38.1533,37.7740,14.0,,1.3,,CAVUSLU-DOGANSEHIR (MALATYA) İlksel
2025.12.01,23:46:10,38.4837,38.0228,14.8,,1.1,,KEKLIKPINARI-AKCADAG (MALATYA) İlksel
2025.12.01,23:49:57,38.4877,37.9955,20.2,,1.3,,KEKLIKPINARI-AKCADAG (MALATYA) İlksel
2025.12.01,23:50:22,40.7963,27.9535,6.3,,1.5,,MARMARA DENIZI İlksel
2025.12.01,23:54:38,38.4512,38.0255,21.7,,1.0,,YUKARIORUKCU-AKCADAG (MALATYA) İlksel
2025.12.01,23:57:04,39.1547,28.1908,11.8,,1.2,,AKTAS-SINDIRGI (BALIKESIR) İlksel
2025.12.01,23:59:00,37.0943,28.6112,10.9,,1.4,,ARICILAR-ULA (MUGLA) İlksel
2025.12.02,00:18:08,38.9390,26.0952,3.7,,2.9,,MIDILLI ADASI GUNEYI (EGE DENIZI) İlksel
2025.12.02,00:45:23,39.2197,28.2148,19.5,,1.1,,PURSUNLER-SINDIRGI (BALIKESIR) İlksel
2025.12.02,00:59:56,39.2307,28.1013,7.8,,1.3,,KOZLU-SINDIRGI (BALIKESIR) İlksel
2025.12.02,01:06:34,38.2117,38.5150,6.9,,1.5,,GULUMUSAGI-(MALATYA) İlksel
2025.12.02,01:22:08,39.1880,28.2197,8.6,,1.1,,ILICA-SINDIRGI (BALIKESIR) İlksel
2025.12.02,01:25:10,40.3755,27.2460,5.2,,0.9,,ORTULUCE-BIGA (CANAKKALE) İlksel
2025.12.02,01:36:24,37.9132,36.6472,5.0,,2.2,,TEKIR-(KAHRAMANMARAS) İlksel
2025.12.02,01:59:09,38.1247,37.4548,5.0,,1.5,,SUNNETKOY-ELBISTAN (KAHRAMANMARAS) İlksel
2025.12.02,02:01:36,39.1535,28.2843,9.4,,2.1,,ISIKLAR-SINDIRGI (BALIKESIR) İlksel
2025.12.02,02:14:19,39.2978,27.8952,2.6,,1.7,,FIRDANLAR-KIRKAGAC (MANISA) İlksel
2025.12.02,02:16:58,38.9513,26.0943,7.7,,2.2,,MIDILLI ADASI GUNEYI (EGE DENIZI) İlksel
2025.12.02,02:44:17,39.2160,28.1532,13.0,,3.1,3.0,MANDIRA-SINDIRGI (BALIKESIR) İlksel
2025.12.02,02:56:35,39.1942,28.1475,8.5,,1.4,,ORMANICI-SINDIRGI (BALIKESIR) İlksel
2025.12.02,02:59:15,39.1320,28.1165,12.9,,1.4,,SINANDEDE-SINDIRGI (BALIKESIR) İlksel
2025.12.02,03:18:44,39.3902,26.0775,5.5,,2.2,,BADEMLI ACIKLARI-CANAKKALE (EGE DENIZI) İlksel
2025.12.02,03:28:30,39.1425,28.2540,10.9,,1.5,,BAYRAKLI-SINDIRGI (BALIKESIR) İlksel
2025.12.02,03:41:56,38.5025,38.0342,3.1,,1.3,,ILICAK-AKCADAG (MALATYA) İlksel
2025.12.02,03:43:37,39.1828,28.1370,10.0,,2.1,,ORMANICI-SINDIRGI (BALIKESIR) İlksel
2025.12.02,03:56:04,40.3427,27.7788,12.0,,1.7,,ERDEK KORFEZI (MARMARA DENIZI) İlksel
2025.12.02,03:57:59,40.3297,27.7808,14.8,,2.3,,HIDIRKOY-BANDIRMA (BALIKESIR) İlksel
2025.12.02,04:17:49,38.7145,40.3263,13.0,,1.5,,DEDEBAGI-GENC (BINGOL) İlksel
2025.12.02,04:32:35,39.6840,26.4672,19.9,,1.5,,MISVAK-AYVACIK (CANAKKALE) İlksel
2025.12.02,04:38:22,39.1753,28.2277,8.0,,1.6,,BAYRAKLI-SINDIRGI (BALIKESIR) İlksel
2025.12.02,04:40:33,39.2148,28.1215,10.4,,1.2,,BAYIRLI-SINDIRGI (BALIKESIR) İlksel
2025.12.02,04:53:37,35.0118,33.4558,17.1,,0.8,,KIBRIS-LEFKOSA İlksel
2025.12.02,05:01:04,39.1922,28.1358,9.7,,1.8,,ORMANICI-SINDIRGI (BALIKESIR) İlksel
2025.12.02,05:22:00,39.2387,28.0977,8.2,,1.6,,KOZLU-SINDIRGI (BALIKESIR) İlksel
2025.12.02,05:37:49,40.5918,27.9165,7.7,,1.8,,ERDEK ACIKLARI-BALIKESIR (MARMARA DENIZI) İlksel
2025.12.02,05:45:13,39.1923,27.7318,7.4,,1.3,,BAYAT-SOMA (MANISA) İlksel
2025.12.02,05:53:01,37.9430,38.0158,5.0,,1.5,,RESADIYE-DOGANSEHIR (MALATYA) İlksel
2025.12.02,05:55:39,39.0930,28.1352,4.9,,1.4,,HANPASA-AKHISAR (MANISA) İlksel
2025.12.02,06:03:48,37.9758,36.3842,7.5,,2.0,,HUGTAS-GOKSUN (KAHRAMANMARAS) İlksel
2025.12.02,06:07:16,40.6085,27.8672,11.7,,3.2,,ERDEK ACIKLARI-BALIKESIR (MARMARA DENIZI) İlksel
2025.12.02,06:10:22,37.9423,36.3423,5.0,,1.4,,YOGUNOLUK-GOKSUN (KAHRAMANMARAS) İlksel
2025.12.02,06:18:10,39.2188,28.0560,11.2,,2.9,,ALAKIR-SINDIRGI (BALIKESIR) İlksel
2025.12.02,06:29:43,39.1622,28.2902,13.4,,1.2,,ISIKLAR-SINDIRGI (BALIKESIR) İlksel
2025.12.02,06:45:07,37.9083,36.4552,1.2,,1.6,,DEGIRMENDERE-GOKSUN (KAHRAMANMARAS) İlksel
2025.12.02,06:48:37,39.1637,28.2175,6.9,,1.2,,AKTAS-SINDIRGI (BALIKESIR) İlksel
2025.12.02,06:56:32,39.2235,29.0297,15.3,,1.5,,EGIRLER-SIMAV (KUTAHYA) İlksel
2025.12.02,07:07:00,39.2250,29.0452,6.3,,1.0,,KATRANDAGI-EMET (KUTAHYA) İlksel
2025.12.02,07:12:28,39.1788,28.2225,9.9,,1.6,,AKTAS-SINDIRGI (BALIKESIR) İlksel
2025.12.02,07:17:34,39.1677,28.1507,12.4,,3.0,,SINANDEDE-SINDIRGI (BALIKESIR) İlksel
2025.12.02,07:43:21,39.1712,28.1652,9.6,,1.7,,SINANDEDE-SINDIRGI (BALIKESIR) İlksel
2025.12.02,07:49:49,39.1745,28.1785,10.1,,2.2,,AKTAS-SINDIRGI (BALIKESIR) İlksel
2025.12.02,08:15:58,39.1897,28.2070,7.7,,1.8,,ILICA-SINDIRGI (BALIKESIR) İlksel
2025.12.02,08:20:46,39.2452,28.1252,8.5,,1.3,,BAYIRLI-SINDIRGI (BALIKESIR) İlksel
2025.12.02,08:24:47,39.2072,28.0957,7.7,,2.7,,KERTIL-SINDIRGI (BALIKESIR) İlksel
2025.12.02,08:45:30,39.1147,28.2783,5.0,,1.7,,YUREGIL-SINDIRGI (BALIKESIR) İlksel
2025.12.02,08:50:23,39.0035,29.7230,6.6,,2.9,,CUKUROREN-GEDIZ (KUTAHYA) İlksel
2025.12.02,09:38:09,39.2135,28.0488,9.1,,2.4,,SAHINKAYA-SINDIRGI (BALIKESIR) İlksel
2025.12.02,09:43:44,39.1407,28.2468,16.0,,1.0,,BAYRAKLI-SINDIRGI (BALIKESIR) İlksel
2025.12.02,10:06:20,39.0838,28.3162,8.8,,1.4,,KOBAKLAR-GORDES (MANISA) İlksel
2025.12.02,10:11:36,39.1617,28.2840,19.3,,1.4,,ISIKLAR-SINDIRGI (BALIKESIR) İlksel
2025.12.02,10:16:57,39.1293,28.1732,22.2,,1.0,,KINIK-SINDIRGI (BALIKESIR) İlksel
2025.12.02,10:18:57,39.2412,28.0915,10.4,,1.8,,KOZLU-SINDIRGI (BALIKESIR) İlksel
2025.12.02,10:21:42,39.2248,28.0893,8.3,,1.6,,KOZLU-SINDIRGI (BALIKESIR) İlksel
2025.12.02,10:52:45,39.2337,28.1438,7.8,,1.5,,MANDIRA-SINDIRGI (BALIKESIR) İlksel
2025.12.02,11:05:21,39.1912,28.0417,20.2,,1.2,,SAHINKAYA-SINDIRGI (BALIKESIR) İlksel
2025.12.02,11:17:03,38.1145,38.4332,9.0,,1.6,,KARAGOL-CELIKHAN (ADIYAMAN) İlksel
2025.12.02,11:17:52,39.2028,28.1932,17.2,,1.5,,YAYLACIK-SINDIRGI (BALIKESIR) İlksel
2025.12.02,11:30:59,39.1595,28.2700,9.9,,2.6,,ISIKLAR-SINDIRGI (BALIKESIR) İlksel
2025.12.02,12:17:20,39.8347,26.2502,0.0,,1.3,,MECIDIYE-EZINE (CANAKKALE) İlksel
2025.12.02,12:21:52,36.2822,33.6978,0.0,,1.1,,KIRTIL-SILIFKE (MERSIN) İlksel
2025.12.02,12:24:47,36.2745,33.7555,0.0,,0.9,,IMAMUSAGI-SILIFKE (MERSIN) İlksel
2025.12.02,12:26:29,39.1932,28.2963,12.3,,1.2,,BUYUKDAGDERE-SINDIRGI (BALIKESIR) İlksel
2025.12.02,12:29:41,39.0802,28.0392,23.8,,1.2,,KOCAKAGAN-AKHISAR (MANISA) İlksel
2025.12.02,12:40:51,36.2927,27.1183,7.6,,1.9,,EGE DENIZI İlksel
2025.12.02,12:56:31,39.4907,28.1888,7.6,,1.5,,BEGENDIKLER-BIGADIC (BALIKESIR) İlksel
2025.12.02,12:58:19,39.2287,28.1095,8.5,,1.2,,BAYIRLI-SINDIRGI (BALIKESIR) İlksel
2025.12.02,13:08:02,39.2515,28.9888,17.7,,1.5,,YEMISLI-SIMAV (KUTAHYA) İlksel
2025.12.02,13:12:07,39.2542,28.9730,13.0,,1.2,,YEMISLI-SIMAV (KUTAHYA) İlksel
2025.12.02,13:44:13,39.1860,28.2307,6.5,,2.9,,ILICA-SINDIRGI (BALIKESIR) İlksel
2025.12.02,13:56:35,39.1233,28.2458,10.0,,1.6,,BAYRAKLI-SINDIRGI (BALIKESIR) İlksel
2025.12.02,14:07:54,39.2002,28.2533,8.7,,1.6,,ILICA-SINDIRGI (BALIKESIR) İlksel
2025.12.02,14:08:46,39.0945,28.2638,13.0,,1.5,,YUREGIL-SINDIRGI (BALIKESIR) İlksel
2025.12.02,14:12:06,39.1560,28.1995,9.0,,2.7,,AKTAS-SINDIRGI (BALIKESIR) İlksel
2025.12.02,15:02:35,39.1637,28.2158,13.1,,1.4,,AKTAS-SINDIRGI (BALIKESIR) İlksel
2025.12.02,15:04:29,38.5925,39.8347,5.3,,2.0,,KARASALKIM-PALU (ELAZIG) İlksel
2025.12.02,15:07:00,39.1988,28.0005,14.2,,1.3,,SAHINKAYA-SINDIRGI (BALIKESIR) İlksel
2025.12.02,15:39:58,39.1688,28.2613,8.3,,1.4,,ISIKLAR-SINDIRGI (BALIKESIR) İlksel
2025.12.02,15:58:49,39.2227,28.1930,9.0,,1.9,,PURSUNLER-SINDIRGI (BALIKESIR) İlksel
2025.12.02,16:04:20,38.3135,27.8223,5.6,,1.7,,KERPICLIK-ODEMIS (IZMIR) İlksel
2025.12.02,16:13:29,39.2250,28.1005,15.8,,2.3,,BAYIRLI-SINDIRGI (BALIKESIR) İlksel
2025.12.02,16:36:36,39.1988,28.1833,19.3,,1.7,,YAYLACIK-SINDIRGI (BALIKESIR) İlksel
2025.12.02,17:06:13,40.5805,35.2168,9.5,,2.1,,ALOREN-MECITOZU (CORUM) İlksel
2025.12.02,17:08:39,39.1920,28.1388,8.5,,1.5,,ORMANICI-SINDIRGI (BALIKESIR) İlksel
2025.12.02,17:09:29,39.1067,28.1913,18.4,,1.4,,KINIK-SINDIRGI (BALIKESIR) İlksel
2025.12.02,17:12:22,39.5673,25.9707,12.7,,1.6,,GULPINAR ACIKLARI-CANAKKALE (EGE DENIZI) İlksel
2025.12.02,17:27:23,39.1643,28.2590,10.2,,2.0,,BAYRAKLI-SINDIRGI (BALIKESIR) İlksel
2025.12.02,17:39:05,38.2130,38.5667,4.0,,2.3,,GULUMUSAGI-(MALATYA) İlksel
2025.12.02,17:52:50,36.7345,28.1368,15.5,,1.9,,TURGUTKOY-MARMARIS (MUGLA) İlksel
2025.12.02,18:19:38,39.2090,40.1005,5.0,,1.9,,BATIAYAZ-YAYLADERE (BINGOL) İlksel
2025.12.02,18:23:17,40.8203,28.0873,11.5,,1.8,,MARMARA DENIZI İlksel
2025.12.02,18:28:50,38.9082,26.0798,15.3,,2.0,,MIDILLI ADASI GUNEYI (EGE DENIZI) İlksel
2025.12.02,18:45:57,38.4610,38.1017,5.0,,1.7,,SEHLER-AKCADAG (MALATYA) İlksel
2025.12.02,18:56:12,39.1708,28.1383,8.7,,1.3,,SINANDEDE-SINDIRGI (BALIKESIR) İlksel
2025.12.02,18:58:42,39.0925,28.2440,12.8,,1.4,,CICEKLI-GORDES (MANISA) İlksel
2025.12.02,19:02:11,38.1177,37.1322,12.1,,1.5,,ORTAOREN-EKINOZU (KAHRAMANMARAS) İlksel
2025.12.02,19:03:18,38.1288,37.1402,6.3,,1.5,,GUPLUCE-ELBISTAN (KAHRAMANMARAS) İlksel
2025.12.02,19:29:56,39.2013,28.1818,18.6,,1.3,,YAYLACIK-SINDIRGI (BALIKESIR) İlksel
2025.12.02,19:44:50,39.1598,28.3007,16.7,,1.3,,KUCUKDAGDERE-SINDIRGI (BALIKESIR) İlksel
2025.12.02,19:46:51,37.8408,29.3652,15.8,,1.4,,DERECIFTLIK-HONAZ (DENIZLI) İlksel
2025.12.02,19:52:47,38.4720,38.0640,3.6,,1.8,,ILICAK-AKCADAG (MALATYA) İlksel
2025.12.02,20:31:38,39.1428,28.2825,8.7,,1.6,,YUREGIL-SINDIRGI (BALIKESIR) İlksel
2025.12.02,20:32:04,41.0260,33.0333,5.0,,3.8,3.8,BELEN-OVACIK (KARABUK) İlksel
2025.12.02,20:32:44,39.0547,26.6818,6.3,,1.9,,DIKILI ACIKLARI-IZMIR (EGE DENIZI) İlksel
2025.12.02,20:42:51,39.1868,28.1050,9.4,,1.8,,KERTIL-SINDIRGI (BALIKESIR) İlksel
2025.12.02,20:44:41,39.2153,28.2030,7.1,,1.3,,PURSUNLER-SINDIRGI (BALIKESIR) İlksel
2025.12.02,21:02:06,39.2085,28.1375,7.9,,1.7,,MANDIRA-SINDIRGI (BALIKESIR) İlksel
2025.12.02,21:09:01,39.2257,28.1187,6.9,,1.2,,BAYIRLI-SINDIRGI (BALIKESIR) İlksel
2025.12.02,21:17:24,39.1840,29.0585,15.2,,1.4,,KARACAOREN-SIMAV (KUTAHYA) İlksel
2025.12.02,21:22:55,39.3228,28.0957,9.8,,2.9,,ARMUTLU-SINDIRGI (BALIKESIR) İlksel
2025.12.02,21:56:05,39.1793,28.3647,7.7,,1.2,,CIKRIKCI-SINDIRGI (BALIKESIR) İlksel
2025.12.02,22:11:58,39.1260,28.3047,12.0,,1.3,,YUREGIL-SINDIRGI (BALIKESIR) İlksel
2025.12.02,22:15:16,39.1285,28.2558,13.9,,1.5,,YUREGIL-SINDIRGI (BALIKESIR) İlksel
2025.12.02,22:18:37,36.0600,28.3878,22.1,,2.5,,AKDENIZ İlksel
2025.12.02,22:24:41,41.0883,33.9067,5.3,,2.4,,YUKARIBERCIN-TOSYA (KASTAMONU) İlksel
2025.12.02,22:30:52,36.3980,31.4368,25.5,,1.7,,ANTALYA KORFEZI (AKDENIZ) İlksel
2025.12.02,22:40:49,39.1835,28.9977,16.2,,1.4,,EGIRLER-SIMAV (KUTAHYA) İlksel
2025.12.02,22:46:35,39.2382,28.1208,8.7,,2.1,,BAYIRLI-SINDIRGI (BALIKESIR) İlksel
2025.12.02,22:50:46,39.1967,28.1293,8.6,,1.9,,ORMANICI-SINDIRGI (BALIKESIR) İlksel
2025.12.02,22:56:38,39.2195,28.3772,9.2,,2.0,,ALAYAKA-SINDIRGI (BALIKESIR) İlksel
2025.12.02,23:06:17,39.1642,28.2415,10.1,,1.5,,BAYRAKLI-SINDIRGI (BALIKESIR) İlksel
2025.12.02,23:24:43,39.1723,28.1758,5.8,,2.9,,AKTAS-SINDIRGI (BALIKESIR) İlksel
2025.12.02,23:26:06,39.1783,28.1757,5.6,,3.3,3.2,SINANDEDE-SINDIRGI (BALIKESIR) İlksel
2025.12.02,23:34:31,39.1770,28.3510,18.2,,1.3,,KUCUKDAGDERE-SINDIRGI (BALIKESIR) İlksel
2025.12.02,23:35:37,37.3078,32.2698,8.4,,1.6,,AVDAN-AKOREN (KONYA) İlksel
2025.12.02,23:40:23,39.1990,28.1783,9.6,,1.4,,YAYLACIK-SINDIRGI (BALIKESIR) İlksel
2025.12.02,23:43:13,39.1913,28.0332,12.3,,1.4,,SAHINKAYA-SINDIRGI (BALIKESIR) İlksel
2025.12.03,00:10:27,39.1683,28.2305,9.0,,1.4,,BAYRAKLI-SINDIRGI (BALIKESIR) İlksel
2025.12.03,00:12:37,39.1942,28.1705,7.9,,1.3,,YAYLACIK-SINDIRGI (BALIKESIR) İlksel
2025.12.03,00:14:33,39.1258,28.2183,12.6,,1.6,,KINIK-SINDIRGI (BALIKESIR) İlksel
2025.12.03,00:35:06,36.0920,28.4182,29.0,,2.4,,AKDENIZ İlksel
2025.12.03,00:45:53,40.2888,24.0948,6.6,,2.2,,YUNANISTAN İlksel
2025.12.03,01:05:09,36.6173,24.5708,43.1,,3.7,3.6,EGE DENIZI İlksel
2025.12.03,01:48:57,39.2370,28.1017,9.6,,1.3,,KOZLU-SINDIRGI (BALIKESIR) İlksel
2025.12.03,01:51:36,39.1612,28.2257,13.1,,1.4,,BAYRAKLI-SINDIRGI (BALIKESIR) İlksel
2025.12.03,02:02:43,36.9757,28.3002,11.6,,1.7,,CETIBELI-MARMARIS (MUGLA) İlksel
2025.12.03,02:32:32,39.2405,28.0677,5.2,,0.8,,ALAKIR-SINDIRGI (BALIKESIR) İlksel
2025.12.03,02:34:28,40.8083,27.9340,7.6,,1.8,,MARMARA DENIZI İlksel
2025.12.03,02:47:11,39.1147,28.2985,14.1,,1.4,,YUREGIL-SINDIRGI (BALIKESIR) İlksel
2025.12.03,02:58:07,39.0073,25.9355,2.8,,2.0,,MIDILLI ADASI GUNEYI (EGE DENIZI) İlksel
2025.12.03,03:05:23,39.2145,28.0312,12.6,,1.2,,SAHINKAYA-SINDIRGI (BALIKESIR) İlksel
2025.12.03,03:15:39,38.2878,38.2020,17.3,,1.2,,IKIZCE-YESILYURT (MALATYA) İlksel
2025.12.03,03:26:06,39.2085,27.9168,9.1,,1.5,,DUALAR-KIRKAGAC (MANISA) İlksel
2025.12.03,04:14:58,38.4000,28.4342,6.8,,1.2,,CAGLAYAN-ALASEHIR (MANISA) İlksel
2025.12.03,04:17:35,34.7063,32.4918,8.4,,2.0,,AKDENIZ İlksel
2025.12.03,04:36:10,39.1812,28.1107,3.1,,1.2,,ORMANICI-SINDIRGI (BALIKESIR) İlksel
2025.12.03,04:47:07,39.1130,28.3412,11.3,,1.3,,YUREGIL-SINDIRGI (BALIKESIR) İlksel
2025.12.03,04:54:19,38.3825,28.4082,5.4,,1.5,,ALHAN-ALASEHIR (MANISA) İlksel
2025.12.03,04:55:19,39.1550,28.1778,8.2,,1.4,,AKTAS-SINDIRGI (BALIKESIR) İlksel
2025.12.03,05:12:20,39.1737,28.2307,14.0,,1.9,,BAYRAKLI-SINDIRGI (BALIKESIR) İlksel
2025.12.03,05:27:13,39.1833,28.2072,12.4,,1.4,,AKTAS-SINDIRGI (BALIKESIR) İlksel
2025.12.03,05:36:12,38.3842,38.7817,7.7,,1.9,,KOZLUK-KALE (MALATYA) İlksel
2025.12.03,05:37:42,39.1690,28.2505,11.2,,2.1,,BAYRAKLI-SINDIRGI (BALIKESIR) İlksel
2025.12.03,05:47:51,39.1895,28.1485,8.8,,1.6,,ORMANICI-SINDIRGI (BALIKESIR) İlksel
2025.12.03,06:49:25,38.1118,36.6368,10.3,,1.6,,KANLIKAVAK-GOKSUN (KAHRAMANMARAS) İlksel
2025.12.03,06:57:09,39.1437,28.3157,15.0,,2.1,,YUREGIL-SINDIRGI (BALIKESIR) İlksel
2025.12.03,07:20:14,38.1687,38.5722,3.1,,2.0,,ULUKOY-(MALATYA) İlksel
2025.12.03,07:44:21,37.9693,36.3578,13.2,,1.1,,SIRMALI-GOKSUN (KAHRAMANMARAS) İlksel
2025.12.03,07:56:19,36.5478,36.4960,1.4,,2.3,,GULTEPE-KIRIKHAN (HATAY) İlksel
2025.12.03,08:05:46,39.1760,28.1500,11.8,,2.1,,SINANDEDE-SINDIRGI (BALIKESIR) İlksel
2025.12.03,08:34:52,39.2438,28.1520,12.2,,1.4,,MANDIRA-SINDIRGI (BALIKESIR) İlksel
2025.12.03,08:46:29,39.1988,28.2973,13.1,,1.7,,ASLANDEDE-SINDIRGI (BALIKESIR) İlksel
2025.12.03,09:04:20,39.0658,28.2467,12.3,,1.2,,DUTLUCA-GORDES (MANISA) İlksel
2025.12.03,09:09:21,34.5400,32.6363,8.1,,1.8,,AKDENIZ İlksel
2025.12.03,09:12:03,39.2098,27.9977,11.8,,1.7,,SAHINKAYA-SINDIRGI (BALIKESIR) İlksel
2025.12.03,09:14:44,39.1880,28.1573,10.1,,2.0,,SINANDEDE-SINDIRGI (BALIKESIR) İlksel
2025.12.03,09:18:54,39.6663,26.1320,16.3,,1.4,,TAVAKLI-EZINE (CANAKKALE) REVIZE01 (2025.12.03 09:19:01)
2025.12.03,09:19:01,39.2517,28.9490,11.3,,1.8,,YENILER-SIMAV (KUTAHYA) İlksel
2025.12.03,09:27:21,39.2220,28.1740,14.0,,2.0,,YAYLACIK-SINDIRGI (BALIKESIR) İlksel
2025.12.03,09:31:16,39.1858,28.3198,8.6,,1.7,,BUYUKDAGDERE-SINDIRGI (BALIKESIR) İlksel
2025.12.03,09:42:07,34.6538,32.4470,13.6,,2.6,,AKDENIZ İlksel
2025.12.03,09:42:35,39.1893,28.1617,7.7,,1.3,,SINANDEDE-SINDIRGI (BALIKESIR) İlksel
2025.12.03,10:37:07,39.7277,25.5482,5.5,,1.8,,EGE DENIZI İlksel
2025.12.03,10:45:44,39.2452,28.9662,14.7,,1.6,,YEMISLI-SIMAV (KUTAHYA) İlksel
2025.12.03,10:48:05,37.8937,27.6808,16.8,,1.3,,HAMITLER-INCIRLIOVA (AYDIN) İlksel
2025.12.03,10:51:09,39.1957,28.2355,11.2,,1.4,,ILICA-SINDIRGI (BALIKESIR) İlksel
2025.12.03,11:14:18,39.2483,28.9567,13.6,,1.6,,YENILER-SIMAV (KUTAHYA) İlksel
2025.12.03,11:31:21,39.4420,26.1382,15.4,,1.4,,BADEMLI-AYVACIK (CANAKKALE) İlksel
2025.12.03,11:49:37,37.0085,28.8942,4.9,,1.5,,SAZAK-KOYCEGIZ (MUGLA) İlksel
2025.12.03,12:07:57,39.3225,33.4273,0.0,,1.6,,BUYUKCAMILI-BALA (ANKARA) İlksel
2025.12.03,12:19:18,39.4703,26.2830,5.9,,2.1,,EDREMIT KORFEZI (EGE DENIZI) İlksel
2025.12.03,12:31:02,39.7423,30.1332,0.0,,1.5,,KUMBETAKPINAR-INONU (ESKISEHIR) İlksel
2025.12.03,12:34:38,39.2253,27.9992,8.6,,1.5,,SAHINKAYA-SINDIRGI (BALIKESIR) İlksel
2025.12.03,12:37:06,36.0643,31.4072,20.0,,1.9,,AKDENIZ İlksel
2025.12.03,12:50:02,37.9288,28.9733,24.6,,1.6,,SIGMA-SARAYKOY (DENIZLI) İlksel
2025.12.03,13:12:27,38.6583,36.8580,27.3,,1.5,,CAMILIYURT-GURUN (SIVAS) İlksel
2025.12.03,13:27:26,39.2705,28.1255,9.5,,1.4,,IBILLER-SINDIRGI (BALIKESIR) İlksel
2025.12.03,14:27:46,39.1255,25.9103,10.6,,1.9,,MIDILLI ADASI (EGE DENIZI) İlksel
2025.12.03,14:29:02,39.2332,28.1213,2.1,,1.8,,BAYIRLI-SINDIRGI (BALIKESIR) İlksel
2025.12.03,15:05:55,38.7730,44.8087,5.0,,3.9,,TURKIYE-IRAN SINIR BOLGESI İlksel
2025.12.03,15:44:25,39.7277,25.5422,9.9,,2.8,,EGE DENIZI İlksel
2025.12.03,16:10:19,39.2132,28.1808,11.9,,2.1,,YAYLACIK-SINDIRGI (BALIKESIR) İlksel
2025.12.03,16:21:52,39.2550,28.1170,14.9,,1.2,,KARAGUR-SINDIRGI (BALIKESIR) İlksel
2025.12.03,17:14:21,39.1878,28.1468,10.1,,2.3,,ORMANICI-SINDIRGI (BALIKESIR) İlksel
2025.12.03,17:18:16,39.2112,28.1103,7.3,,2.2,,KERTIL-SINDIRGI (BALIKESIR) İlksel
2025.12.03,17:46:53,39.3213,28.1050,5.3,,2.1,,ARMUTLU-SINDIRGI (BALIKESIR) İlksel
2025.12.03,17:47:58,39.1847,28.0798,9.8,,2.6,,KERTIL-SINDIRGI (BALIKESIR) İlksel
2025.12.03,17:48:38,39.1633,28.2082,14.2,,2.5,,AKTAS-SINDIRGI (BALIKESIR) İlksel
2025.12.03,17:51:03,39.3222,28.0770,4.3,,2.0,,CAKILLI-SINDIRGI (BALIKESIR) İlksel
2025.12.03,18:01:01,39.1550,27.9892,14.6,,1.4,,KOBASDERE-AKHISAR (MANISA) İlksel
2025.12.03,18:02:57,39.2655,28.0293,6.2,,1.6,,KIZILGUR-SINDIRGI (BALIKESIR) İlksel
2025.12.03,18:09:55,39.1965,28.1677,7.9,,1.2,,YAYLACIK-SINDIRGI (BALIKESIR) İlksel
2025.12.03,18:33:15,39.2642,27.9718,5.0,,1.5,,EGRIDERE-SINDIRGI (BALIKESIR) İlksel
2025.12.03,18:57:14,39.1963,28.0475,5.1,,1.4,,SAHINKAYA-SINDIRGI (BALIKESIR) İlksel
2025.12.03,19:19:40,39.1533,28.0142,12.8,,1.5,,SOGUTLU-AKHISAR (MANISA) İlksel
2025.12.03,19:38:12,39.2177,28.0938,9.1,,1.4,,KERTIL-SINDIRGI (BALIKESIR) İlksel
2025.12.03,19:45:07,39.1243,25.9010,7.3,,2.4,,MIDILLI ADASI (EGE DENIZI) İlksel
2025.12.03,19:56:01,39.2035,28.1483,10.7,,1.5,,YAYLACIK-SINDIRGI (BALIKESIR) İlksel
2025.12.03,20:20:45,40.6420,36.7465,13.1,,1.7,,KUMBETLI-NIKSAR (TOKAT) İlksel
2025.12.03,20:35:44,34.7070,32.6425,9.4,,3.7,3.7,KIBRIS RUM KESIMI İlksel
2025.12.03,20:37:05,39.1643,28.3138,9.6,,2.8,,KUCUKDAGDERE-SINDIRGI (BALIKESIR) İlksel
2025.12.03,20:54:16,39.1557,28.2570,13.7,,1.2,,BAYRAKLI-SINDIRGI (BALIKESIR) İlksel
2025.12.03,21:07:57,39.2277,28.3488,4.2,,1.3,,OSMANLAR-SINDIRGI (BALIKESIR) İlksel
2025.12.03,21:18:24,39.2275,29.0063,12.8,,1.3,,YEMISLI-SIMAV (KUTAHYA) İlksel
2025.12.03,21:21:23,39.1238,28.0342,9.3,,1.7,,ISACA-AKHISAR (MANISA) İlksel
2025.12.03,21:24:00,39.1413,28.3482,15.2,,1.2,,YAYLABAYIR-SINDIRGI (BALIKESIR) İlksel
2025.12.03,21:39:57,40.7545,30.9553,10.1,,1.5,,AKSU-GOLYAKA (DUZCE) İlksel
2025.12.03,21:42:18,36.7842,28.9238,3.5,,1.6,,GOCEK-FETHIYE (MUGLA) İlksel
2025.12.03,21:44:09,36.8223,36.1403,8.2,,1.9,,YESILKOY-DORTYOL (HATAY) İlksel
2025.12.03,21:52:16,37.8448,27.1457,5.0,,1.5,,KUSADASI KORFEZI (EGE DENIZI) İlksel
2025.12.03,22:11:00,38.2237,40.4505,10.2,,1.5,,KARPUZTEPE-SUR (DIYARBAKIR) İlksel
2025.12.03,22:19:36,39.2148,28.9513,14.2,,1.3,,HAMZABEY-SIMAV (KUTAHYA) İlksel
2025.12.03,22:23:37,38.2160,28.8547,11.9,,1.4,,KARAKOY-BULDAN (DENIZLI) İlksel
2025.12.03,22:35:12,39.2368,28.9395,13.3,,1.6,,YENILER-SIMAV (KUTAHYA) İlksel
2025.12.03,22:49:06,39.0438,28.2585,11.7,,2.1,,DUTLUCA-GORDES (MANISA) İlksel
2025.12.03,22:50:14,36.0860,27.6703,8.6,,2.6,,RODOS ADASI (AKDENIZ) İlksel
2025.12.03,22:55:21,39.5542,28.2268,5.4,,1.4,,AKCAKERTIL-KEPSUT (BALIKESIR) İlksel
2025.12.03,23:20:04,39.2338,28.9995,8.0,,1.3,,YEMISLI-SIMAV (KUTAHYA) İlksel
2025.12.03,23:35:21,39.2423,28.9575,12.5,,1.7,,YENILER-SIMAV (KUTAHYA) İlksel
2025.12.03,23:36:46,40.8583,29.3217,8.5,,2.2,,TUZLA (ISTANBUL) İlksel
2025.12.03,23:45:26,38.4537,38.0863,3.7,,1.8,,ASAGIORUKCU-AKCADAG (MALATYA) İlksel
2025.12.04,00:26:07,39.0513,28.2318,12.9,,1.3,,DUTLUCA-GORDES (MANISA) İlksel
2025.12.04,00:28:26,39.2362,29.0363,10.9,,1.9,,KATRANDAGI-EMET (KUTAHYA) İlksel
2025.12.04,00:32:20,39.2267,29.0358,11.1,,2.0,,KATRANDAGI-EMET (KUTAHYA) İlksel
2025.12.04,00:48:03,39.2422,28.9562,16.2,,1.4,,YENILER-SIMAV (KUTAHYA) İlksel
2025.12.04,00:56:31,38.4698,38.0367,9.5,,1.3,,YUKARIORUKCU-AKCADAG (MALATYA) İlksel
2025.12.04,01:27:32,39.1350,28.3080,10.4,,1.8,,YUREGIL-SINDIRGI (BALIKESIR) İlksel
2025.12.04,01:39:37,40.1678,28.8375,10.9,,1.4,,TAHTALI-NILUFER (BURSA) İlksel
2025.12.04,01:42:47,36.7435,31.1690,19.8,,1.6,,DENIZKENT-MANAVGAT (ANTALYA) İlksel
2025.12.04,01:56:54,37.2982,37.0465,6.3,,1.3,,CENNETPINARI-PAZARCIK (KAHRAMANMARAS) İlksel
2025.12.04,02:03:44,37.4148,32.9112,11.0,,1.3,,YORUKCAMILI-CUMRA (KONYA) İlksel
2025.12.04,02:06:28,38.4757,38.0603,5.0,,1.6,,ILICAK-AKCADAG (MALATYA) İlksel
2025.12.04,02:10:04,39.1165,28.1278,19.2,,1.1,,KINIK-SINDIRGI (BALIKESIR) İlksel
2025.12.04,02:14:51,39.3330,28.8485,5.3,,0.8,,CAMLIK-SIMAV (KUTAHYA) İlksel
2025.12.04,02:17:05,38.0887,38.3650,8.4,,1.4,,TASDAMLAR-CELIKHAN (ADIYAMAN) İlksel
2025.12.04,02:35:31,40.2400,31.7983,5.0,,1.8,,KAPLAN-BEYPAZARI (ANKARA) İlksel
2025.12.04,02:36:43,40.2358,31.7552,6.3,,1.5,,KOZAGAC-BEYPAZARI (ANKARA) İlksel
2025.12.04,02:43:19,38.7905,44.7410,5.0,,3.2,3.5,TURKIYE-IRAN SINIR BOLGESI İlksel
2025.12.04,02:52:00,37.6433,36.0138,5.0,,2.3,,BOZTAHTA-KOZAN (ADANA) İlksel
2025.12.04,02:53:07,39.2175,27.9665,10.5,,1.5,,HACET-KIRKAGAC (MANISA) İlksel
2025.12.04,02:59:19,39.2508,28.9637,5.3,,1.7,,YEMISLI-SIMAV (KUTAHYA) İlksel
2025.12.04,03:16:55,39.1153,28.2843,8.0,,1.1,,YUREGIL-SINDIRGI (BALIKESIR) İlksel
2025.12.04,03:29:40,39.1742,28.1907,8.7,,1.3,,AKTAS-SINDIRGI (BALIKESIR) İlksel
2025.12.04,03:32:19,39.1830,28.2097,10.5,,2.1,,AKTAS-SINDIRGI (BALIKESIR) İlksel
2025.12.04,03:46:38,39.2390,28.1337,9.5,,2.0,,MANDIRA-SINDIRGI (BALIKESIR) İlksel
2025.12.04,03:50:12,37.8198,36.3545,5.4,,1.3,,CIGSAR-ANDIRIN (KAHRAMANMARAS) İlksel
2025.12.04,04:05:02,38.8388,26.7952,3.2,,2.3,,CANDARLI KORFEZI (EGE DENIZI) İlksel
2025.12.04,04:08:15,37.3770,36.8565,5.0,,1.2,,TURKOGLU (KAHRAMANMARAS) İlksel
2025.12.04,05:09:56,36.6510,29.3593,7.4,,1.8,,KEMER-FETHIYE (MUGLA) İlksel
2025.12.04,05:19:06,34.7610,32.6397,7.2,,3.0,3.0,KIBRIS RUM KESIMI İlksel
2025.12.04,05:19:50,34.5447,32.7450,9.2,,3.0,3.2,AKDENIZ İlksel
2025.12.04,05:31:25,39.1595,28.1677,11.3,,1.6,,SINANDEDE-SINDIRGI (BALIKESIR) İlksel
2025.12.04,05:38:48,38.0230,36.6897,5.6,,1.3,,KIZILOZ-GOKSUN (KAHRAMANMARAS) İlksel
2025.12.04,05:39:17,39.2220,28.1383,8.3,,1.8,,MANDIRA-SINDIRGI (BALIKESIR) İlksel
2025.12.04,06:07:09,39.1767,28.1683,12.6,,2.1,,SINANDEDE-SINDIRGI (BALIKESIR) İlksel
2025.12.04,06:24:40,39.1625,28.2048,8.4,,1.1,,AKTAS-SINDIRGI (BALIKESIR) İlksel
2025.12.04,06:39:07,39.2133,28.1427,7.6,,2.4,,MANDIRA-SINDIRGI (BALIKESIR) İlksel
2025.12.04,06:44:31,39.1647,28.3132,7.9,,2.1,,KUCUKDAGDERE-SINDIRGI (BALIKESIR) İlksel
2025.12.04,07:17:38,37.9832,38.1020,15.7,,1.4,,KURUCAOVA-DOGANSEHIR (MALATYA) İlksel
2025.12.04,07:17:53,39.1307,28.2903,12.2,,2.0,,YUREGIL-SINDIRGI (BALIKESIR) İlksel
2025.12.04,07:27:45,38.7852,30.3935,5.0,,1.8,,BOYALI-SINANPASA (AFYONKARAHISAR) İlksel
2025.12.04,07:31:34,39.0885,28.3533,4.1,,1.3,,KOBAKLAR-GORDES (MANISA) İlksel
2025.12.04,07:41:30,38.2632,30.8123,10.0,,1.4,,TASEVI-YALVAC (ISPARTA) İlksel
2025.12.04,08:33:56,39.1695,28.1583,11.0,,2.2,,SINANDEDE-SINDIRGI (BALIKESIR) İlksel
2025.12.04,08:34:25,38.6530,43.1117,3.4,,1.7,,VAN GOLU İlksel
2025.12.04,09:02:03,39.2593,28.1040,9.2,,2.8,,KARAGUR-SINDIRGI (BALIKESIR) İlksel
2025.12.04,09:29:43,40.3025,24.0322,12.1,,1.8,,YUNANISTAN İlksel
2025.12.04,09:40:49,39.7740,25.8560,11.6,,1.1,,EGE DENIZI İlksel
2025.12.04,10:03:48,39.1507,28.1325,9.9,,1.2,,SINANDEDE-SINDIRGI (BALIKESIR) İlksel
2025.12.04,10:14:26,37.8988,29.0098,19.6,,1.6,,UZERLIK-(DENIZLI) İlksel
2025.12.04,10:30:08,39.1843,28.0687,11.6,,1.5,,KERTIL-SINDIRGI (BALIKESIR) İlksel
2025.12.04,10:34:42,37.9677,36.0978,5.0,,1.9,,SAIMBEYLI (ADANA) İlksel
2025.12.04,10:55:14,39.1397,28.0917,9.9,,1.6,,ISACA-AKHISAR (MANISA) İlksel
2025.12.04,10:57:51,40.2760,24.0350,5.4,,1.5,,YUNANISTAN İlksel
2025.12.04,11:03:32,39.1610,28.2237,17.9,,1.7,,BAYRAKLI-SINDIRGI (BALIKESIR) İlksel
2025.12.04,11:07:00,39.2127,28.1520,9.1,,1.6,,YAYLACIK-SINDIRGI (BALIKESIR) İlksel
2025.12.04,11:10:56,39.2443,28.9968,2.9,,1.1,,YEMISLI-SIMAV (KUTAHYA) İlksel
2025.12.04,11:13:50,39.2243,28.9502,15.5,,1.5,,YEMISLI-SIMAV (KUTAHYA) İlksel
2025.12.04,11:21:01,40.6058,26.9995,14.3,,1.6,,KOCAALI-SARKOY (TEKIRDAG) İlksel
2025.12.04,11:36:07,37.8997,28.9988,16.0,,1.3,,BEYLERBEYI-SARAYKOY (DENIZLI) İlksel
2025.12.04,11:47:42,39.2482,28.1123,6.9,,2.0,,KARAGUR-SINDIRGI (BALIKESIR) İlksel
2025.12.04,11:50:47,39.1543,28.1477,10.6,,1.3,,SINANDEDE-SINDIRGI (BALIKESIR) İlksel
2025.12.04,11:54:47,39.4967,28.2063,7.6,,1.6,,BEGENDIKLER-BIGADIC (BALIKESIR) İlksel
2025.12.04,12:01:47,39.1623,28.2483,10.1,,1.6,,BAYRAKLI-SINDIRGI (BALIKESIR) İlksel
2025.12.04,12:13:16,39.1587,28.3040,11.2,,1.5,,KUCUKDAGDERE-SINDIRGI (BALIKESIR) İlksel
2025.12.04,12:17:41,39.1040,41.6888,6.2,,2.5,,KARAKOY-VARTO (MUS) İlksel
2025.12.04,12:22:39,40.1225,32.8892,8.8,,1.2,,PURSAKLAR (ANKARA) İlksel
2025.12.04,12:50:52,40.6930,29.1855,11.2,,0.7,,KORU-CINARCIK (YALOVA) İlksel
2025.12.04,12:51:23,40.2777,31.6452,14.6,,1.8,,GOKCEOZ-NALLIHAN (ANKARA) İlksel
2025.12.04,12:58:43,39.2477,28.1050,8.5,,3.0,3.0,KARAGUR-SINDIRGI (BALIKESIR) REVIZE01 (2025.12.04 12:58:43)
2025.12.04,13:20:21,39.2255,28.1270,12.5,,1.5,,BAYIRLI-SINDIRGI (BALIKESIR) İlksel
2025.12.04,13:25:00,40.2105,29.4715,2.2,,1.5,,SUNGURPASA-INEGOL (BURSA) İlksel
2025.12.04,13:45:30,39.1890,28.2148,20.5,,1.0,,ILICA-SINDIRGI (BALIKESIR) İlksel
2025.12.04,13:50:38,40.0463,25.9195,6.0,,1.8,,ESELEK-GOKCEADA (CANAKKALE) İlksel
2025.12.04,14:27:30,39.1215,28.2818,9.6,,1.5,,YUREGIL-SINDIRGI (BALIKESIR) İlksel
2025.12.04,14:32:42,38.6962,33.6495,5.7,,2.2,,CALOREN-SEREFLIKOCHISAR (ANKARA) REVIZE01 (2025.12.04 14:32:42)
2025.12.04,14:37:45,39.1853,28.3200,20.2,,1.4,,BUYUKDAGDERE-SINDIRGI (BALIKESIR) İlksel
2025.12.04,15:00:35,39.2218,29.0505,8.7,,1.3,,KATRANDAGI-EMET (KUTAHYA) İlksel
2025.12.04,15:07:38,40.4785,26.1688,18.4,,2.0,,SAROS KORFEZI (EGE DENIZI) REVIZE01 (2025.12.04 15:07:41)
2025.12.04,15:09:36,35.7542,27.1443,14.4,,3.1,,EGE DENIZI İlksel
2025.12.04,15:29:40,39.1595,28.1558,18.4,,1.3,,SINANDEDE-SINDIRGI (BALIKESIR) İlksel
2025.12.04,15:39:40,39.1842,28.2095,11.3,,3.8,3.8,AKTAS-SINDIRGI (BALIKESIR) İlksel
2025.12.04,15:54:07,39.1908,28.2198,10.8,,2.7,,ILICA-SINDIRGI (BALIKESIR) İlksel
2025.12.04,16:02:55,39.2338,29.0320,11.0,,1.3,,KATRANDAGI-EMET (KUTAHYA) İlksel
2025.12.04,16:07:20,39.2458,28.0767,7.8,,1.7,,ALACAATLI-SINDIRGI (BALIKESIR) İlksel
2025.12.04,16:15:49,36.1788,28.8915,16.6,,1.5,,AKDENIZ İlksel
2025.12.04,16:35:39,36.1597,33.4967,5.0,,1.4,,YANISLI-GULNAR (MERSIN) İlksel
2025.12.04,16:48:34,35.5920,29.3177,9.8,,1.9,,AKDENIZ İlksel
2025.12.04,17:19:16,39.1588,25.9058,9.5,,2.1,,MIDILLI ADASI (EGE DENIZI) İlksel
2025.12.04,17:38:18,36.9887,29.5165,5.0,,2.1,,KIZILYAKA-ALTINYAYLA (BURDUR) İlksel
2025.12.04,17:45:13,39.2288,28.9392,9.4,,1.8,,YENILER-SIMAV (KUTAHYA) İlksel
2025.12.04,18:12:21,39.7550,43.6935,23.5,,1.6,,SARIBIYIK-DOGUBAYAZIT (AGRI) İlksel
2025.12.04,18:22:54,38.4703,38.0488,8.1,,1.3,,ILICAK-AKCADAG (MALATYA) İlksel
2025.12.04,18:40:00,39.1248,28.2752,9.3,,1.7,,YUREGIL-SINDIRGI (BALIKESIR) İlksel
2025.12.04,18:47:50,39.1913,28.9690,16.0,,1.4,,EGIRLER-SIMAV (KUTAHYA) İlksel
2025.12.04,18:57:35,39.2443,28.0160,8.1,,2.1,,KIZILGUR-SINDIRGI (BALIKESIR) İlksel
2025.12.04,18:58:36,38.4560,37.3478,5.4,,2.0,,GAZIKOY-DARENDE (MALATYA) İlksel
2025.12.04,19:03:32,38.4898,37.3618,11.0,,1.2,,YARIMCA-DARENDE (MALATYA) İlksel
2025.12.04,19:09:54,39.1825,28.1703,5.2,,1.4,,SINANDEDE-SINDIRGI (BALIKESIR) İlksel
2025.12.04,19:33:20,39.2395,28.1650,9.7,,1.1,,SINDIRGI (BALIKESIR) İlksel
2025.12.04,19:57:12,39.1030,33.2305,5.3,,1.7,,AKIN-SEREFLIKOCHISAR (ANKARA) İlksel
2025.12.04,20:02:23,39.0967,33.2157,10.5,,1.3,,AKIN-SEREFLIKOCHISAR (ANKARA) İlksel
2025.12.04,20:03:15,38.1220,38.4753,5.2,,1.7,,AKSU-SINCIK (ADIYAMAN) İlksel
2025.12.04,20:20:33,39.1952,28.2953,7.9,,1.4,,ASLANDEDE-SINDIRGI (BALIKESIR) İlksel
2025.12.04,20:35:30,39.0997,28.2543,5.3,,1.4,,YUREGIL-SINDIRGI (BALIKESIR) İlksel
2025.12.04,20:46:50,36.7005,25.6740,6.3,,2.0,,EGE DENIZI İlksel
2025.12.04,21:21:29,34.6862,32.6493,6.6,,2.4,,KIBRIS RUM KESIMI İlksel
2025.12.04,21:29:51,38.3357,38.3027,13.1,,1.0,,MALATYA İlksel
2025.12.04,21:34:09,40.8312,28.7298,5.3,,2.2,,AVCILAR ACIKLARI-ISTANBUL (MARMARA DENIZI) İlksel
2025.12.04,21:41:24,39.1173,28.3223,10.3,,1.3,,YUREGIL-SINDIRGI (BALIKESIR) İlksel
2025.12.04,22:03:25,39.3657,27.9998,11.3,,2.5,,HAMIDIYE-BIGADIC (BALIKESIR) İlksel
2025.12.04,22:22:15,39.2157,28.1262,8.3,,1.8,,BAYIRLI-SINDIRGI (BALIKESIR) İlksel
2025.12.04,22:29:39,39.3075,27.9900,9.5,,1.4,,GOLCUK-SINDIRGI (BALIKESIR) İlksel
