Date,Time,Latitude,Longitude,Depth,MD,ML,Mw,Location
2025.12.01,00:01:02,39.2452,28.9877,3.1,,1.3,,YEMISLI-SIMAV (KUTAHYA) İlksel
2025.12.01,00:06:19,39.2207,28.9400,13.9,,1.3,,HAMZABEY-SIMAV (KUTAHYA) İlksel
2025.12.01,00:10:24,39.1997,28.9108,13.8,,1.4,,ORENLI-SIMAV (KUTAHYA) İlksel
2025.12.01,00:10:31,38.2760,37.5570,18.2,,1.3,,SEVDILI-ELBISTAN (KAHRAMANMARAS) İlksel
2025.12.01,00:19:33,39.2053,27.9697,8.6,,1.5,,AKKOCALI-AKHISAR (MANISA) İlksel
2025.12.01,00:21:23,38.5858,27.1037,2.1,,1.7,,YAHSELLI-MENEMEN (IZMIR) İlksel
2025.12.01,00:34:26,40.0272,38.6322,4.4,,2.4,,GUNALAN-GOLOVA (SIVAS) İlksel
2025.12.01,00:48:26,38.0908,36.6132,4.7,,1.1,,KANLIKAVAK-GOKSUN (KAHRAMANMARAS) İlksel
2025.12.01,00:53:46,38.2122,38.0800,19.4,,1.0,,ISIKLI-YESILYURT (MALATYA) İlksel
