Date,Time,Latitude,Longitude,Depth,MD,ML,Mw,Location
2026.04.01,00:09:24,38.9663,26.0212,8.3,,2.4,,MIDILLI ADASI GUNEYI (EGE DENIZI) İlksel
2026.04.01,01:33:35,38.0933,38.4075,5.8,,3.0,,KARAGOL-CELIKHAN (ADIYAMAN) İlksel
2026.04.01,02:05:14,39.8725,41.7543,9.9,,2.0,,TASLIYURT-PASINLER (ERZURUM) İlksel
2026.04.01,02:22:51,38.4705,37.7448,7.0,,1.1,,ESENBEY-AKCADAG (MALATYA) İlksel
2026.04.01,02:28:52,40.8202,36.0888,17.7,,1.1,,AKTAS-(AMASYA) İlksel
2026.04.01,02:50:14,37.8953,36.4115,5.4,,1.5,,BUYUKCAMURLU-GOKSUN (KAHRAMANMARAS) İlksel
2026.04.01,03:10:38,35.7270,27.0940,8.3,,1.9,,EGE DENIZI İlksel
2026.04.01,03:27:23,37.8847,36.4107,5.5,,1.2,,BUYUKCAMURLU-GOKSUN (KAHRAMANMARAS) İlksel
2026.04.01,03:35:45,38.3755,38.7773,4.7,,1.3,,TEPEKOY-KALE (MALATYA) İlksel
2026.04.01,03:54:45,37.0375,28.0703,15.6,,2.0,,KULTAK-MILAS (MUGLA) İlksel
2026.04.01,04:07:55,38.0673,28.9595,5.5,,3.1,3.0,YENICEKENT-BULDAN (DENIZLI) İlksel
2026.04.01,04:25:32,38.9812,26.0790,8.5,,2.8,,MIDILLI ADASI GUNEYI (EGE DENIZI) İlksel
2026.04.01,04:48:06,39.0230,25.9742,6.5,,1.5,,MIDILLI ADASI GUNEYI (EGE DENIZI) İlksel
2026.04.01,04:52:13,38.0708,36.6278,5.5,,1.6,,GUCUKSU-GOKSUN (KAHRAMANMARAS) İlksel
2026.04.01,05:00:51,38.0665,28.9840,16.2,,1.4,,ERTUGRUL-GUNEY (DENIZLI) İlksel
2026.04.01,05:09:21,40.6767,36.8275,6.0,,2.1,,KIRACI-NIKSAR (TOKAT) İlksel
2026.04.01,05:15:06,38.6045,31.1868,8.3,,1.2,,EBER-CAY (AFYONKARAHISAR) İlksel
2026.04.01,05:32:34,39.2158,28.1442,9.2,,1.9,,MANDIRA-SINDIRGI (BALIKESIR) İlksel
2026.04.01,06:02:50,38.3630,37.6370,8.1,,1.5,,DARICA-AKCADAG (MALATYA) İlksel
2026.04.01,06:36:51,38.8335,43.6130,5.0,,3.4,,AKCIFT-(VAN) İlksel
2026.04.01,06:52:37,38.2962,37.6797,13.6,,1.3,,HARUNUSAGI-AKCADAG (MALATYA) İlksel
2026.04.01,07:08:49,39.1032,28.3288,15.3,,1.6,,YUREGIL-SINDIRGI (BALIKESIR) İlksel
2026.04.01,07:15:26,37.9417,36.5087,7.9,,1.4,,DEGIRMENDERE-GOKSUN (KAHRAMANMARAS) İlksel
2026.04.01,07:43:52,38.4735,38.9452,16.9,,1.6,,KOCHARMANI-(ELAZIG) İlksel
2026.04.01,07:49:08,36.7022,25.4973,5.0,,1.5,,EGE DENIZI İlksel
2026.04.01,08:08:42,40.7795,27.9508,5.3,,1.9,,MARMARA DENIZI İlksel
2026.04.01,08:13:15,40.7750,27.9400,5.2,,1.2,,MARMARA DENIZI İlksel
2026.04.01,09:05:31,37.9465,36.5947,6.8,,2.5,,KURUCAOVA-(KAHRAMANMARAS) İlksel
2026.04.01,10:04:54,37.9508,36.6698,5.0,,1.8,,CAMLICA-(KAHRAMANMARAS) İlksel
2026.04.01,10:14:09,40.8605,30.8758,7.1,,2.4,,SOGUKSU-GUMUSOVA (DUZCE) İlksel
2026.04.01,10:16:26,39.6507,39.6210,5.7,,3.0,,SOGUKOLUK-(ERZINCAN) İlksel
2026.04.01,10:32:08,38.0767,28.9440,5.0,,2.9,,YENICEKENT-BULDAN (DENIZLI) İlksel
2026.04.01,11:15:14,39.6337,39.6445,6.0,,2.8,,SAZLIPINAR-(ERZINCAN) İlksel
2026.04.01,12:27:05,38.0540,28.9557,5.0,,1.9,,YENICEKENT-BULDAN (DENIZLI) İlksel
2026.04.01,13:01:29,41.0490,28.9603,12.6,,2.6,,EYUP (ISTANBUL) İlksel
2026.04.01,13:31:06,39.6207,39.6280,4.9,,3.0,3.0,YALINCA-(ERZINCAN) İlksel
2026.04.01,14:04:12,39.2405,28.9868,4.9,,1.8,,YEMISLI-SIMAV (KUTAHYA) İlksel
2026.04.01,14:47:14,39.2363,28.2258,19.5,,1.9,,CALTILI-SINDIRGI (BALIKESIR) İlksel
2026.04.01,14:49:01,38.4757,38.0280,7.1,,2.2,,KEKLIKPINARI-AKCADAG (MALATYA) İlksel
2026.04.01,17:29:42,38.1610,38.5192,16.4,,1.5,,ULUKOY-(MALATYA) İlksel
2026.04.01,17:36:29,39.2802,28.2108,17.7,,1.0,,YUSUFCAM-SINDIRGI (BALIKESIR) İlksel
2026.04.01,17:47:54,37.1335,27.9222,0.0,,1.8,,SEKKOY-MILAS (MUGLA) İlksel
2026.04.01,17:49:34,37.9722,36.5075,5.4,,1.7,,KIRECKOY-GOKSUN (KAHRAMANMARAS) İlksel
2026.04.01,18:02:20,40.8020,27.7672,11.5,,1.7,,MARMARA DENIZI İlksel
2026.04.01,18:18:44,41.0570,29.3325,0.0,,1.1,,KOCULLU-CEKMEKOY (ISTANBUL) İlksel
2026.04.01,19:14:36,37.1680,27.9647,0.0,,2.1,,YOGUNOLUK-MILAS (MUGLA) İlksel
2026.04.01,19:18:21,34.7735,29.0718,6.3,,2.8,,AKDENIZ İlksel
2026.04.01,19:22:45,38.8175,43.5582,27.3,,1.9,,AKCIFT-(VAN) İlksel
2026.04.01,19:27:57,38.7730,43.6137,10.3,,2.4,,ILIKAYNAK-(VAN) İlksel
2026.04.01,19:57:04,39.2420,29.0603,4.9,,2.2,,KATRANDAGI-EMET (KUTAHYA) İlksel
2026.04.01,19:58:58,39.2388,29.0460,4.3,,2.0,,KATRANDAGI-EMET (KUTAHYA) İlksel
2026.04.01,20:01:16,39.2588,29.0063,16.6,,1.6,,YESILDERE-SIMAV (KUTAHYA) İlksel
2026.04.01,20:06:52,39.2475,29.0533,8.5,,1.8,,KATRANDAGI-EMET (KUTAHYA) İlksel
2026.04.01,20:11:31,35.6868,22.4657,5.0,,4.6,,AKDENIZ İlksel
2026.04.01,20:36:13,37.9275,36.6068,8.3,,2.1,,KURUCAOVA-(KAHRAMANMARAS) İlksel
2026.04.01,20:46:27,40.1658,31.6888,7.8,,2.2,,ULUKOY-NALLIHAN (ANKARA) İlksel
2026.04.01,21:00:32,39.2598,28.9738,19.1,,1.7,,YEMISLI-SIMAV (KUTAHYA) İlksel
2026.04.01,21:23:47,40.2872,24.1385,8.0,,2.0,,YUNANISTAN İlksel
2026.04.01,21:31:51,39.2242,28.1618,10.2,,1.0,,MANDIRA-SINDIRGI (BALIKESIR) İlksel
2026.04.01,21:32:48,37.9635,36.2800,6.0,,1.6,,KAZANDERE-GOKSUN (KAHRAMANMARAS) İlksel
2026.04.01,22:00:37,38.0857,37.1960,5.8,,1.5,,AKPINAR-EKINOZU (KAHRAMANMARAS) İlksel
2026.04.01,22:27:51,39.2355,28.0693,6.7,,1.5,,ALAKIR-SINDIRGI (BALIKESIR) İlksel
2026.04.01,23:16:38,36.7052,31.2868,9.8,,1.8,,SIDE ACIKLARI-ANTALYA (AKDENIZ) İlksel
2026.04.01,23:59:11,41.1620,43.8835,5.3,,1.5,,GURCISTAN İlksel
2026.04.02,00:07:43,41.1548,43.8522,4.6,,1.7,,GURCISTAN İlksel
2026.04.02,00:42:00,40.8142,27.5740,13.8,,2.7,,YENIKOY ACIKLARI-TEKIRDAG (MARMARA DENIZI) İlksel
2026.04.02,01:23:01,39.2490,29.0162,11.6,,2.7,,YEMISLI-SIMAV (KUTAHYA) İlksel
2026.04.02,03:00:49,37.2597,28.1995,2.6,,1.5,,BAYIR-(MUGLA) İlksel
2026.04.02,03:09:38,38.1667,42.8233,5.0,,2.5,,BAHCESARAY (VAN) İlksel
2026.04.02,03:46:56,39.6463,39.6562,5.3,,1.8,,KUCUKKADAGAN-(ERZINCAN) İlksel
2026.04.02,04:18:30,38.1307,37.8590,8.4,,1.8,,YOLKURU-DOGANSEHIR (MALATYA) İlksel
2026.04.02,05:03:11,38.3715,42.8140,6.6,,1.9,,KUSLUK-GEVAS (VAN) İlksel
2026.04.02,05:10:26,39.7122,42.1643,8.7,,1.9,,KARAYAZI (ERZURUM) İlksel
2026.04.02,05:19:24,38.8503,43.6098,10.8,,2.2,,AKCIFT-(VAN) İlksel
2026.04.02,05:21:54,40.1628,31.6992,10.6,,1.9,,ULUKOY-NALLIHAN (ANKARA) İlksel
2026.04.02,05:25:04,40.8838,33.7763,4.3,,1.6,,CELTIKBASI-ILGAZ (CANKIRI) İlksel
2026.04.02,05:27:05,40.7137,33.7505,9.4,,1.2,,BUGAY-YAPRAKLI (CANKIRI) İlksel
2026.04.02,06:10:05,39.2187,28.1293,8.3,,1.2,,MANDIRA-SINDIRGI (BALIKESIR) İlksel
2026.04.02,07:02:09,40.4443,23.9803,5.0,,2.1,,YUNANISTAN İlksel
2026.04.02,07:45:25,40.4573,35.0427,8.1,,1.8,,YOGUNPELIT-(CORUM) İlksel
2026.04.02,09:05:58,38.5628,27.2227,11.2,,1.6,,KURUDERE-BORNOVA (IZMIR) İlksel
2026.04.02,09:13:17,38.2360,38.7170,5.3,,2.0,,CAYKOY-PUTURGE (MALATYA) İlksel
2026.04.02,09:39:27,39.6360,39.6277,4.1,,2.9,,SAZLIPINAR-(ERZINCAN) İlksel
2026.04.02,09:40:32,37.9363,27.8945,18.6,,1.2,,KARAKOY-(AYDIN) İlksel
2026.04.02,09:41:00,39.6455,39.6338,5.2,,1.4,,SAZLIPINAR-(ERZINCAN) İlksel
2026.04.02,09:51:46,39.6355,39.6160,2.1,,2.2,,SOGUKOLUK-(ERZINCAN) İlksel
2026.04.02,09:53:37,38.9783,28.4307,10.3,,1.1,,BENLIELI-GORDES (MANISA) İlksel
2026.04.02,10:04:51,39.6363,39.6245,4.8,,1.5,,SAZLIPINAR-(ERZINCAN) İlksel
2026.04.02,10:13:16,39.6353,39.6012,5.0,,1.9,,SOGUKOLUK-(ERZINCAN) İlksel
2026.04.02,10:39:47,39.6607,39.7825,11.4,,0.8,,GOLLER-UZUMLU (ERZINCAN) İlksel
2026.04.02,10:43:07,39.6437,39.6272,4.4,,1.1,,SAZLIPINAR-(ERZINCAN) İlksel
2026.04.02,10:47:46,39.6377,39.6320,4.0,,1.7,,SAZLIPINAR-(ERZINCAN) İlksel
2026.04.02,12:06:51,36.2712,33.7733,0.0,,1.1,,IMAMUSAGI-SILIFKE (MERSIN) İlksel
2026.04.02,12:31:14,38.1557,36.8050,4.8,,1.7,,DEVEBOYNU-AFSIN (KAHRAMANMARAS) İlksel
2026.04.02,12:36:38,37.5798,29.2267,5.0,,1.8,,SERINHISAR (DENIZLI) İlksel
2026.04.02,13:09:27,37.9285,36.5108,5.4,,2.1,,DEGIRMENDERE-GOKSUN (KAHRAMANMARAS) İlksel
2026.04.02,13:09:48,39.1255,28.2030,4.9,,1.1,,KINIK-SINDIRGI (BALIKESIR) İlksel
2026.04.02,13:34:30,38.2372,38.7038,5.4,,2.2,,CAYKOY-PUTURGE (MALATYA) İlksel
2026.04.02,14:41:42,39.1975,28.2173,10.3,,2.9,,ILICA-SINDIRGI (BALIKESIR) İlksel
2026.04.02,15:04:09,39.6393,39.6272,2.9,,1.8,,SAZLIPINAR-(ERZINCAN) İlksel
2026.04.02,15:09:01,37.8577,37.7227,3.9,,1.7,,HARMANLI-GOLBASI (ADIYAMAN) İlksel
2026.04.02,15:17:33,37.9118,37.8685,3.5,,2.9,,KARANLIKDERE-DOGANSEHIR (MALATYA) İlksel
2026.04.02,15:42:06,38.5295,29.1047,4.9,,1.4,,EMIRLI-ESME (USAK) İlksel
2026.04.02,15:56:33,35.6583,31.7847,6.1,,2.8,,AKDENIZ İlksel
2026.04.02,16:12:44,36.5770,29.4027,26.7,,2.2,,GUNESLI-FETHIYE (MUGLA) İlksel
2026.04.02,16:46:52,39.2680,28.9668,13.3,,1.4,,KARAKOCA-SIMAV (KUTAHYA) İlksel
2026.04.02,16:47:37,39.2335,29.0642,3.7,,1.5,,KATRANDAGI-EMET (KUTAHYA) İlksel
2026.04.02,17:01:09,39.6397,39.6230,1.4,,1.7,,SAZLIPINAR-(ERZINCAN) İlksel
2026.04.02,17:11:20,39.3238,42.2752,4.3,,2.0,,ERENCE-MALAZGIRT (MUS) İlksel
2026.04.02,17:14:21,39.2318,29.0920,8.7,,1.0,,KARAAGIL-HISARCIK (KUTAHYA) İlksel
2026.04.02,17:37:45,39.2552,28.9978,12.3,,1.2,,YEMISLI-SIMAV (KUTAHYA) İlksel
2026.04.02,17:56:00,38.4352,27.0288,6.0,,2.4,,IZMIR KORFEZI (EGE DENIZI) İlksel
2026.04.02,18:42:21,39.2213,28.9293,6.5,,1.2,,HAMZABEY-SIMAV (KUTAHYA) İlksel
2026.04.02,19:50:17,36.3707,27.6928,28.0,,2.3,,EGE DENIZI İlksel
2026.04.02,19:54:03,39.1065,28.3395,10.6,,1.3,,KOBAKLAR-GORDES (MANISA) İlksel
2026.04.02,21:20:00,39.1212,28.2615,13.6,,1.4,,YUREGIL-SINDIRGI (BALIKESIR) İlksel
2026.04.02,21:22:51,39.1222,28.3543,9.3,,4.1,3.9,YAYLABAYIR-SINDIRGI (BALIKESIR) İlksel
2026.04.02,21:26:04,39.0790,28.3532,16.4,,1.6,,KOBAKLAR-GORDES (MANISA) İlksel
2026.04.02,21:26:27,39.1065,28.3148,5.0,,1.5,,YUREGIL-SINDIRGI (BALIKESIR) İlksel
2026.04.02,21:46:48,39.1313,28.3417,12.4,,2.5,,YAYLABAYIR-SINDIRGI (BALIKESIR) İlksel
2026.04.02,21:59:25,39.0717,28.3462,19.2,,1.3,,KOBAKLAR-GORDES (MANISA) İlksel
2026.04.02,22:25:38,40.3827,24.0292,5.6,,1.4,1.3,YUNANISTAN İlksel
2026.04.02,22:35:17,36.0365,30.3007,6.6,,3.8,3.9,MAVIKENT ACIKLARI-ANTALYA (AKDENIZ) İlksel
2026.04.02,22:41:40,37.9215,28.1597,3.6,,1.4,,GUVENDIK-SULTANHISAR (AYDIN) İlksel
2026.04.02,23:11:59,37.8875,36.1575,9.8,,1.7,,DEGIRMENCIUSAGI-SAIMBEYLI (ADANA) İlksel
2026.04.02,23:16:12,39.1117,28.3150,12.9,,1.0,,YUREGIL-SINDIRGI (BALIKESIR) İlksel
2026.04.02,23:29:19,39.1243,28.3800,8.8,,1.3,,YAYLABAYIR-SINDIRGI (BALIKESIR) İlksel
2026.04.02,23:51:51,38.1793,27.4625,5.3,,1.3,,TASKESIK-TORBALI (IZMIR) İlksel
2026.04.03,00:19:09,38.1067,36.7193,8.4,,1.4,,KARAOMER-GOKSUN (KAHRAMANMARAS) İlksel
2026.04.03,00:22:23,39.2648,28.1418,18.5,,2.0,,IBILLER-SINDIRGI (BALIKESIR) İlksel
2026.04.03,00:28:54,39.2293,29.0052,15.6,,1.5,,YEMISLI-SIMAV (KUTAHYA) İlksel
2026.04.03,00:44:53,38.2830,27.8932,12.6,,1.1,,TOSUNLAR-ODEMIS (IZMIR) İlksel
2026.04.03,00:47:33,37.8438,36.4733,5.0,,3.0,3.1,KUMARLI-(KAHRAMANMARAS) İlksel
2026.04.03,00:54:20,39.2645,28.9965,5.0,,1.7,,YESILDERE-SIMAV (KUTAHYA) İlksel
2026.04.03,01:15:20,38.5010,38.1072,5.0,,1.1,,TOHMA-(MALATYA) İlksel
2026.04.03,01:28:32,39.2488,29.0257,6.1,,2.5,,KATRANDAGI-EMET (KUTAHYA) İlksel
2026.04.03,01:36:22,39.2495,29.0185,4.8,,3.4,3.2,YESILDERE-SIMAV (KUTAHYA) İlksel
2026.04.03,01:42:54,37.5982,27.0823,6.0,,2.8,,DOGANBEY ACIKLARI-AYDIN (EGE DENIZI) İlksel
2026.04.03,01:44:46,39.2317,29.0187,3.9,,1.6,,YEMISLI-SIMAV (KUTAHYA) İlksel
2026.04.03,01:46:54,39.1660,28.1112,11.2,,1.3,,ORMANICI-SINDIRGI (BALIKESIR) İlksel
2026.04.03,02:02:42,39.2492,29.0148,8.2,,1.8,,YEMISLI-SIMAV (KUTAHYA) İlksel
2026.04.03,02:07:12,38.0443,37.6318,6.8,,1.4,,GOVDELI-DOGANSEHIR (MALATYA) İlksel
2026.04.03,02:20:26,39.2380,28.9980,12.9,,1.5,,YEMISLI-SIMAV (KUTAHYA) İlksel
2026.04.03,02:26:14,39.2473,28.9985,11.8,,1.9,,YEMISLI-SIMAV (KUTAHYA) İlksel
2026.04.03,03:04:27,39.2523,29.0098,4.7,,2.9,,YESILDERE-SIMAV (KUTAHYA) İlksel
2026.04.03,03:09:07,39.2563,29.0305,13.5,,1.2,,KATRANDAGI-EMET (KUTAHYA) İlksel
2026.04.03,03:20:04,39.1075,28.3413,11.1,,1.9,,KOBAKLAR-GORDES (MANISA) İlksel
2026.04.03,03:48:30,39.2438,29.0277,4.6,,2.2,,KATRANDAGI-EMET (KUTAHYA) İlksel
2026.04.03,04:18:54,40.3793,34.4465,5.0,,1.8,,ORTAKOY-SUNGURLU (CORUM) İlksel
2026.04.03,04:56:47,39.1105,28.3567,8.9,,3.1,3.0,KOBAKLAR-GORDES (MANISA) İlksel
2026.04.03,05:01:29,38.3082,27.8715,4.9,,2.0,,SUCIKTI-ODEMIS (IZMIR) İlksel
2026.04.03,05:16:33,39.2363,29.0170,9.2,,1.7,,YEMISLI-SIMAV (KUTAHYA) İlksel
2026.04.03,05:17:50,39.0267,28.2192,14.8,,1.5,,KALEMOGLU-GORDES (MANISA) İlksel
2026.04.03,05:20:37,39.2467,29.0152,5.2,,1.9,,YEMISLI-SIMAV (KUTAHYA) İlksel
2026.04.03,05:22:46,39.6938,38.8210,7.1,,2.0,,GEDIKTEPE-KEMAH (ERZINCAN) İlksel
2026.04.03,05:41:46,40.3798,25.8333,9.5,,1.5,,KALEKOY-GOKCEADA (CANAKKALE) İlksel
2026.04.03,06:39:34,37.9320,28.5570,12.3,,1.5,,PAMUKOREN-KUYUCAK (AYDIN) İlksel
2026.04.03,06:50:04,37.2668,28.1823,5.0,,2.2,,BAHCEYAKA-YATAGAN (MUGLA) İlksel
2026.04.03,07:02:15,39.1777,28.3017,14.2,,2.2,,BUYUKDAGDERE-SINDIRGI (BALIKESIR) İlksel
2026.04.03,07:48:07,40.6375,36.7778,5.3,,3.1,3.0,KUMBETLI-NIKSAR (TOKAT) İlksel
2026.04.03,08:02:42,37.8163,36.5000,18.5,,1.6,,KUMARLI-(KAHRAMANMARAS) REVIZE01 (2026.04.03 08:02:42)
2026.04.03,08:32:11,37.3685,36.3467,17.7,,1.7,,GUZELYURT-DUZICI (OSMANIYE) İlksel
2026.04.03,08:38:52,39.0692,28.7387,5.0,,1.0,,HOSCALAR-DEMIRCI (MANISA) İlksel
2026.04.03,08:43:16,39.2122,28.0540,7.2,,1.5,,ALAKIR-SINDIRGI (BALIKESIR) İlksel
2026.04.03,08:49:20,39.1313,28.3358,13.0,,1.3,,YUREGIL-SINDIRGI (BALIKESIR) REVIZE01 (2026.04.03 08:49:20)
2026.04.03,08:50:12,39.2882,39.8862,1.8,,2.3,,DEREOVA-NAZIMIYE (TUNCELI) İlksel
2026.04.03,09:05:40,39.3885,28.8578,8.9,,1.9,,RESADIYE-DURSUNBEY (BALIKESIR) İlksel
2026.04.03,09:23:29,38.3593,43.6770,9.9,,3.0,3.0,ORTAKOY-GURPINAR (VAN) İlksel
2026.04.03,10:00:37,38.0508,28.9697,5.0,,2.3,,YENICEKENT-BULDAN (DENIZLI) İlksel
2026.04.03,10:14:24,38.0848,38.5170,7.7,,1.6,,YARPUZLU-SINCIK (ADIYAMAN) İlksel
2026.04.03,10:26:25,39.2622,29.0387,9.7,,1.1,,KATRANDAGI-EMET (KUTAHYA) İlksel
2026.04.03,10:35:50,38.3330,32.2425,22.3,,1.6,,HACIMEHMETLI-KADINHANI (KONYA) İlksel
2026.04.03,10:47:31,38.5380,37.8045,23.7,,1.6,,UZUNHASAN-DARENDE (MALATYA) İlksel
2026.04.03,10:50:58,39.1385,28.3312,9.1,,1.9,,YUREGIL-SINDIRGI (BALIKESIR) İlksel
2026.04.03,10:56:19,38.0178,37.6232,13.3,,1.6,,GOVDELI-DOGANSEHIR (MALATYA) İlksel
2026.04.03,10:59:31,38.2433,38.2262,26.2,,1.1,,KADIRUSAGI-YESILYURT (MALATYA) İlksel
2026.04.03,11:01:28,39.1348,28.3385,11.5,,3.2,3.0,YAYLABAYIR-SINDIRGI (BALIKESIR) İlksel
2026.04.03,11:03:23,39.0440,28.3385,12.2,,1.7,,DARGIL-GORDES (MANISA) İlksel
2026.04.03,11:07:53,38.0780,37.9227,7.2,,2.0,,COMLEKOBA-DOGANSEHIR (MALATYA) İlksel
2026.04.03,11:13:50,37.1435,27.9093,9.3,,1.8,,SEKKOY-MILAS (MUGLA) İlksel
2026.04.03,11:20:43,39.0177,28.3195,22.9,,1.8,,SALUR-GORDES (MANISA) İlksel
2026.04.03,11:25:20,39.4998,29.2578,8.2,,1.4,,KISLADEMIRLI-TAVSANLI (KUTAHYA) İlksel
2026.04.03,11:49:26,37.3027,37.0193,5.5,,2.9,,CENNETPINARI-PAZARCIK (KAHRAMANMARAS) İlksel
2026.04.03,11:52:49,40.4938,29.1882,0.0,,1.1,,SAHINYURDU-GEMLIK (BURSA) İlksel
2026.04.03,11:54:36,40.4778,29.1858,0.0,,1.1,,SAHINYURDU-GEMLIK (BURSA) İlksel
2026.04.03,12:01:44,39.2167,29.0245,14.1,,1.4,,EGIRLER-SIMAV (KUTAHYA) İlksel
2026.04.03,12:07:29,37.8745,28.0425,24.5,,1.3,,BAKLAKOY-KOSK (AYDIN) İlksel
2026.04.03,12:27:08,39.2127,28.0745,7.7,,1.4,,KERTIL-SINDIRGI (BALIKESIR) İlksel
2026.04.03,12:54:20,39.4058,39.4608,15.0,,1.8,,MOLLAALILER-OVACIK (TUNCELI) İlksel
2026.04.03,12:55:56,40.6292,30.2680,0.0,,1.0,,IKRAMIYE-SAPANCA (SAKARYA) İlksel
2026.04.03,13:10:09,36.9732,29.0490,28.8,,1.5,,NARLI-DALAMAN (MUGLA) İlksel
2026.04.03,13:39:38,36.0908,33.5495,2.4,,1.4,,AYDINCIK ACIKLARI-MERSIN (AKDENIZ) İlksel
2026.04.03,13:58:49,39.5367,40.0140,5.0,,1.4,,UNVEREN-PULUMUR (TUNCELI) İlksel
2026.04.03,14:17:45,39.1053,28.0628,12.1,,1.2,,SAGRAKCI-AKHISAR (MANISA) İlksel
2026.04.03,14:35:25,40.5718,29.0125,6.3,,1.0,,SENKOY-CINARCIK (YALOVA) İlksel
2026.04.03,14:40:31,38.0392,28.9938,20.4,,1.4,,MAHMUTLU-BULDAN (DENIZLI) İlksel
2026.04.03,14:57:09,38.0727,28.9908,22.7,,1.4,,ERTUGRUL-GUNEY (DENIZLI) İlksel
2026.04.03,15:27:28,39.7010,30.9738,12.1,,2.1,,AKTEPE-ALPU (ESKISEHIR) İlksel
2026.04.03,15:36:58,39.7513,31.0677,7.9,,2.0,,YESILDON-ALPU (ESKISEHIR) İlksel
2026.04.03,15:52:54,39.1763,28.9898,5.7,,1.6,,EGIRLER-SIMAV (KUTAHYA) İlksel
2026.04.03,16:29:20,39.2420,28.9135,1.4,,1.4,,KAYALIDERE-SIMAV (KUTAHYA) İlksel
2026.04.03,16:45:33,37.8687,38.3130,19.9,,1.8,,ESENCE-(ADIYAMAN) İlksel
2026.04.03,17:50:00,39.2528,29.0270,12.0,,1.4,,KATRANDAGI-EMET (KUTAHYA) İlksel
2026.04.03,17:59:11,38.0338,28.9677,18.9,,1.7,,MAHMUTLU-BULDAN (DENIZLI) İlksel
2026.04.03,18:14:40,36.5758,34.2305,1.6,,1.6,,UCTEPE-ERDEMLI (MERSIN) İlksel
2026.04.03,18:28:12,36.9610,28.0062,5.4,,2.3,,GOKOVA KORFEZI (EGE DENIZI) İlksel
2026.04.03,18:41:39,38.0503,28.9672,5.3,,1.8,,YENICEKENT-BULDAN (DENIZLI) İlksel
2026.04.03,18:52:02,38.0867,37.4155,1.9,,1.7,,AGCASAR-NURHAK (KAHRAMANMARAS) İlksel
2026.04.03,18:58:03,37.2653,35.4898,7.2,,3.3,3.3,CORTEN-IMAMOGLU (ADANA) İlksel
2026.04.03,19:02:18,39.1562,27.9265,7.6,,1.4,,YAYKIN-AKHISAR (MANISA) İlksel
2026.04.03,19:16:12,37.9962,36.5758,5.5,,2.0,,KARAAHMET-GOKSUN (KAHRAMANMARAS) İlksel
2026.04.03,19:50:11,37.8537,36.4735,3.0,,1.6,,KUMARLI-(KAHRAMANMARAS) İlksel
2026.04.03,19:51:13,39.2013,28.1707,8.5,,2.4,,YAYLACIK-SINDIRGI (BALIKESIR) İlksel
2026.04.03,19:55:24,39.2183,28.1303,9.5,,1.7,,MANDIRA-SINDIRGI (BALIKESIR) İlksel
2026.04.03,20:48:29,38.1683,36.5787,9.0,,1.7,,KOMURKOY-GOKSUN (KAHRAMANMARAS) İlksel
2026.04.03,21:09:41,39.6285,39.7492,10.8,,1.5,,ULUKOY-(ERZINCAN) İlksel
2026.04.03,21:17:39,36.9598,28.0282,10.4,,1.5,,GOKOVA KORFEZI (EGE DENIZI) İlksel
2026.04.03,21:21:05,38.1878,37.9107,12.9,,1.7,,KARATERZI-DOGANSEHIR (MALATYA) İlksel
2026.04.03,22:11:05,37.8763,36.4830,5.7,,1.7,,DEGIRMENDERE-GOKSUN (KAHRAMANMARAS) İlksel
2026.04.03,22:35:47,37.9393,36.2075,5.9,,1.7,,KALEBOYNU-GOKSUN (KAHRAMANMARAS) İlksel
2026.04.03,23:21:13,39.2753,28.9850,9.0,,1.5,,YESILDERE-SIMAV (KUTAHYA) İlksel
2026.04.03,23:54:06,37.2245,28.4943,11.8,,1.9,,OZLUCE-(MUGLA) İlksel
2026.04.04,00:32:19,38.2992,38.2093,8.3,,1.3,,IKIZCE-YESILYURT (MALATYA) İlksel
2026.04.04,00:39:46,41.3560,33.5695,4.4,,2.7,,AHLATCIK-(KASTAMONU) İlksel
2026.04.04,01:42:43,38.2240,38.2525,5.9,,1.6,,KADIRUSAGI-YESILYURT (MALATYA) İlksel
2026.04.04,02:11:20,38.1030,38.3447,1.7,,1.6,,TASDAMLAR-CELIKHAN (ADIYAMAN) İlksel
2026.04.04,02:43:08,39.0803,28.4070,7.2,,1.5,,KOBAKLAR-GORDES (MANISA) İlksel
2026.04.04,02:55:25,37.0670,28.5072,22.6,,1.2,,KARABOGURTLEN-ULA (MUGLA) İlksel
2026.04.04,03:02:27,38.1290,38.6147,2.9,,2.2,,TEKEDERESI-PUTURGE (MALATYA) İlksel
2026.04.04,03:11:43,38.7920,30.3827,12.1,,1.8,,AKOREN-SINANPASA (AFYONKARAHISAR) İlksel
2026.04.04,03:16:38,40.6322,36.7683,5.0,,3.2,3.2,KUMBETLI-NIKSAR (TOKAT) İlksel
2026.04.04,03:28:32,39.4483,25.1123,5.0,,2.0,,EGE DENIZI İlksel
2026.04.04,03:53:40,38.0353,29.3238,7.8,,1.6,,KAPLANLAR-CAL (DENIZLI) İlksel
2026.04.04,04:08:13,39.2365,29.0398,11.7,,1.5,,KATRANDAGI-EMET (KUTAHYA) İlksel
2026.04.04,04:15:21,39.1228,28.3405,9.3,,1.3,,YAYLABAYIR-SINDIRGI (BALIKESIR) İlksel
2026.04.04,04:34:33,41.3520,33.5670,5.5,,1.6,,AHLATCIK-(KASTAMONU) İlksel
2026.04.04,04:43:17,37.9070,28.7958,10.5,,1.8,,TEKKEKOY-SARAYKOY (DENIZLI) İlksel
2026.04.04,04:45:23,37.9053,28.8093,12.0,,1.4,,YESILYURT-SARAYKOY (DENIZLI) İlksel
2026.04.04,05:05:43,38.2517,37.7845,8.6,,2.2,,CEVIRME-AKCADAG (MALATYA) İlksel
2026.04.04,05:32:46,36.3402,24.2692,2.1,,3.3,3.2,EGE DENIZI İlksel
2026.04.04,05:40:53,40.6553,28.9543,1.5,,1.2,,ESENKOY-CINARCIK (YALOVA) İlksel
2026.04.04,06:17:49,36.3935,24.2545,6.0,,2.7,,EGE DENIZI İlksel
2026.04.04,06:22:16,37.1418,27.8865,7.7,,1.4,,BAGDAMLARI-MILAS (MUGLA) İlksel
2026.04.04,06:37:09,39.1805,29.1112,15.8,,1.2,,TOKAT-HISARCIK (KUTAHYA) İlksel
2026.04.04,06:39:45,40.6807,30.6063,16.9,,1.2,,AKYAZI (SAKARYA) İlksel
2026.04.04,06:57:25,39.7450,30.9970,5.4,,1.6,,ALPU (ESKISEHIR) İlksel
2026.04.04,08:07:39,39.2495,28.9948,10.6,,1.5,,YEMISLI-SIMAV (KUTAHYA) İlksel
2026.04.04,08:10:37,39.1305,28.3513,9.9,,2.2,,YAYLABAYIR-SINDIRGI (BALIKESIR) İlksel
2026.04.04,08:24:20,38.2662,37.7513,9.6,,2.0,,CEVIRME-AKCADAG (MALATYA) İlksel
2026.04.04,08:43:03,39.1712,28.2075,12.3,,2.7,,AKTAS-SINDIRGI (BALIKESIR) İlksel
2026.04.04,08:52:41,38.7813,43.5577,5.0,,5.1,5.1,YUKARIGOLALAN-(VAN) REVIZE01 (2026.04.04 08:52:42)
2026.04.04,08:58:17,39.2267,29.0603,21.6,,1.2,,KATRANDAGI-EMET (KUTAHYA) İlksel
2026.04.04,09:11:33,38.7850,43.5317,2.2,,3.3,,DEGIRMENOZU-(VAN) İlksel
2026.04.04,09:31:35,38.0813,37.4707,1.6,,2.5,,SUNNETKOY-ELBISTAN (KAHRAMANMARAS) İlksel
2026.04.04,09:39:55,36.3942,24.2657,3.9,,3.2,,EGE DENIZI İlksel
2026.04.04,10:17:12,39.6497,39.6623,10.8,,1.1,,KUCUKKADAGAN-(ERZINCAN) İlksel
2026.04.04,10:38:41,38.7465,43.5595,9.6,,2.2,,ASAGIGOLALAN-(VAN) İlksel
2026.04.04,10:45:01,38.0612,29.0125,21.5,,1.6,,ERTUGRUL-GUNEY (DENIZLI) İlksel
2026.04.04,10:45:41,39.7507,31.0852,6.2,,2.7,,CARDAKBASI-ALPU (ESKISEHIR) İlksel
2026.04.04,10:54:38,39.1543,28.2557,8.4,,1.3,,BAYRAKLI-SINDIRGI (BALIKESIR) İlksel
2026.04.04,11:05:44,39.1147,28.2638,26.6,,1.0,,YUREGIL-SINDIRGI (BALIKESIR) İlksel
2026.04.04,11:21:55,37.3087,37.0202,9.1,,1.7,,CENNETPINARI-PAZARCIK (KAHRAMANMARAS) İlksel
2026.04.04,11:45:55,38.2848,38.6643,21.2,,1.3,,ALHANUSAGI-(MALATYA) İlksel
2026.04.04,12:19:16,40.2013,31.6948,7.9,,2.3,,SEKLI-BEYPAZARI (ANKARA) İlksel
2026.04.04,12:44:55,36.8270,36.5212,9.5,,1.7,,HASSA (HATAY) İlksel
2026.04.04,12:58:42,39.2607,28.1178,8.6,,1.6,,IBILLER-SINDIRGI (BALIKESIR) İlksel
2026.04.04,13:37:51,36.6768,38.4230,2.9,,2.0,,SURIYE İlksel
2026.04.04,14:10:08,40.2568,29.4397,8.1,,1.6,,MARMARACIK-YENISEHIR (BURSA) İlksel
2026.04.04,14:51:26,37.6265,35.5592,5.0,,3.3,,ERGENUSAGI-KOZAN (ADANA) İlksel
2026.04.04,14:51:43,39.2612,28.0908,7.8,,1.5,,KUCUKBUKU-SINDIRGI (BALIKESIR) İlksel
2026.04.04,15:14:14,37.8758,36.5195,5.0,,2.1,,KUMARLI-(KAHRAMANMARAS) İlksel
2026.04.04,16:05:55,38.0857,28.9490,13.4,,2.1,,HAMDIYE-GUNEY (DENIZLI) İlksel
2026.04.04,16:37:21,37.9105,36.2355,8.2,,2.0,,AKSAAGAC-SAIMBEYLI (ADANA) İlksel
2026.04.04,17:01:17,37.6497,35.5472,11.3,,1.6,,KOPRUCUK-ALADAG (ADANA) İlksel
2026.04.04,17:05:26,36.8647,36.5020,7.8,,2.3,,YENIYAPAN-HASSA (HATAY) İlksel
2026.04.04,17:11:48,39.2613,28.1405,3.5,,1.5,,IBILLER-SINDIRGI (BALIKESIR) İlksel
2026.04.04,17:13:49,39.4467,25.8563,17.4,,1.5,,GULPINAR ACIKLARI-CANAKKALE (EGE DENIZI) İlksel
2026.04.04,17:50:54,37.9395,36.4863,5.5,,1.9,,DEGIRMENDERE-GOKSUN (KAHRAMANMARAS) İlksel
2026.04.04,18:02:10,41.1175,34.9690,8.7,,2.2,,TAHTAKOPRU-VEZIRKOPRU (SAMSUN) İlksel
2026.04.04,18:17:52,39.1133,28.3720,10.3,,1.6,,KOBAKLAR-GORDES (MANISA) İlksel
2026.04.04,18:30:18,37.8763,28.7815,4.0,,1.2,,TIRKAZ-SARAYKOY (DENIZLI) İlksel
2026.04.04,19:09:37,37.2997,28.4002,13.7,,1.2,,KOZAGAC-(MUGLA) İlksel
2026.04.04,19:19:50,37.1925,28.6652,12.5,,1.7,,CAKMAK-(MUGLA) İlksel
2026.04.04,19:25:06,39.7572,27.8535,13.3,,1.9,,ORTACA-(BALIKESIR) İlksel
2026.04.04,19:30:02,36.9608,27.4025,5.2,,1.7,,GOKOVA KORFEZI (EGE DENIZI) İlksel
2026.04.04,19:36:19,37.2475,27.7892,5.4,,1.3,,BAHCE-MILAS (MUGLA) İlksel
2026.04.04,20:04:18,37.4507,37.2717,9.4,,1.4,,DAMLATAS-PAZARCIK (KAHRAMANMARAS) İlksel
2026.04.04,20:08:03,39.4303,25.8385,7.7,,1.9,,GULPINAR ACIKLARI-CANAKKALE (EGE DENIZI) İlksel
2026.04.04,20:15:24,37.0658,28.3170,5.1,,1.4,,AKYAKA-ULA (MUGLA) İlksel
2026.04.04,20:43:00,40.3230,27.8548,11.9,,1.4,,EDINCIK-BANDIRMA (BALIKESIR) İlksel
2026.04.04,20:46:06,40.9057,31.6183,19.8,,1.2,,YOGUNPELIT-YIGILCA (DUZCE) İlksel
2026.04.04,21:16:54,38.2705,38.0990,9.9,,1.9,,GORGU-YESILYURT (MALATYA) İlksel
2026.04.04,21:18:12,39.1675,28.2465,9.5,,1.6,,BAYRAKLI-SINDIRGI (BALIKESIR) İlksel
2026.04.04,21:19:06,39.1410,28.2218,20.0,,1.5,,BAYRAKLI-SINDIRGI (BALIKESIR) İlksel
2026.04.04,21:38:04,38.4803,24.2475,21.9,,2.7,,EGE DENIZI İlksel
2026.04.04,21:44:29,37.5575,38.8230,4.6,,2.2,,CAT-HILVAN (SANLIURFA) İlksel
2026.04.04,21:44:35,39.1103,28.3887,12.0,,1.3,,KOBAKLAR-GORDES (MANISA) İlksel
2026.04.04,21:53:58,39.2265,28.1363,8.0,,2.4,,MANDIRA-SINDIRGI (BALIKESIR) İlksel
2026.04.04,22:02:42,37.8777,36.4948,5.4,,1.9,,KUMARLI-(KAHRAMANMARAS) İlksel
2026.04.04,22:11:52,39.2182,28.1223,9.5,,1.7,,BAYIRLI-SINDIRGI (BALIKESIR) İlksel
2026.04.04,22:12:16,38.3462,27.1215,13.0,,1.5,,GAZIEMIR (IZMIR) İlksel
2026.04.04,22:29:48,39.2255,28.8118,20.2,,1.3,,EFIR-SIMAV (KUTAHYA) İlksel
2026.04.04,23:19:15,38.0173,37.6048,16.9,,1.2,,GOVDELI-DOGANSEHIR (MALATYA) İlksel
2026.04.04,23:59:18,39.1310,28.3470,13.6,,2.5,,YAYLABAYIR-SINDIRGI (BALIKESIR) İlksel
2026.04.05,00:04:50,39.6090,41.2257,12.6,,1.4,,DALSOGUT-TEKMAN (ERZURUM) İlksel
2026.04.05,00:13:16,39.7602,31.0668,4.1,,1.7,,YESILDON-ALPU (ESKISEHIR) İlksel
2026.04.05,00:19:03,37.1322,27.9603,11.1,,1.0,,YOGUNOLUK-MILAS (MUGLA) İlksel
2026.04.05,00:29:45,41.3558,33.5568,6.1,,1.7,,AHLATCIK-(KASTAMONU) İlksel
2026.04.05,00:39:16,38.9148,28.3178,1.3,,0.8,,GORDES (MANISA) İlksel
2026.04.05,01:12:37,39.1412,28.1238,13.8,,1.0,,SINANDEDE-SINDIRGI (BALIKESIR) İlksel
2026.04.05,01:23:07,37.7345,36.4960,7.0,,2.3,,ALTINYAYLA-ANDIRIN (KAHRAMANMARAS) İlksel
2026.04.05,01:24:56,35.8978,28.1038,5.0,,2.4,,AKDENIZ İlksel
2026.04.05,01:26:47,39.2715,29.1930,7.8,,1.4,,HASANLAR-HISARCIK (KUTAHYA) İlksel
2026.04.05,01:32:21,39.2527,29.0322,5.4,,1.4,,KATRANDAGI-EMET (KUTAHYA) İlksel
2026.04.05,01:36:35,39.4573,38.2890,5.0,,2.0,,MADENLI-DIVRIGI (SIVAS) İlksel
2026.04.05,01:40:34,39.2532,40.1693,7.6,,1.7,,SABIRTASI-KIGI (BINGOL) İlksel
2026.04.05,01:54:56,40.6948,27.4775,3.8,,0.9,,GUZELKOY ACIKLARI-TEKIRDAG (MARMARA DENIZI) İlksel
2026.04.05,02:06:29,39.2362,29.0855,5.0,,0.8,,KATRANDAGI-EMET (KUTAHYA) İlksel
2026.04.05,02:20:01,38.1308,37.0145,5.0,,2.4,,CALIS-ELBISTAN (KAHRAMANMARAS) İlksel
2026.04.05,02:35:21,37.0940,27.9983,11.5,,1.4,,KALEM-MILAS (MUGLA) İlksel
2026.04.05,02:47:06,39.2418,29.0373,11.6,,1.4,,KATRANDAGI-EMET (KUTAHYA) İlksel
2026.04.05,02:56:30,36.6563,25.6910,5.0,,1.5,,EGE DENIZI İlksel
2026.04.05,03:06:51,38.7652,34.7297,5.0,,1.6,,YESILOZ-GULSEHIR (NEVSEHIR) İlksel
2026.04.05,03:58:10,39.1170,28.3508,9.2,,2.3,,YAYLABAYIR-SINDIRGI (BALIKESIR) İlksel
2026.04.05,04:15:01,39.0343,27.6930,6.1,,1.7,,YATAGAN-AKHISAR (MANISA) İlksel
2026.04.05,04:18:25,39.2565,29.0182,11.5,,0.9,,YESILDERE-SIMAV (KUTAHYA) İlksel
2026.04.05,04:27:31,40.7405,28.2997,15.9,,2.6,,MARMARA DENIZI İlksel
2026.04.05,04:49:40,39.0842,28.3728,9.2,,1.3,,KOBAKLAR-GORDES (MANISA) İlksel
2026.04.05,05:05:04,39.2105,28.1987,7.6,,1.1,,YAYLACIK-SINDIRGI (BALIKESIR) İlksel
2026.04.05,05:19:41,39.1553,28.2575,10.6,,1.2,,BAYRAKLI-SINDIRGI (BALIKESIR) İlksel
2026.04.05,05:25:46,39.1015,28.3035,11.3,,1.3,,YUREGIL-SINDIRGI (BALIKESIR) İlksel
2026.04.05,05:28:07,37.2187,27.8103,14.5,,1.4,,ULAS-MILAS (MUGLA) İlksel
2026.04.05,05:37:02,40.5858,28.9455,4.4,,1.5,,ESENKOY-CINARCIK (YALOVA) İlksel
2026.04.05,05:42:17,39.1372,28.3390,11.9,,3.2,3.1,YAYLABAYIR-SINDIRGI (BALIKESIR) İlksel
2026.04.05,05:45:46,39.1013,25.8760,6.9,,2.1,,EGE DENIZI İlksel
2026.04.05,05:59:26,39.1128,28.3813,8.4,,1.4,,KOBAKLAR-GORDES (MANISA) İlksel
2026.04.05,06:18:29,39.2415,29.0248,12.4,,1.7,,KATRANDAGI-EMET (KUTAHYA) İlksel
2026.04.05,06:31:45,39.1312,28.3080,4.9,,1.4,,YUREGIL-SINDIRGI (BALIKESIR) İlksel
2026.04.05,07:09:20,39.1257,28.0953,13.5,,1.3,,ISACA-AKHISAR (MANISA) İlksel
2026.04.05,07:16:04,37.8107,30.1543,11.2,,1.5,,SARACIK-KECIBORLU (ISPARTA) İlksel
2026.04.05,07:22:17,39.2127,28.1348,7.7,,2.1,,MANDIRA-SINDIRGI (BALIKESIR) İlksel
2026.04.05,07:45:10,39.1973,28.1127,9.1,,1.4,,KERTIL-SINDIRGI (BALIKESIR) İlksel
2026.04.05,07:48:44,37.1115,28.5165,18.0,,1.2,,ARMUTCUK-ULA (MUGLA) İlksel
2026.04.05,07:56:22,39.1057,28.3653,14.0,,2.2,,KOBAKLAR-GORDES (MANISA) İlksel
2026.04.05,08:08:56,37.0032,29.3105,2.6,,1.6,,CEVIZLI-CAMELI (DENIZLI) İlksel
2026.04.05,08:32:19,38.1425,38.6290,11.4,,1.5,,TEKEDERESI-PUTURGE (MALATYA) İlksel
2026.04.05,08:56:45,38.0997,38.4580,15.4,,1.8,,KARAKOSE-SINCIK (ADIYAMAN) İlksel
2026.04.05,09:22:52,39.2193,28.0970,7.3,,1.3,,KERTIL-SINDIRGI (BALIKESIR) İlksel
2026.04.05,10:02:52,38.0008,36.5892,10.9,,1.9,,KARAAHMET-GOKSUN (KAHRAMANMARAS) İlksel
2026.04.05,10:08:19,38.1012,28.9902,5.0,,1.4,,HAMDIYE-GUNEY (DENIZLI) İlksel
2026.04.05,10:24:51,38.1147,28.9653,5.3,,1.3,,HAMDIYE-GUNEY (DENIZLI) İlksel
2026.04.05,10:29:07,39.1112,28.3610,9.7,,2.3,,KOBAKLAR-GORDES (MANISA) İlksel
2026.04.05,10:38:40,37.9113,36.1343,5.1,,2.0,,EYUPLU-SAIMBEYLI (ADANA) İlksel
2026.04.05,11:21:02,39.1353,28.2977,18.7,,1.5,,YUREGIL-SINDIRGI (BALIKESIR) İlksel
2026.04.05,11:22:04,37.0755,28.2040,5.0,,1.6,,KIRAN-(MUGLA) İlksel
2026.04.05,11:48:11,39.1667,28.1297,10.8,,2.2,,SINANDEDE-SINDIRGI (BALIKESIR) İlksel
2026.04.05,11:50:06,40.2167,31.7398,9.6,,1.9,,HIRKATEPE-BEYPAZARI (ANKARA) İlksel
2026.04.05,12:13:28,39.1165,28.3715,8.9,,1.6,,YAYLABAYIR-SINDIRGI (BALIKESIR) İlksel
2026.04.05,12:27:31,39.0255,27.6298,5.0,,1.3,,EVKAFTEKE-AKHISAR (MANISA) İlksel
2026.04.05,12:35:42,37.9467,36.4338,6.8,,1.4,,FINDIKLIKOYAK-GOKSUN (KAHRAMANMARAS) İlksel
2026.04.05,13:11:33,40.6028,27.4345,15.5,,0.9,,EKINLIK-MARMARA (BALIKESIR) İlksel
2026.04.05,13:18:32,39.1028,28.3763,5.2,,1.6,,KOBAKLAR-GORDES (MANISA) İlksel
2026.04.05,13:27:47,40.4908,30.3922,9.7,,2.4,,SUDALAN-GEYVE (SAKARYA) İlksel
2026.04.05,14:14:29,39.2520,28.9428,7.6,,3.6,3.4,YENILER-SIMAV (KUTAHYA) İlksel
2026.04.05,14:53:41,39.2187,29.0212,15.2,,1.1,,EGIRLER-SIMAV (KUTAHYA) İlksel
2026.04.05,15:30:14,39.6553,39.6895,11.2,,1.4,,ALTINBASAK-UZUMLU (ERZINCAN) İlksel
2026.04.05,15:32:39,37.7968,36.2072,17.7,,1.6,,HALILBEYLI-SAIMBEYLI (ADANA) İlksel
2026.04.05,15:44:57,38.4315,39.1970,5.0,,1.5,,YEDIPINAR-SIVRICE (ELAZIG) İlksel
2026.04.05,16:06:54,39.2302,28.9677,15.5,,1.3,,YEMISLI-SIMAV (KUTAHYA) İlksel
2026.04.05,16:10:49,39.2323,28.9898,5.0,,2.2,,YEMISLI-SIMAV (KUTAHYA) İlksel
2026.04.05,16:22:15,37.7398,36.5653,7.2,,2.5,,AKGUMUS-ANDIRIN (KAHRAMANMARAS) İlksel
2026.04.05,16:34:34,39.2427,29.0440,11.8,,1.4,,KATRANDAGI-EMET (KUTAHYA) İlksel
2026.04.05,16:56:43,39.2420,28.1103,17.0,,1.4,,BAYIRLI-SINDIRGI (BALIKESIR) İlksel
2026.04.05,17:01:43,38.2253,36.8497,25.9,,1.2,,GOZPINARI-AFSIN (KAHRAMANMARAS) İlksel
2026.04.05,17:19:35,39.2308,28.9795,5.3,,2.2,,YEMISLI-SIMAV (KUTAHYA) İlksel
2026.04.05,17:37:52,39.2485,28.9817,7.3,,1.8,,YEMISLI-SIMAV (KUTAHYA) İlksel
2026.04.05,17:39:22,39.1890,28.1642,8.6,,2.0,,SINANDEDE-SINDIRGI (BALIKESIR) İlksel
2026.04.05,17:42:27,39.2350,28.9768,4.6,,2.1,,YEMISLI-SIMAV (KUTAHYA) İlksel
2026.04.05,17:50:36,39.2492,29.3858,5.4,,1.6,,KARBASAN-HISARCIK (KUTAHYA) İlksel
2026.04.05,18:22:07,39.0455,28.1922,3.3,,1.2,,KALEMOGLU-GORDES (MANISA) İlksel
2026.04.05,18:26:00,36.5962,36.6338,7.8,,1.8,,TURKIYE-SURIYE SINIR BOLGESI İlksel
2026.04.05,18:56:28,36.3512,33.8817,8.4,,0.6,,BAHCEDERESI-SILIFKE (MERSIN) İlksel
2026.04.05,19:26:13,40.2790,24.1517,5.2,,3.3,3.1,YUNANISTAN İlksel
2026.04.05,19:28:43,40.3075,24.1042,10.0,,1.4,,YUNANISTAN İlksel
2026.04.05,19:29:16,37.9750,36.2303,21.5,,1.2,,KALEBOYNU-GOKSUN (KAHRAMANMARAS) İlksel
2026.04.05,19:39:20,39.0983,27.9960,5.0,,1.4,,SARILAR-AKHISAR (MANISA) İlksel
2026.04.05,19:47:31,39.8677,39.0603,2.8,,2.9,2.7,YENIKOY-REFAHIYE (ERZINCAN) İlksel
2026.04.05,19:49:27,37.9995,27.5972,9.7,,1.8,,HABIBLER-GERMENCIK (AYDIN) İlksel
2026.04.05,19:57:52,35.3860,33.6415,12.7,,1.6,,KIBRIS-BESPARMAK İlksel
2026.04.05,20:21:27,36.6087,25.8598,18.9,,2.1,,EGE DENIZI İlksel
2026.04.05,20:44:58,37.7980,28.8043,5.4,,2.0,,KIRANYER-BABADAG (DENIZLI) İlksel
2026.04.05,21:01:25,38.1242,36.6375,5.0,,1.7,,YENIYAPAN-GOKSUN (KAHRAMANMARAS) İlksel
2026.04.05,21:27:37,39.2062,28.0628,9.8,,1.5,,KERTIL-SINDIRGI (BALIKESIR) İlksel
2026.04.05,21:38:40,40.8487,31.7945,15.3,,1.2,,DEGIRMENBELI-(BOLU) İlksel
2026.04.05,21:40:56,38.1935,38.4338,5.0,,1.4,,GULUMUSAGI-(MALATYA) İlksel
2026.04.05,22:19:09,39.1008,28.1750,11.4,,1.4,,KINIK-SINDIRGI (BALIKESIR) İlksel
2026.04.05,22:24:16,39.1957,28.1672,8.2,,1.4,,YAYLACIK-SINDIRGI (BALIKESIR) İlksel
2026.04.05,22:38:51,39.4443,27.9683,9.7,,1.5,,DIKKONAK-BIGADIC (BALIKESIR) İlksel
2026.04.05,23:00:08,39.3182,33.8082,3.4,,1.5,,CAGIRKAN-KAMAN (KIRSEHIR) İlksel
2026.04.05,23:06:34,39.2233,28.1185,7.4,,2.0,,BAYIRLI-SINDIRGI (BALIKESIR) İlksel
2026.04.05,23:10:25,39.1962,28.1388,8.4,,1.3,,ORMANICI-SINDIRGI (BALIKESIR) İlksel
2026.04.05,23:12:11,40.6308,36.7593,4.5,,2.3,,KUMBETLI-NIKSAR (TOKAT) İlksel
2026.04.05,23:12:42,40.6092,36.6840,5.0,,1.7,,OCAKBASI-ERBAA (TOKAT) İlksel
2026.04.05,23:27:03,40.6153,36.7568,7.0,,1.6,,KUMBETLI-NIKSAR (TOKAT) İlksel
2026.04.05,23:29:00,39.2367,28.9862,11.3,,1.3,,YEMISLI-SIMAV (KUTAHYA) İlksel
2026.04.05,23:40:55,36.9060,29.0798,5.0,,2.5,,GURLEYIK-DALAMAN (MUGLA) İlksel
2026.04.06,00:02:19,36.5000,28.8062,22.2,,1.5,,AKDENIZ İlksel
2026.04.06,00:18:03,39.2085,28.1433,9.2,,1.3,,MANDIRA-SINDIRGI (BALIKESIR) İlksel
2026.04.06,01:07:28,36.9780,35.1845,25.6,,1.8,,GUNYURDU-TARSUS (MERSIN) İlksel
2026.04.06,01:08:59,37.3100,36.9872,5.4,,1.4,,BAYRAMGAZI-PAZARCIK (KAHRAMANMARAS) İlksel
2026.04.06,01:13:24,38.1668,37.9383,15.1,,1.5,,POLATDERESI-DOGANSEHIR (MALATYA) İlksel
2026.04.06,01:38:16,36.1905,31.4423,7.1,,2.6,,ANTALYA KORFEZI (AKDENIZ) İlksel
2026.04.06,01:39:51,39.4445,25.8770,6.3,,2.0,,GULPINAR ACIKLARI-CANAKKALE (EGE DENIZI) İlksel
2026.04.06,01:44:02,40.7845,29.0938,17.3,,2.1,,ADALAR (ISTANBUL) İlksel
2026.04.06,01:59:29,38.1957,36.7620,5.0,,1.7,,AGCASAR-AFSIN (KAHRAMANMARAS) İlksel
2026.04.06,02:25:45,39.0125,25.6047,7.0,,1.9,,EGE DENIZI İlksel
2026.04.06,02:27:37,37.1335,30.5205,5.0,,1.4,,KOVANLIK-DOSEMEALTI (ANTALYA) İlksel
2026.04.06,03:07:26,39.0990,28.3683,5.1,,1.2,,KOBAKLAR-GORDES (MANISA) İlksel
2026.04.06,03:14:02,39.1180,28.3388,7.1,,1.6,,YUREGIL-SINDIRGI (BALIKESIR) İlksel
2026.04.06,03:20:21,39.2387,28.9980,6.8,,0.6,,YEMISLI-SIMAV (KUTAHYA) İlksel
2026.04.06,03:26:01,39.0713,28.3750,9.5,,1.4,,KOBAKLAR-GORDES (MANISA) İlksel
2026.04.06,03:37:59,37.0120,28.3172,10.9,,1.4,,CETIBELI-MARMARIS (MUGLA) İlksel
2026.04.06,03:43:12,40.7878,30.8522,12.3,,1.8,,YESILYAYLA-GUMUSOVA (DUZCE) İlksel
2026.04.06,03:59:31,39.2347,29.0317,5.0,,1.5,,KATRANDAGI-EMET (KUTAHYA) İlksel
2026.04.06,04:16:50,37.7850,35.3720,7.6,,1.4,,KAPUZBASI-YAHYALI (KAYSERI) İlksel
2026.04.06,04:55:43,39.2602,28.9572,9.6,,2.6,,KARAKOCA-SIMAV (KUTAHYA) İlksel
2026.04.06,05:17:43,39.2057,29.0053,18.6,,0.9,,EGIRLER-SIMAV (KUTAHYA) İlksel
2026.04.06,05:21:15,40.0110,41.3692,5.0,,1.1,,KUCUKTUY-PASINLER (ERZURUM) İlksel
2026.04.06,05:40:03,38.1095,38.4195,17.6,,1.3,,KARAGOL-CELIKHAN (ADIYAMAN) İlksel
2026.04.06,05:49:45,38.1460,36.7623,1.8,,1.4,,YAZIKOY-AFSIN (KAHRAMANMARAS) İlksel
2026.04.06,06:04:02,39.0258,32.5412,5.0,,1.8,,CIMEN-CIHANBEYLI (KONYA) İlksel
2026.04.06,06:05:21,37.6070,36.0965,5.7,,1.7,,ESENLI-SUMBAS (OSMANIYE) İlksel
2026.04.06,06:06:09,39.1263,28.3552,9.3,,2.6,,YAYLABAYIR-SINDIRGI (BALIKESIR) İlksel
2026.04.06,06:15:41,40.2713,29.0170,9.2,,0.8,,CAGLAYAN-OSMANGAZI (BURSA) İlksel
2026.04.06,06:32:33,39.2307,28.9877,10.6,,1.7,,YEMISLI-SIMAV (KUTAHYA) İlksel
2026.04.06,06:36:27,37.0447,28.0267,17.0,,1.2,,KULTAK-MILAS (MUGLA) İlksel
2026.04.06,07:17:10,36.8835,29.1695,8.0,,0.8,,KARABAYIR-CAMELI (DENIZLI) İlksel
2026.04.06,07:52:39,39.1162,28.3222,8.0,,1.7,,YUREGIL-SINDIRGI (BALIKESIR) İlksel
2026.04.06,07:57:09,37.1103,28.6338,9.8,,2.3,,KAVAKCALI-ULA (MUGLA) İlksel
2026.04.06,07:59:47,38.0470,28.9618,6.5,,2.1,,YENICEKENT-BULDAN (DENIZLI) İlksel
2026.04.06,08:27:13,39.1845,28.0512,11.8,,1.2,,SAHINKAYA-SINDIRGI (BALIKESIR) İlksel
2026.04.06,08:31:42,41.2072,23.9073,7.3,,2.7,,YUNANISTAN İlksel
2026.04.06,08:35:16,37.8525,29.2632,15.1,,1.3,,GURLEYIK-HONAZ (DENIZLI) İlksel
2026.04.06,08:44:50,36.7627,26.8183,118.3,,2.1,,ONIKI ADALAR (EGE DENIZI) İlksel
2026.04.06,08:56:11,37.2840,27.8152,5.2,,1.9,,MENTES-MILAS (MUGLA) İlksel
2026.04.06,08:56:38,37.6113,36.0985,5.4,,2.3,,ESENLI-SUMBAS (OSMANIYE) İlksel
2026.04.06,08:59:05,37.2607,27.7787,6.7,,1.9,,BECIN-MILAS (MUGLA) İlksel
2026.04.06,09:13:49,40.2075,31.8228,6.9,,2.5,,SARIAGIL-BEYPAZARI (ANKARA) İlksel
2026.04.06,09:52:00,36.4885,28.9382,24.7,,1.6,,OLUDENIZ ACIKLARI-MUGLA (AKDENIZ) İlksel
2026.04.06,09:55:21,39.2165,27.9565,9.1,,1.6,,HACET-KIRKAGAC (MANISA) İlksel
2026.04.06,10:19:55,39.1130,28.3143,17.7,,1.9,,YUREGIL-SINDIRGI (BALIKESIR) İlksel
2026.04.06,10:31:58,38.1703,37.8265,12.3,,2.1,,POLAT-DOGANSEHIR (MALATYA) İlksel
2026.04.06,10:52:16,33.6365,34.9263,56.2,,4.6,4.4,DOGU AKDENIZ REVIZE01 (2026.04.06 10:52:16)
2026.04.06,11:13:46,39.1193,28.3477,9.1,,1.9,,YAYLABAYIR-SINDIRGI (BALIKESIR) İlksel
2026.04.06,11:16:00,39.1182,28.3568,13.1,,1.5,,YAYLABAYIR-SINDIRGI (BALIKESIR) İlksel
2026.04.06,11:23:06,39.7425,30.6260,0.0,,2.2,,SULTANDERE-ODUNPAZARI (ESKISEHIR) İlksel
2026.04.06,11:54:57,39.1023,28.3080,11.4,,1.1,,YUREGIL-SINDIRGI (BALIKESIR) İlksel
2026.04.06,12:20:13,37.4918,40.3230,5.0,,1.7,,KARATAS-MAZIDAGI (MARDIN) İlksel
2026.04.06,12:33:25,39.1088,28.3662,12.1,,1.5,,KOBAKLAR-GORDES (MANISA) İlksel
2026.04.06,12:36:33,40.6918,32.9072,4.9,,1.7,,YAKUPLAR-CERKES (CANKIRI) İlksel
2026.04.06,12:39:09,38.4912,29.3080,21.7,,1.7,,KOSELER-ULUBEY (USAK) İlksel
2026.04.06,13:02:37,38.9482,28.1630,9.4,,0.9,,CITAK-AKHISAR (MANISA) İlksel
2026.04.06,13:43:38,38.4562,39.2342,7.6,,2.4,,ALINCIK-SIVRICE (ELAZIG) İlksel
2026.04.06,13:45:24,40.1488,33.0020,0.0,,1.9,,AKYURT (ANKARA) İlksel
2026.04.06,13:54:41,39.7393,27.5553,5.4,,1.2,,MUSTECAP-BALYA (BALIKESIR) İlksel
2026.04.06,13:57:07,37.9512,28.8312,9.4,,1.5,,KARAKIRAN-SARAYKOY (DENIZLI) İlksel
2026.04.06,13:58:18,37.8788,28.7833,10.8,,1.4,,TIRKAZ-SARAYKOY (DENIZLI) İlksel
2026.04.06,14:20:58,39.1078,28.3502,10.9,,1.5,,KOBAKLAR-GORDES (MANISA) İlksel
2026.04.06,14:35:28,39.4543,28.0622,5.0,,1.8,,DEDECINAR-BIGADIC (BALIKESIR) İlksel
2026.04.06,15:47:21,38.6510,30.7435,6.9,,1.8,,ISIKLAR-(AFYONKARAHISAR) İlksel
2026.04.06,16:15:32,36.0062,29.7745,26.3,,2.0,,KAS ACIKLARI-ANTALYA (AKDENIZ) İlksel
2026.04.06,16:43:22,37.9142,36.1653,4.5,,1.8,,EYUPLU-SAIMBEYLI (ADANA) İlksel
2026.04.06,17:06:41,40.7693,32.9838,5.0,,1.6,,YALIOZU-CERKES (CANKIRI) İlksel
2026.04.06,17:35:12,40.8217,31.6898,3.4,,1.6,,GOLCUK-(BOLU) İlksel
2026.04.06,17:52:47,38.0920,35.1747,5.7,,1.9,,DUNDARLI-(NIGDE) İlksel
2026.04.06,18:31:18,39.5563,41.1500,10.3,,2.0,,AKDAMAR-TEKMAN (ERZURUM) İlksel
2026.04.06,18:46:05,39.0743,28.3398,19.3,,1.3,,KOBAKLAR-GORDES (MANISA) İlksel
2026.04.06,19:07:12,37.6128,32.1320,2.9,,1.6,,EVLIYATEKKE-MERAM (KONYA) İlksel
2026.04.06,19:28:53,36.7043,25.8112,6.2,,1.7,,EGE DENIZI İlksel
2026.04.06,19:58:39,37.0828,29.1242,3.7,,2.1,,YOLCATI-ACIPAYAM (DENIZLI) İlksel
2026.04.06,19:59:24,37.0848,29.1382,14.5,,2.3,,SUCATI-ACIPAYAM (DENIZLI) İlksel
2026.04.06,19:59:32,40.2547,37.8830,5.0,,2.0,,GOLCUK-KOYULHISAR (SIVAS) İlksel
2026.04.06,20:05:49,40.1940,37.8648,5.7,,2.0,,GUNISIK-KOYULHISAR (SIVAS) İlksel
2026.04.06,20:07:31,40.4893,30.4253,11.7,,1.3,,POYDALAR-TARAKLI (SAKARYA) İlksel
2026.04.06,20:36:17,37.0780,29.1313,12.7,,2.0,,SUCATI-ACIPAYAM (DENIZLI) İlksel
2026.04.06,20:38:17,40.4933,30.3960,9.2,,1.4,,BAGCAZ-GEYVE (SAKARYA) İlksel
2026.04.06,20:54:21,39.2540,29.0247,5.4,,1.7,,KATRANDAGI-EMET (KUTAHYA) İlksel
2026.04.06,20:55:43,40.8727,31.0920,16.3,,1.7,,ISHAKLAR-CILIMLI (DUZCE) İlksel
2026.04.06,21:11:53,40.1515,31.7433,6.0,,2.3,,CANTIRLI-BEYPAZARI (ANKARA) İlksel
2026.04.06,21:24:19,39.2508,29.0367,5.6,,2.1,,KATRANDAGI-EMET (KUTAHYA) İlksel
2026.04.06,21:28:53,38.0392,37.6960,5.5,,1.6,,BEGRE-DOGANSEHIR (MALATYA) İlksel
2026.04.06,21:29:35,38.9562,26.0163,9.3,,3.8,3.6,MIDILLI ADASI GUNEYI (EGE DENIZI) İlksel
2026.04.06,21:32:23,38.9777,25.9873,12.0,,2.3,,MIDILLI ADASI GUNEYI (EGE DENIZI) İlksel
2026.04.06,22:06:38,38.9212,26.5723,8.4,,2.1,,MIDILLI ADASI GUNEYI (EGE DENIZI) İlksel
2026.04.06,22:09:35,37.1490,28.5575,11.6,,1.8,,YAYLASOGUT-ULA (MUGLA) İlksel
2026.04.06,22:12:50,36.6627,25.6740,8.4,,1.4,,EGE DENIZI İlksel
2026.04.06,22:58:37,38.9793,25.9537,5.0,,2.3,,MIDILLI ADASI GUNEYI (EGE DENIZI) İlksel
2026.04.06,23:16:12,38.9933,25.9902,12.7,,1.6,,MIDILLI ADASI GUNEYI (EGE DENIZI) İlksel
2026.04.06,23:17:53,39.1232,28.1602,11.2,,1.4,,KINIK-SINDIRGI (BALIKESIR) İlksel
2026.04.06,23:27:45,39.2080,28.1208,9.3,,1.3,,KERTIL-SINDIRGI (BALIKESIR) İlksel
2026.04.06,23:50:30,38.9957,26.1190,23.6,,1.6,,MIDILLI ADASI GUNEYI (EGE DENIZI) İlksel
2026.04.07,00:31:32,39.2503,29.0032,5.5,,1.5,,YEMISLI-SIMAV (KUTAHYA) İlksel
2026.04.07,00:46:09,37.1440,30.9630,107.9,,1.5,,HACIOSMANLAR-SERIK (ANTALYA) İlksel
2026.04.07,01:28:15,39.2085,28.1097,13.1,,1.9,,KERTIL-SINDIRGI (BALIKESIR) İlksel
