Date,Time,Latitude,Longitude,Depth,MD,ML,Mw,Location
2026.04.01,00:09:24,38.9663,26.0212,8.3,,2.4,,MIDILLI ADASI GUNEYI (EGE DENIZI) İlksel
2026.04.01,01:33:35,38.0933,38.4075,5.8,,3.0,,KARAGOL-CELIKHAN (ADIYAMAN) İlksel
2026.04.01,02:05:14,39.8725,41.7543,9.9,,2.0,,TASLIYURT-PASINLER (ERZURUM) İlksel
2026.04.01,02:22:51,38.4705,37.7448,7.0,,1.1,,ESENBEY-AKCADAG (MALATYA) İlksel
2026.04.01,02:28:52,40.8202,36.0888,17.7,,1.1,,AKTAS-(AMASYA) İlksel
2026.04.01,02:50:14,37.8953,36.4115,5.4,,1.5,,BUYUKCAMURLU-GOKSUN (KAHRAMANMARAS) İlksel
2026.04.01,03:10:38,35.7270,27.0940,8.3,,1.9,,EGE DENIZI İlksel
2026.04.01,03:27:23,37.8847,36.4107,5.5,,1.2,,BUYUKCAMURLU-GOKSUN (KAHRAMANMARAS) İlksel
2026.04.01,03:35:45,38.3755,38.7773,4.7,,1.3,,TEPEKOY-KALE (MALATYA) İlksel
2026.04.01,03:54:45,37.0375,28.0703,15.6,,2.0,,KULTAK-MILAS (MUGLA) İlksel
2026.04.01,04:07:55,38.0673,28.9595,5.5,,3.1,3.0,YENICEKENT-BULDAN (DENIZLI) İlksel
2026.04.01,04:25:32,38.9812,26.0790,8.5,,2.8,,MIDILLI ADASI GUNEYI (EGE DENIZI) İlksel
2026.04.01,04:48:06,39.0230,25.9742,6.5,,1.5,,MIDILLI ADASI GUNEYI (EGE DENIZI) İlksel
2026.04.01,04:52:13,38.0708,36.6278,5.5,,1.6,,GUCUKSU-GOKSUN (KAHRAMANMARAS) İlksel
2026.04.01,05:00:51,38.0665,28.9840,16.2,,1.4,,ERTUGRUL-GUNEY (DENIZLI) İlksel
2026.04.01,05:09:21,40.6767,36.8275,6.0,,2.1,,KIRACI-NIKSAR (TOKAT) İlksel
2026.04.01,05:15:06,38.6045,31.1868,8.3,,1.2,,EBER-CAY (AFYONKARAHISAR) İlksel
2026.04.01,05:32:34,39.2158,28.1442,9.2,,1.9,,MANDIRA-SINDIRGI (BALIKESIR) İlksel
2026.04.01,06:02:50,38.3630,37.6370,8.1,,1.5,,DARICA-AKCADAG (MALATYA) İlksel
2026.04.01,06:36:51,38.8335,43.6130,5.0,,3.4,,AKCIFT-(VAN) İlksel
2026.04.01,06:52:37,38.2962,37.6797,13.6,,1.3,,HARUNUSAGI-AKCADAG (MALATYA) İlksel
2026.04.01,07:08:49,39.1032,28.3288,15.3,,1.6,,YUREGIL-SINDIRGI (BALIKESIR) İlksel
2026.04.01,07:15:26,37.9417,36.5087,7.9,,1.4,,DEGIRMENDERE-GOKSUN (KAHRAMANMARAS) İlksel
2026.04.01,07:43:52,38.4735,38.9452,16.9,,1.6,,KOCHARMANI-(ELAZIG) İlksel
2026.04.01,07:49:08,36.7022,25.4973,5.0,,1.5,,EGE DENIZI İlksel
2026.04.01,08:08:42,40.7795,27.9508,5.3,,1.9,,MARMARA DENIZI İlksel
2026.04.01,08:13:15,40.7750,27.9400,5.2,,1.2,,MARMARA DENIZI İlksel
2026.04.01,09:05:31,37.9465,36.5947,6.8,,2.5,,KURUCAOVA-(KAHRAMANMARAS) İlksel
2026.04.01,10:04:54,37.9508,36.6698,5.0,,1.8,,CAMLICA-(KAHRAMANMARAS) İlksel
2026.04.01,10:14:09,40.8605,30.8758,7.1,,2.4,,SOGUKSU-GUMUSOVA (DUZCE) İlksel
2026.04.01,10:16:26,39.6507,39.6210,5.7,,3.0,,SOGUKOLUK-(ERZINCAN) İlksel
2026.04.01,10:32:08,38.0767,28.9440,5.0,,2.9,,YENICEKENT-BULDAN (DENIZLI) İlksel
2026.04.01,11:15:14,39.6337,39.6445,6.0,,2.8,,SAZLIPINAR-(ERZINCAN) İlksel
2026.04.01,12:27:05,38.0540,28.9557,5.0,,1.9,,YENICEKENT-BULDAN (DENIZLI) İlksel
2026.04.01,13:01:29,41.0490,28.9603,12.6,,2.6,,EYUP (ISTANBUL) İlksel
2026.04.01,13:31:06,39.6207,39.6280,4.9,,3.0,3.0,YALINCA-(ERZINCAN) İlksel
2026.04.01,14:04:12,39.2405,28.9868,4.9,,1.8,,YEMISLI-SIMAV (KUTAHYA) İlksel
2026.04.01,14:47:14,39.2363,28.2258,19.5,,1.9,,CALTILI-SINDIRGI (BALIKESIR) İlksel
2026.04.01,14:49:01,38.4757,38.0280,7.1,,2.2,,KEKLIKPINARI-AKCADAG (MALATYA) İlksel
2026.04.01,17:29:42,38.1610,38.5192,16.4,,1.5,,ULUKOY-(MALATYA) İlksel
2026.04.01,17:36:29,39.2802,28.2108,17.7,,1.0,,YUSUFCAM-SINDIRGI (BALIKESIR) İlksel
2026.04.01,17:47:54,37.1335,27.9222,0.0,,1.8,,SEKKOY-MILAS (MUGLA) İlksel
2026.04.01,17:49:34,37.9722,36.5075,5.4,,1.7,,KIRECKOY-GOKSUN (KAHRAMANMARAS) İlksel
2026.04.01,18:02:20,40.8020,27.7672,11.5,,1.7,,MARMARA DENIZI İlksel
2026.04.01,18:18:44,41.0570,29.3325,0.0,,1.1,,KOCULLU-CEKMEKOY (ISTANBUL) İlksel
2026.04.01,19:14:36,37.1680,27.9647,0.0,,2.1,,YOGUNOLUK-MILAS (MUGLA) İlksel
2026.04.01,19:18:21,34.7735,29.0718,6.3,,2.8,,AKDENIZ İlksel
2026.04.01,19:22:45,38.8175,43.5582,27.3,,1.9,,AKCIFT-(VAN) İlksel
2026.04.01,19:27:57,38.7730,43.6137,10.3,,2.4,,ILIKAYNAK-(VAN) İlksel
2026.04.01,19:57:04,39.2420,29.0603,4.9,,2.2,,KATRANDAGI-EMET (KUTAHYA) İlksel
2026.04.01,19:58:58,39.2388,29.0460,4.3,,2.0,,KATRANDAGI-EMET (KUTAHYA) İlksel
2026.04.01,20:01:16,39.2588,29.0063,16.6,,1.6,,YESILDERE-SIMAV (KUTAHYA) İlksel
2026.04.01,20:06:52,39.2475,29.0533,8.5,,1.8,,KATRANDAGI-EMET (KUTAHYA) İlksel
2026.04.01,20:11:31,35.6868,22.4657,5.0,,4.6,,AKDENIZ İlksel
2026.04.01,20:36:13,37.9275,36.6068,8.3,,2.1,,KURUCAOVA-(KAHRAMANMARAS) İlksel
2026.04.01,20:46:27,40.1658,31.6888,7.8,,2.2,,ULUKOY-NALLIHAN (ANKARA) İlksel
2026.04.01,21:00:32,39.2598,28.9738,19.1,,1.7,,YEMISLI-SIMAV (KUTAHYA) İlksel
2026.04.01,21:23:47,40.2872,24.1385,8.0,,2.0,,YUNANISTAN İlksel
2026.04.01,21:31:51,39.2242,28.1618,10.2,,1.0,,MANDIRA-SINDIRGI (BALIKESIR) İlksel
2026.04.01,21:32:48,37.9635,36.2800,6.0,,1.6,,KAZANDERE-GOKSUN (KAHRAMANMARAS) İlksel
2026.04.01,22:00:37,38.0857,37.1960,5.8,,1.5,,AKPINAR-EKINOZU (KAHRAMANMARAS) İlksel
2026.04.01,22:27:51,39.2355,28.0693,6.7,,1.5,,ALAKIR-SINDIRGI (BALIKESIR) İlksel
2026.04.01,23:16:38,36.7052,31.2868,9.8,,1.8,,SIDE ACIKLARI-ANTALYA (AKDENIZ) İlksel
2026.04.01,23:59:11,41.1620,43.8835,5.3,,1.5,,GURCISTAN İlksel
2026.04.02,00:07:43,41.1548,43.8522,4.6,,1.7,,GURCISTAN İlksel
2026.04.02,00:42:00,40.8142,27.5740,13.8,,2.7,,YENIKOY ACIKLARI-TEKIRDAG (MARMARA DENIZI) İlksel
2026.04.02,01:23:01,39.2490,29.0162,11.6,,2.7,,YEMISLI-SIMAV (KUTAHYA) İlksel
2026.04.02,03:00:49,37.2597,28.1995,2.6,,1.5,,BAYIR-(MUGLA) İlksel
2026.04.02,03:09:38,38.1667,42.8233,5.0,,2.5,,BAHCESARAY (VAN) İlksel
2026.04.02,03:46:56,39.6463,39.6562,5.3,,1.8,,KUCUKKADAGAN-(ERZINCAN) İlksel
2026.04.02,04:18:30,38.1307,37.8590,8.4,,1.8,,YOLKURU-DOGANSEHIR (MALATYA) İlksel
2026.04.02,05:03:11,38.3715,42.8140,6.6,,1.9,,KUSLUK-GEVAS (VAN) İlksel
2026.04.02,05:10:26,39.7122,42.1643,8.7,,1.9,,KARAYAZI (ERZURUM) İlksel
2026.04.02,05:19:24,38.8503,43.6098,10.8,,2.2,,AKCIFT-(VAN) İlksel
2026.04.02,05:21:54,40.1628,31.6992,10.6,,1.9,,ULUKOY-NALLIHAN (ANKARA) İlksel
2026.04.02,05:25:04,40.8838,33.7763,4.3,,1.6,,CELTIKBASI-ILGAZ (CANKIRI) İlksel
2026.04.02,05:27:05,40.7137,33.7505,9.4,,1.2,,BUGAY-YAPRAKLI (CANKIRI) İlksel
2026.04.02,06:10:05,39.2187,28.1293,8.3,,1.2,,MANDIRA-SINDIRGI (BALIKESIR) İlksel
2026.04.02,07:02:09,40.4443,23.9803,5.0,,2.1,,YUNANISTAN İlksel
2026.04.02,07:45:25,40.4573,35.0427,8.1,,1.8,,YOGUNPELIT-(CORUM) İlksel
2026.04.02,09:05:58,38.5628,27.2227,11.2,,1.6,,KURUDERE-BORNOVA (IZMIR) İlksel
2026.04.02,09:13:17,38.2360,38.7170,5.3,,2.0,,CAYKOY-PUTURGE (MALATYA) İlksel
2026.04.02,09:39:27,39.6360,39.6277,4.1,,2.9,,SAZLIPINAR-(ERZINCAN) İlksel
2026.04.02,09:40:32,37.9363,27.8945,18.6,,1.2,,KARAKOY-(AYDIN) İlksel
2026.04.02,09:41:00,39.6455,39.6338,5.2,,1.4,,SAZLIPINAR-(ERZINCAN) İlksel
2026.04.02,09:51:46,39.6355,39.6160,2.1,,2.2,,SOGUKOLUK-(ERZINCAN) İlksel
2026.04.02,09:53:37,38.9783,28.4307,10.3,,1.1,,BENLIELI-GORDES (MANISA) İlksel
2026.04.02,10:04:51,39.6363,39.6245,4.8,,1.5,,SAZLIPINAR-(ERZINCAN) İlksel
2026.04.02,10:13:16,39.6353,39.6012,5.0,,1.9,,SOGUKOLUK-(ERZINCAN) İlksel
2026.04.02,10:39:47,39.6607,39.7825,11.4,,0.8,,GOLLER-UZUMLU (ERZINCAN) İlksel
2026.04.02,10:43:07,39.6437,39.6272,4.4,,1.1,,SAZLIPINAR-(ERZINCAN) İlksel
2026.04.02,10:47:46,39.6377,39.6320,4.0,,1.7,,SAZLIPINAR-(ERZINCAN) İlksel
2026.04.02,12:06:51,36.2712,33.7733,0.0,,1.1,,IMAMUSAGI-SILIFKE (MERSIN) İlksel
2026.04.02,12:31:14,38.1557,36.8050,4.8,,1.7,,DEVEBOYNU-AFSIN (KAHRAMANMARAS) İlksel
2026.04.02,12:36:38,37.5798,29.2267,5.0,,1.8,,SERINHISAR (DENIZLI) İlksel
2026.04.02,13:09:27,37.9285,36.5108,5.4,,2.1,,DEGIRMENDERE-GOKSUN (KAHRAMANMARAS) İlksel
2026.04.02,13:09:48,39.1255,28.2030,4.9,,1.1,,KINIK-SINDIRGI (BALIKESIR) İlksel
2026.04.02,13:34:30,38.2372,38.7038,5.4,,2.2,,CAYKOY-PUTURGE (MALATYA) İlksel
2026.04.02,14:41:42,39.1975,28.2173,10.3,,2.9,,ILICA-SINDIRGI (BALIKESIR) İlksel
2026.04.02,15:04:09,39.6393,39.6272,2.9,,1.8,,SAZLIPINAR-(ERZINCAN) İlksel
2026.04.02,15:09:01,37.8577,37.7227,3.9,,1.7,,HARMANLI-GOLBASI (ADIYAMAN) İlksel
2026.04.02,15:17:33,37.9118,37.8685,3.5,,2.9,,KARANLIKDERE-DOGANSEHIR (MALATYA) İlksel
2026.04.02,15:42:06,38.5295,29.1047,4.9,,1.4,,EMIRLI-ESME (USAK) İlksel
2026.04.02,15:56:33,35.6583,31.7847,6.1,,2.8,,AKDENIZ İlksel
2026.04.02,16:12:44,36.5770,29.4027,26.7,,2.2,,GUNESLI-FETHIYE (MUGLA) İlksel
2026.04.02,16:46:52,39.2680,28.9668,13.3,,1.4,,KARAKOCA-SIMAV (KUTAHYA) İlksel
2026.04.02,16:47:37,39.2335,29.0642,3.7,,1.5,,KATRANDAGI-EMET (KUTAHYA) İlksel
2026.04.02,17:01:09,39.6397,39.6230,1.4,,1.7,,SAZLIPINAR-(ERZINCAN) İlksel
2026.04.02,17:11:20,39.3238,42.2752,4.3,,2.0,,ERENCE-MALAZGIRT (MUS) İlksel
2026.04.02,17:14:21,39.2318,29.0920,8.7,,1.0,,KARAAGIL-HISARCIK (KUTAHYA) İlksel
2026.04.02,17:37:45,39.2552,28.9978,12.3,,1.2,,YEMISLI-SIMAV (KUTAHYA) İlksel
2026.04.02,17:56:00,38.4352,27.0288,6.0,,2.4,,IZMIR KORFEZI (EGE DENIZI) İlksel
2026.04.02,18:42:21,39.2213,28.9293,6.5,,1.2,,HAMZABEY-SIMAV (KUTAHYA) İlksel
2026.04.02,19:50:17,36.3707,27.6928,28.0,,2.3,,EGE DENIZI İlksel
2026.04.02,19:54:03,39.1065,28.3395,10.6,,1.3,,KOBAKLAR-GORDES (MANISA) İlksel
2026.04.02,21:20:00,39.1212,28.2615,13.6,,1.4,,YUREGIL-SINDIRGI (BALIKESIR) İlksel
2026.04.02,21:22:51,39.1222,28.3543,9.3,,4.1,3.9,YAYLABAYIR-SINDIRGI (BALIKESIR) İlksel
2026.04.02,21:26:04,39.0790,28.3532,16.4,,1.6,,KOBAKLAR-GORDES (MANISA) İlksel
2026.04.02,21:26:27,39.1065,28.3148,5.0,,1.5,,YUREGIL-SINDIRGI (BALIKESIR) İlksel
2026.04.02,21:46:48,39.1313,28.3417,12.4,,2.5,,YAYLABAYIR-SINDIRGI (BALIKESIR) İlksel
2026.04.02,21:59:25,39.0717,28.3462,19.2,,1.3,,KOBAKLAR-GORDES (MANISA) İlksel
2026.04.02,22:25:38,40.3827,24.0292,5.6,,1.4,1.3,YUNANISTAN İlksel
2026.04.02,22:35:17,36.0365,30.3007,6.6,,3.8,3.9,MAVIKENT ACIKLARI-ANTALYA (AKDENIZ) İlksel
2026.04.02,22:41:40,37.9215,28.1597,3.6,,1.4,,GUVENDIK-SULTANHISAR (AYDIN) İlksel
2026.04.02,23:11:59,37.8875,36.1575,9.8,,1.7,,DEGIRMENCIUSAGI-SAIMBEYLI (ADANA) İlksel
2026.04.02,23:16:12,39.1117,28.3150,12.9,,1.0,,YUREGIL-SINDIRGI (BALIKESIR) İlksel
2026.04.02,23:29:19,39.1243,28.3800,8.8,,1.3,,YAYLABAYIR-SINDIRGI (BALIKESIR) İlksel
2026.04.02,23:51:51,38.1793,27.4625,5.3,,1.3,,TASKESIK-TORBALI (IZMIR) İlksel
2026.04.03,00:19:09,38.1067,36.7193,8.4,,1.4,,KARAOMER-GOKSUN (KAHRAMANMARAS) İlksel
2026.04.03,00:22:23,39.2648,28.1418,18.5,,2.0,,IBILLER-SINDIRGI (BALIKESIR) İlksel
2026.04.03,00:28:54,39.2293,29.0052,15.6,,1.5,,YEMISLI-SIMAV (KUTAHYA) İlksel
2026.04.03,00:44:53,38.2830,27.8932,12.6,,1.1,,TOSUNLAR-ODEMIS (IZMIR) İlksel
2026.04.03,00:47:33,37.8438,36.4733,5.0,,3.0,3.1,KUMARLI-(KAHRAMANMARAS) İlksel
2026.04.03,00:54:20,39.2645,28.9965,5.0,,1.7,,YESILDERE-SIMAV (KUTAHYA) İlksel
2026.04.03,01:15:20,38.5010,38.1072,5.0,,1.1,,TOHMA-(MALATYA) İlksel
2026.04.03,01:28:32,39.2488,29.0257,6.1,,2.5,,KATRANDAGI-EMET (KUTAHYA) İlksel
2026.04.03,01:36:22,39.2495,29.0185,4.8,,3.4,3.2,YESILDERE-SIMAV (KUTAHYA) İlksel
2026.04.03,01:42:54,37.5982,27.0823,6.0,,2.8,,DOGANBEY ACIKLARI-AYDIN (EGE DENIZI) İlksel
2026.04.03,01:44:46,39.2317,29.0187,3.9,,1.6,,YEMISLI-SIMAV (KUTAHYA) İlksel
2026.04.03,01:46:54,39.1660,28.1112,11.2,,1.3,,ORMANICI-SINDIRGI (BALIKESIR) İlksel
2026.04.03,02:02:42,39.2492,29.0148,8.2,,1.8,,YEMISLI-SIMAV (KUTAHYA) İlksel
2026.04.03,02:07:12,38.0443,37.6318,6.8,,1.4,,GOVDELI-DOGANSEHIR (MALATYA) İlksel
2026.04.03,02:20:26,39.2380,28.9980,12.9,,1.5,,YEMISLI-SIMAV (KUTAHYA) İlksel
2026.04.03,02:26:14,39.2473,28.9985,11.8,,1.9,,YEMISLI-SIMAV (KUTAHYA) İlksel
2026.04.03,03:04:27,39.2523,29.0098,4.7,,2.9,,YESILDERE-SIMAV (KUTAHYA) İlksel
2026.04.03,03:09:07,39.2563,29.0305,13.5,,1.2,,KATRANDAGI-EMET (KUTAHYA) İlksel
2026.04.03,03:20:04,39.1075,28.3413,11.1,,1.9,,KOBAKLAR-GORDES (MANISA) İlksel
2026.04.03,03:48:30,39.2438,29.0277,4.6,,2.2,,KATRANDAGI-EMET (KUTAHYA) İlksel
2026.04.03,04:18:54,40.3793,34.4465,5.0,,1.8,,ORTAKOY-SUNGURLU (CORUM) İlksel
2026.04.03,04:56:47,39.1105,28.3567,8.9,,3.1,3.0,KOBAKLAR-GORDES (MANISA) İlksel
2026.04.03,05:01:29,38.3082,27.8715,4.9,,2.0,,SUCIKTI-ODEMIS (IZMIR) İlksel
2026.04.03,05:16:33,39.2363,29.0170,9.2,,1.7,,YEMISLI-SIMAV (KUTAHYA) İlksel
2026.04.03,05:17:50,39.0267,28.2192,14.8,,1.5,,KALEMOGLU-GORDES (MANISA) İlksel
2026.04.03,05:20:37,39.2467,29.0152,5.2,,1.9,,YEMISLI-SIMAV (KUTAHYA) İlksel
2026.04.03,05:22:46,39.6938,38.8210,7.1,,2.0,,GEDIKTEPE-KEMAH (ERZINCAN) İlksel
2026.04.03,05:41:46,40.3798,25.8333,9.5,,1.5,,KALEKOY-GOKCEADA (CANAKKALE) İlksel
2026.04.03,06:39:34,37.9320,28.5570,12.3,,1.5,,PAMUKOREN-KUYUCAK (AYDIN) İlksel
2026.04.03,06:50:04,37.2668,28.1823,5.0,,2.2,,BAHCEYAKA-YATAGAN (MUGLA) İlksel
2026.04.03,07:02:15,39.1777,28.3017,14.2,,2.2,,BUYUKDAGDERE-SINDIRGI (BALIKESIR) İlksel
2026.04.03,07:48:07,40.6375,36.7778,5.3,,3.1,3.0,KUMBETLI-NIKSAR (TOKAT) İlksel
2026.04.03,08:02:42,37.8163,36.5000,18.5,,1.6,,KUMARLI-(KAHRAMANMARAS) REVIZE01 (2026.04.03 08:02:42)
2026.04.03,08:32:11,37.3685,36.3467,17.7,,1.7,,GUZELYURT-DUZICI (OSMANIYE) İlksel
2026.04.03,08:38:52,39.0692,28.7387,5.0,,1.0,,HOSCALAR-DEMIRCI (MANISA) İlksel
2026.04.03,08:43:16,39.2122,28.0540,7.2,,1.5,,ALAKIR-SINDIRGI (BALIKESIR) İlksel
2026.04.03,08:49:20,39.1313,28.3358,13.0,,1.3,,YUREGIL-SINDIRGI (BALIKESIR) REVIZE01 (2026.04.03 08:49:20)
2026.04.03,08:50:12,39.2882,39.8862,1.8,,2.3,,DEREOVA-NAZIMIYE (TUNCELI) İlksel
2026.04.03,09:05:40,39.3885,28.8578,8.9,,1.9,,RESADIYE-DURSUNBEY (BALIKESIR) İlksel
2026.04.03,09:23:29,38.3593,43.6770,9.9,,3.0,3.0,ORTAKOY-GURPINAR (VAN) İlksel
2026.04.03,10:00:37,38.0508,28.9697,5.0,,2.3,,YENICEKENT-BULDAN (DENIZLI) İlksel
2026.04.03,10:14:24,38.0848,38.5170,7.7,,1.6,,YARPUZLU-SINCIK (ADIYAMAN) İlksel
2026.04.03,10:26:25,39.2622,29.0387,9.7,,1.1,,KATRANDAGI-EMET (KUTAHYA) İlksel
2026.04.03,10:35:50,38.3330,32.2425,22.3,,1.6,,HACIMEHMETLI-KADINHANI (KONYA) İlksel
2026.04.03,10:47:31,38.5380,37.8045,23.7,,1.6,,UZUNHASAN-DARENDE (MALATYA) İlksel
2026.04.03,10:50:58,39.1385,28.3312,9.1,,1.9,,YUREGIL-SINDIRGI (BALIKESIR) İlksel
2026.04.03,10:56:19,38.0178,37.6232,13.3,,1.6,,GOVDELI-DOGANSEHIR (MALATYA) İlksel
2026.04.03,10:59:31,38.2433,38.2262,26.2,,1.1,,KADIRUSAGI-YESILYURT (MALATYA) İlksel
2026.04.03,11:01:28,39.1348,28.3385,11.5,,3.2,3.0,YAYLABAYIR-SINDIRGI (BALIKESIR) İlksel
2026.04.03,11:03:23,39.0440,28.3385,12.2,,1.7,,DARGIL-GORDES (MANISA) İlksel
2026.04.03,11:07:53,38.0780,37.9227,7.2,,2.0,,COMLEKOBA-DOGANSEHIR (MALATYA) İlksel
2026.04.03,11:13:50,37.1435,27.9093,9.3,,1.8,,SEKKOY-MILAS (MUGLA) İlksel
2026.04.03,11:20:43,39.0177,28.3195,22.9,,1.8,,SALUR-GORDES (MANISA) İlksel
2026.04.03,11:25:20,39.4998,29.2578,8.2,,1.4,,KISLADEMIRLI-TAVSANLI (KUTAHYA) İlksel
2026.04.03,11:49:26,37.3027,37.0193,5.5,,2.9,,CENNETPINARI-PAZARCIK (KAHRAMANMARAS) İlksel
2026.04.03,11:52:49,40.4938,29.1882,0.0,,1.1,,SAHINYURDU-GEMLIK (BURSA) İlksel
2026.04.03,11:54:36,40.4778,29.1858,0.0,,1.1,,SAHINYURDU-GEMLIK (BURSA) İlksel
2026.04.03,12:01:44,39.2167,29.0245,14.1,,1.4,,EGIRLER-SIMAV (KUTAHYA) İlksel
2026.04.03,12:07:29,37.8745,28.0425,24.5,,1.3,,BAKLAKOY-KOSK (AYDIN) İlksel
2026.04.03,12:27:08,39.2127,28.0745,7.7,,1.4,,KERTIL-SINDIRGI (BALIKESIR) İlksel
2026.04.03,12:54:20,39.4058,39.4608,15.0,,1.8,,MOLLAALILER-OVACIK (TUNCELI) İlksel
2026.04.03,12:55:56,40.6292,30.2680,0.0,,1.0,,IKRAMIYE-SAPANCA (SAKARYA) İlksel
2026.04.03,13:10:09,36.9732,29.0490,28.8,,1.5,,NARLI-DALAMAN (MUGLA) İlksel
2026.04.03,13:39:38,36.0908,33.5495,2.4,,1.4,,AYDINCIK ACIKLARI-MERSIN (AKDENIZ) İlksel
2026.04.03,13:58:49,39.5367,40.0140,5.0,,1.4,,UNVEREN-PULUMUR (TUNCELI) İlksel
2026.04.03,14:17:45,39.1053,28.0628,12.1,,1.2,,SAGRAKCI-AKHISAR (MANISA) İlksel
2026.04.03,14:35:25,40.5718,29.0125,6.3,,1.0,,SENKOY-CINARCIK (YALOVA) İlksel
2026.04.03,14:40:31,38.0392,28.9938,20.4,,1.4,,MAHMUTLU-BULDAN (DENIZLI) İlksel
2026.04.03,14:57:09,38.0727,28.9908,22.7,,1.4,,ERTUGRUL-GUNEY (DENIZLI) İlksel
2026.04.03,15:27:28,39.7010,30.9738,12.1,,2.1,,AKTEPE-ALPU (ESKISEHIR) İlksel
2026.04.03,15:36:58,39.7513,31.0677,7.9,,2.0,,YESILDON-ALPU (ESKISEHIR) İlksel
2026.04.03,15:52:54,39.1763,28.9898,5.7,,1.6,,EGIRLER-SIMAV (KUTAHYA) İlksel
2026.04.03,16:29:20,39.2420,28.9135,1.4,,1.4,,KAYALIDERE-SIMAV (KUTAHYA) İlksel
2026.04.03,16:45:33,37.8687,38.3130,19.9,,1.8,,ESENCE-(ADIYAMAN) İlksel
2026.04.03,17:50:00,39.2528,29.0270,12.0,,1.4,,KATRANDAGI-EMET (KUTAHYA) İlksel
2026.04.03,17:59:11,38.0338,28.9677,18.9,,1.7,,MAHMUTLU-BULDAN (DENIZLI) İlksel
2026.04.03,18:14:40,36.5758,34.2305,1.6,,1.6,,UCTEPE-ERDEMLI (MERSIN) İlksel
2026.04.03,18:28:12,36.9610,28.0062,5.4,,2.3,,GOKOVA KORFEZI (EGE DENIZI) İlksel
2026.04.03,18:41:39,38.0503,28.9672,5.3,,1.8,,YENICEKENT-BULDAN (DENIZLI) İlksel
2026.04.03,18:52:02,38.0867,37.4155,1.9,,1.7,,AGCASAR-NURHAK (KAHRAMANMARAS) İlksel
2026.04.03,18:58:03,37.2653,35.4898,7.2,,3.3,3.3,CORTEN-IMAMOGLU (ADANA) İlksel
2026.04.03,19:02:18,39.1562,27.9265,7.6,,1.4,,YAYKIN-AKHISAR (MANISA) İlksel
2026.04.03,19:16:12,37.9962,36.5758,5.5,,2.0,,KARAAHMET-GOKSUN (KAHRAMANMARAS) İlksel
2026.04.03,19:50:11,37.8537,36.4735,3.0,,1.6,,KUMARLI-(KAHRAMANMARAS) İlksel
2026.04.03,19:51:13,39.2013,28.1707,8.5,,2.4,,YAYLACIK-SINDIRGI (BALIKESIR) İlksel
2026.04.03,19:55:24,39.2183,28.1303,9.5,,1.7,,MANDIRA-SINDIRGI (BALIKESIR) İlksel
2026.04.03,20:48:29,38.1683,36.5787,9.0,,1.7,,KOMURKOY-GOKSUN (KAHRAMANMARAS) İlksel
2026.04.03,21:09:41,39.6285,39.7492,10.8,,1.5,,ULUKOY-(ERZINCAN) İlksel
2026.04.03,21:17:39,36.9598,28.0282,10.4,,1.5,,GOKOVA KORFEZI (EGE DENIZI) İlksel
2026.04.03,21:21:05,38.1878,37.9107,12.9,,1.7,,KARATERZI-DOGANSEHIR (MALATYA) İlksel
2026.04.03,22:11:05,37.8763,36.4830,5.7,,1.7,,DEGIRMENDERE-GOKSUN (KAHRAMANMARAS) İlksel
2026.04.03,22:35:47,37.9393,36.2075,5.9,,1.7,,KALEBOYNU-GOKSUN (KAHRAMANMARAS) İlksel
2026.04.03,23:21:13,39.2753,28.9850,9.0,,1.5,,YESILDERE-SIMAV (KUTAHYA) İlksel
2026.04.03,23:54:06,37.2245,28.4943,11.8,,1.9,,OZLUCE-(MUGLA) İlksel
2026.04.04,00:32:19,38.2992,38.2093,8.3,,1.3,,IKIZCE-YESILYURT (MALATYA) İlksel
2026.04.04,00:39:46,41.3560,33.5695,4.4,,2.7,,AHLATCIK-(KASTAMONU) İlksel
2026.04.04,01:42:43,38.2240,38.2525,5.9,,1.6,,KADIRUSAGI-YESILYURT (MALATYA) İlksel
2026.04.04,02:11:20,38.1030,38.3447,1.7,,1.6,,TASDAMLAR-CELIKHAN (ADIYAMAN) İlksel
2026.04.04,02:43:08,39.0803,28.4070,7.2,,1.5,,KOBAKLAR-GORDES (MANISA) İlksel
2026.04.04,02:55:25,37.0670,28.5072,22.6,,1.2,,KARABOGURTLEN-ULA (MUGLA) İlksel
2026.04.04,03:02:27,38.1290,38.6147,2.9,,2.2,,TEKEDERESI-PUTURGE (MALATYA) İlksel
2026.04.04,03:11:43,38.7920,30.3827,12.1,,1.8,,AKOREN-SINANPASA (AFYONKARAHISAR) İlksel
2026.04.04,03:16:38,40.6322,36.7683,5.0,,3.2,3.2,KUMBETLI-NIKSAR (TOKAT) İlksel
2026.04.04,03:28:32,39.4483,25.1123,5.0,,2.0,,EGE DENIZI İlksel
2026.04.04,03:53:40,38.0353,29.3238,7.8,,1.6,,KAPLANLAR-CAL (DENIZLI) İlksel
2026.04.04,04:08:13,39.2365,29.0398,11.7,,1.5,,KATRANDAGI-EMET (KUTAHYA) İlksel
2026.04.04,04:15:21,39.1228,28.3405,9.3,,1.3,,YAYLABAYIR-SINDIRGI (BALIKESIR) İlksel
2026.04.04,04:34:33,41.3520,33.5670,5.5,,1.6,,AHLATCIK-(KASTAMONU) İlksel
2026.04.04,04:43:17,37.9070,28.7958,10.5,,1.8,,TEKKEKOY-SARAYKOY (DENIZLI) İlksel
2026.04.04,04:45:23,37.9053,28.8093,12.0,,1.4,,YESILYURT-SARAYKOY (DENIZLI) İlksel
2026.04.04,05:05:43,38.2517,37.7845,8.6,,2.2,,CEVIRME-AKCADAG (MALATYA) İlksel
2026.04.04,05:32:46,36.3402,24.2692,2.1,,3.3,3.2,EGE DENIZI İlksel
2026.04.04,05:40:53,40.6553,28.9543,1.5,,1.2,,ESENKOY-CINARCIK (YALOVA) İlksel
2026.04.04,06:17:49,36.3935,24.2545,6.0,,2.7,,EGE DENIZI İlksel
2026.04.04,06:22:16,37.1418,27.8865,7.7,,1.4,,BAGDAMLARI-MILAS (MUGLA) İlksel
2026.04.04,06:37:09,39.1805,29.1112,15.8,,1.2,,TOKAT-HISARCIK (KUTAHYA) İlksel
2026.04.04,06:39:45,40.6807,30.6063,16.9,,1.2,,AKYAZI (SAKARYA) İlksel
2026.04.04,06:57:25,39.7450,30.9970,5.4,,1.6,,ALPU (ESKISEHIR) İlksel
2026.04.04,08:07:39,39.2495,28.9948,10.6,,1.5,,YEMISLI-SIMAV (KUTAHYA) İlksel
2026.04.04,08:10:37,39.1305,28.3513,9.9,,2.2,,YAYLABAYIR-SINDIRGI (BALIKESIR) İlksel
2026.04.04,08:24:20,38.2662,37.7513,9.6,,2.0,,CEVIRME-AKCADAG (MALATYA) İlksel
2026.04.04,08:43:03,39.1712,28.2075,12.3,,2.7,,AKTAS-SINDIRGI (BALIKESIR) İlksel
2026.04.04,08:52:41,38.7813,43.5577,5.0,,5.1,5.1,YUKARIGOLALAN-(VAN) REVIZE01 (2026.04.04 08:52:42)
2026.04.04,08:58:17,39.2267,29.0603,21.6,,1.2,,KATRANDAGI-EMET (KUTAHYA) İlksel
2026.04.04,09:11:33,38.7850,43.5317,2.2,,3.3,,DEGIRMENOZU-(VAN) İlksel
2026.04.04,09:31:35,38.0813,37.4707,1.6,,2.5,,SUNNETKOY-ELBISTAN (KAHRAMANMARAS) İlksel
2026.04.04,09:39:55,36.3942,24.2657,3.9,,3.2,,EGE DENIZI İlksel
2026.04.04,10:17:12,39.6497,39.6623,10.8,,1.1,,KUCUKKADAGAN-(ERZINCAN) İlksel
2026.04.04,10:38:41,38.7465,43.5595,9.6,,2.2,,ASAGIGOLALAN-(VAN) İlksel
2026.04.04,10:45:01,38.0612,29.0125,21.5,,1.6,,ERTUGRUL-GUNEY (DENIZLI) İlksel
2026.04.04,10:45:41,39.7507,31.0852,6.2,,2.7,,CARDAKBASI-ALPU (ESKISEHIR) İlksel
2026.04.04,10:54:38,39.1543,28.2557,8.4,,1.3,,BAYRAKLI-SINDIRGI (BALIKESIR) İlksel
2026.04.04,11:05:44,39.1147,28.2638,26.6,,1.0,,YUREGIL-SINDIRGI (BALIKESIR) İlksel
2026.04.04,11:21:55,37.3087,37.0202,9.1,,1.7,,CENNETPINARI-PAZARCIK (KAHRAMANMARAS) İlksel
2026.04.04,11:45:55,38.2848,38.6643,21.2,,1.3,,ALHANUSAGI-(MALATYA) İlksel
2026.04.04,12:19:16,40.2013,31.6948,7.9,,2.3,,SEKLI-BEYPAZARI (ANKARA) İlksel
2026.04.04,12:44:55,36.8270,36.5212,9.5,,1.7,,HASSA (HATAY) İlksel
2026.04.04,12:58:42,39.2607,28.1178,8.6,,1.6,,IBILLER-SINDIRGI (BALIKESIR) İlksel
2026.04.04,13:37:51,36.6768,38.4230,2.9,,2.0,,SURIYE İlksel
2026.04.04,14:10:08,40.2568,29.4397,8.1,,1.6,,MARMARACIK-YENISEHIR (BURSA) İlksel
2026.04.04,14:51:26,37.6265,35.5592,5.0,,3.3,,ERGENUSAGI-KOZAN (ADANA) İlksel
2026.04.04,14:51:43,39.2612,28.0908,7.8,,1.5,,KUCUKBUKU-SINDIRGI (BALIKESIR) İlksel
2026.04.04,15:14:14,37.8758,36.5195,5.0,,2.1,,KUMARLI-(KAHRAMANMARAS) İlksel
2026.04.04,16:05:55,38.0857,28.9490,13.4,,2.1,,HAMDIYE-GUNEY (DENIZLI) İlksel
2026.04.04,16:37:21,37.9105,36.2355,8.2,,2.0,,AKSAAGAC-SAIMBEYLI (ADANA) İlksel
2026.04.04,17:01:17,37.6497,35.5472,11.3,,1.6,,KOPRUCUK-ALADAG (ADANA) İlksel
2026.04.04,17:05:26,36.8647,36.5020,7.8,,2.3,,YENIYAPAN-HASSA (HATAY) İlksel
2026.04.04,17:11:48,39.2613,28.1405,3.5,,1.5,,IBILLER-SINDIRGI (BALIKESIR) İlksel
2026.04.04,17:13:49,39.4467,25.8563,17.4,,1.5,,GULPINAR ACIKLARI-CANAKKALE (EGE DENIZI) İlksel
2026.04.04,17:50:54,37.9395,36.4863,5.5,,1.9,,DEGIRMENDERE-GOKSUN (KAHRAMANMARAS) İlksel
2026.04.04,18:02:10,41.1175,34.9690,8.7,,2.2,,TAHTAKOPRU-VEZIRKOPRU (SAMSUN) İlksel
2026.04.04,18:17:52,39.1133,28.3720,10.3,,1.6,,KOBAKLAR-GORDES (MANISA) İlksel
2026.04.04,18:30:18,37.8763,28.7815,4.0,,1.2,,TIRKAZ-SARAYKOY (DENIZLI) İlksel
2026.04.04,19:09:37,37.2997,28.4002,13.7,,1.2,,KOZAGAC-(MUGLA) İlksel
2026.04.04,19:19:50,37.1925,28.6652,12.5,,1.7,,CAKMAK-(MUGLA) İlksel
2026.04.04,19:25:06,39.7572,27.8535,13.3,,1.9,,ORTACA-(BALIKESIR) İlksel
2026.04.04,19:30:02,36.9608,27.4025,5.2,,1.7,,GOKOVA KORFEZI (EGE DENIZI) İlksel
2026.04.04,19:36:19,37.2475,27.7892,5.4,,1.3,,BAHCE-MILAS (MUGLA) İlksel
2026.04.04,20:04:18,37.4507,37.2717,9.4,,1.4,,DAMLATAS-PAZARCIK (KAHRAMANMARAS) İlksel
2026.04.04,20:08:03,39.4303,25.8385,7.7,,1.9,,GULPINAR ACIKLARI-CANAKKALE (EGE DENIZI) İlksel
2026.04.04,20:15:24,37.0658,28.3170,5.1,,1.4,,AKYAKA-ULA (MUGLA) İlksel
2026.04.04,20:43:00,40.3230,27.8548,11.9,,1.4,,EDINCIK-BANDIRMA (BALIKESIR) İlksel
2026.04.04,20:46:06,40.9057,31.6183,19.8,,1.2,,YOGUNPELIT-YIGILCA (DUZCE) İlksel
2026.04.04,21:16:54,38.2705,38.0990,9.9,,1.9,,GORGU-YESILYURT (MALATYA) İlksel
2026.04.04,21:18:12,39.1675,28.2465,9.5,,1.6,,BAYRAKLI-SINDIRGI (BALIKESIR) İlksel
2026.04.04,21:19:06,39.1410,28.2218,20.0,,1.5,,BAYRAKLI-SINDIRGI (BALIKESIR) İlksel
2026.04.04,21:38:04,38.4803,24.2475,21.9,,2.7,,EGE DENIZI İlksel
2026.04.04,21:44:29,37.5575,38.8230,4.6,,2.2,,CAT-HILVAN (SANLIURFA) İlksel
2026.04.04,21:44:35,39.1103,28.3887,12.0,,1.3,,KOBAKLAR-GORDES (MANISA) İlksel
2026.04.04,21:53:58,39.2265,28.1363,8.0,,2.4,,MANDIRA-SINDIRGI (BALIKESIR) İlksel
2026.04.04,22:02:42,37.8777,36.4948,5.4,,1.9,,KUMARLI-(KAHRAMANMARAS) İlksel
2026.04.04,22:11:52,39.2182,28.1223,9.5,,1.7,,BAYIRLI-SINDIRGI (BALIKESIR) İlksel
2026.04.04,22:12:16,38.3462,27.1215,13.0,,1.5,,GAZIEMIR (IZMIR) İlksel
2026.04.04,22:29:48,39.2255,28.8118,20.2,,1.3,,EFIR-SIMAV (KUTAHYA) İlksel
2026.04.04,23:19:15,38.0173,37.6048,16.9,,1.2,,GOVDELI-DOGANSEHIR (MALATYA) İlksel
2026.04.04,23:59:18,39.1310,28.3470,13.6,,2.5,,YAYLABAYIR-SINDIRGI (BALIKESIR) İlksel
2026.04.05,00:04:50,39.6090,41.2257,12.6,,1.4,,DALSOGUT-TEKMAN (ERZURUM) İlksel
2026.04.05,00:13:16,39.7602,31.0668,4.1,,1.7,,YESILDON-ALPU (ESKISEHIR) İlksel
2026.04.05,00:19:03,37.1322,27.9603,11.1,,1.0,,YOGUNOLUK-MILAS (MUGLA) İlksel
2026.04.05,00:29:45,41.3558,33.5568,6.1,,1.7,,AHLATCIK-(KASTAMONU) İlksel
2026.04.05,00:39:16,38.9148,28.3178,1.3,,0.8,,GORDES (MANISA) İlksel
2026.04.05,01:12:37,39.1412,28.1238,13.8,,1.0,,SINANDEDE-SINDIRGI (BALIKESIR) İlksel
2026.04.05,01:23:07,37.7345,36.4960,7.0,,2.3,,ALTINYAYLA-ANDIRIN (KAHRAMANMARAS) İlksel
2026.04.05,01:24:56,35.8978,28.1038,5.0,,2.4,,AKDENIZ İlksel
2026.04.05,01:26:47,39.2715,29.1930,7.8,,1.4,,HASANLAR-HISARCIK (KUTAHYA) İlksel
2026.04.05,01:32:21,39.2527,29.0322,5.4,,1.4,,KATRANDAGI-EMET (KUTAHYA) İlksel
2026.04.05,01:36:35,39.4573,38.2890,5.0,,2.0,,MADENLI-DIVRIGI (SIVAS) İlksel
2026.04.05,01:40:34,39.2532,40.1693,7.6,,1.7,,SABIRTASI-KIGI (BINGOL) İlksel
2026.04.05,01:54:56,40.6948,27.4775,3.8,,0.9,,GUZELKOY ACIKLARI-TEKIRDAG (MARMARA DENIZI) İlksel
2026.04.05,02:06:29,39.2362,29.0855,5.0,,0.8,,KATRANDAGI-EMET (KUTAHYA) İlksel
2026.04.05,02:20:01,38.1308,37.0145,5.0,,2.4,,CALIS-ELBISTAN (KAHRAMANMARAS) İlksel
2026.04.05,02:35:21,37.0940,27.9983,11.5,,1.4,,KALEM-MILAS (MUGLA) İlksel
2026.04.05,02:47:06,39.2418,29.0373,11.6,,1.4,,KATRANDAGI-EMET (KUTAHYA) İlksel
2026.04.05,02:56:30,36.6563,25.6910,5.0,,1.5,,EGE DENIZI İlksel
2026.04.05,03:06:51,38.7652,34.7297,5.0,,1.6,,YESILOZ-GULSEHIR (NEVSEHIR) İlksel
2026.04.05,03:58:10,39.1170,28.3508,9.2,,2.3,,YAYLABAYIR-SINDIRGI (BALIKESIR) İlksel
2026.04.05,04:15:01,39.0343,27.6930,6.1,,1.7,,YATAGAN-AKHISAR (MANISA) İlksel
2026.04.05,04:18:25,39.2565,29.0182,11.5,,0.9,,YESILDERE-SIMAV (KUTAHYA) İlksel
2026.04.05,04:27:31,40.7405,28.2997,15.9,,2.6,,MARMARA DENIZI İlksel
2026.04.05,04:49:40,39.0842,28.3728,9.2,,1.3,,KOBAKLAR-GORDES (MANISA) İlksel
2026.04.05,05:05:04,39.2105,28.1987,7.6,,1.1,,YAYLACIK-SINDIRGI (BALIKESIR) İlksel
2026.04.05,05:19:41,39.1553,28.2575,10.6,,1.2,,BAYRAKLI-SINDIRGI (BALIKESIR) İlksel
2026.04.05,05:25:46,39.1015,28.3035,11.3,,1.3,,YUREGIL-SINDIRGI (BALIKESIR) İlksel
2026.04.05,05:28:07,37.2187,27.8103,14.5,,1.4,,ULAS-MILAS (MUGLA) İlksel
2026.04.05,05:37:02,40.5858,28.9455,4.4,,1.5,,ESENKOY-CINARCIK (YALOVA) İlksel
2026.04.05,05:42:17,39.1372,28.3390,11.9,,3.2,3.1,YAYLABAYIR-SINDIRGI (BALIKESIR) İlksel
2026.04.05,05:45:46,39.1013,25.8760,6.9,,2.1,,EGE DENIZI İlksel
2026.04.05,05:59:26,39.1128,28.3813,8.4,,1.4,,KOBAKLAR-GORDES (MANISA) İlksel
2026.04.05,06:18:29,39.2415,29.0248,12.4,,1.7,,KATRANDAGI-EMET (KUTAHYA) İlksel
2026.04.05,06:31:45,39.1312,28.3080,4.9,,1.4,,YUREGIL-SINDIRGI (BALIKESIR) İlksel
2026.04.05,07:09:20,39.1257,28.0953,13.5,,1.3,,ISACA-AKHISAR (MANISA) İlksel
2026.04.05,07:16:04,37.8107,30.1543,11.2,,1.5,,SARACIK-KECIBORLU (ISPARTA) İlksel
2026.04.05,07:22:17,39.2127,28.1348,7.7,,2.1,,MANDIRA-SINDIRGI (BALIKESIR) İlksel
2026.04.05,07:45:10,39.1973,28.1127,9.1,,1.4,,KERTIL-SINDIRGI (BALIKESIR) İlksel
2026.04.05,07:48:44,37.1115,28.5165,18.0,,1.2,,ARMUTCUK-ULA (MUGLA) İlksel
2026.04.05,07:56:22,39.1057,28.3653,14.0,,2.2,,KOBAKLAR-GORDES (MANISA) İlksel
2026.04.05,08:08:56,37.0032,29.3105,2.6,,1.6,,CEVIZLI-CAMELI (DENIZLI) İlksel
2026.04.05,08:32:19,38.1425,38.6290,11.4,,1.5,,TEKEDERESI-PUTURGE (MALATYA) İlksel
2026.04.05,08:56:45,38.0997,38.4580,15.4,,1.8,,KARAKOSE-SINCIK (ADIYAMAN) İlksel
2026.04.05,09:22:52,39.2193,28.0970,7.3,,1.3,,KERTIL-SINDIRGI (BALIKESIR) İlksel
2026.04.05,10:02:52,38.0008,36.5892,10.9,,1.9,,KARAAHMET-GOKSUN (KAHRAMANMARAS) İlksel
2026.04.05,10:08:19,38.1012,28.9902,5.0,,1.4,,HAMDIYE-GUNEY (DENIZLI) İlksel
2026.04.05,10:24:51,38.1147,28.9653,5.3,,1.3,,HAMDIYE-GUNEY (DENIZLI) İlksel
2026.04.05,10:29:07,39.1112,28.3610,9.7,,2.3,,KOBAKLAR-GORDES (MANISA) İlksel
2026.04.05,10:38:40,37.9113,36.1343,5.1,,2.0,,EYUPLU-SAIMBEYLI (ADANA) İlksel
2026.04.05,11:21:02,39.1353,28.2977,18.7,,1.5,,YUREGIL-SINDIRGI (BALIKESIR) İlksel
2026.04.05,11:22:04,37.0755,28.2040,5.0,,1.6,,KIRAN-(MUGLA) İlksel
2026.04.05,11:48:11,39.1667,28.1297,10.8,,2.2,,SINANDEDE-SINDIRGI (BALIKESIR) İlksel
2026.04.05,11:50:06,40.2167,31.7398,9.6,,1.9,,HIRKATEPE-BEYPAZARI (ANKARA) İlksel
2026.04.05,12:13:28,39.1165,28.3715,8.9,,1.6,,YAYLABAYIR-SINDIRGI (BALIKESIR) İlksel
2026.04.05,12:27:31,39.0255,27.6298,5.0,,1.3,,EVKAFTEKE-AKHISAR (MANISA) İlksel
2026.04.05,12:35:42,37.9467,36.4338,6.8,,1.4,,FINDIKLIKOYAK-GOKSUN (KAHRAMANMARAS) İlksel
2026.04.05,13:11:33,40.6028,27.4345,15.5,,0.9,,EKINLIK-MARMARA (BALIKESIR) İlksel
2026.04.05,13:18:32,39.1028,28.3763,5.2,,1.6,,KOBAKLAR-GORDES (MANISA) İlksel
2026.04.05,13:27:47,40.4908,30.3922,9.7,,2.4,,SUDALAN-GEYVE (SAKARYA) İlksel
2026.04.05,14:14:29,39.2520,28.9428,7.6,,3.6,3.4,YENILER-SIMAV (KUTAHYA) İlksel
2026.04.05,14:53:41,39.2187,29.0212,15.2,,1.1,,EGIRLER-SIMAV (KUTAHYA) İlksel
2026.04.05,15:30:14,39.6553,39.6895,11.2,,1.4,,ALTINBASAK-UZUMLU (ERZINCAN) İlksel
2026.04.05,15:32:39,37.7968,36.2072,17.7,,1.6,,HALILBEYLI-SAIMBEYLI (ADANA) İlksel
2026.04.05,15:44:57,38.4315,39.1970,5.0,,1.5,,YEDIPINAR-SIVRICE (ELAZIG) İlksel
2026.04.05,16:06:54,39.2302,28.9677,15.5,,1.3,,YEMISLI-SIMAV (KUTAHYA) İlksel
2026.04.05,16:10:49,39.2323,28.9898,5.0,,2.2,,YEMISLI-SIMAV (KUTAHYA) İlksel
2026.04.05,16:22:15,37.7398,36.5653,7.2,,2.5,,AKGUMUS-ANDIRIN (KAHRAMANMARAS) İlksel
2026.04.05,16:34:34,39.2427,29.0440,11.8,,1.4,,KATRANDAGI-EMET (KUTAHYA) İlksel
2026.04.05,16:56:43,39.2420,28.1103,17.0,,1.4,,BAYIRLI-SINDIRGI (BALIKESIR) İlksel
2026.04.05,17:01:43,38.2253,36.8497,25.9,,1.2,,GOZPINARI-AFSIN (KAHRAMANMARAS) İlksel
2026.04.05,17:19:35,39.2308,28.9795,5.3,,2.2,,YEMISLI-SIMAV (KUTAHYA) İlksel
2026.04.05,17:37:52,39.2485,28.9817,7.3,,1.8,,YEMISLI-SIMAV (KUTAHYA) İlksel
2026.04.05,17:39:22,39.1890,28.1642,8.6,,2.0,,SINANDEDE-SINDIRGI (BALIKESIR) İlksel
2026.04.05,17:42:27,39.2350,28.9768,4.6,,2.1,,YEMISLI-SIMAV (KUTAHYA) İlksel
2026.04.05,17:50:36,39.2492,29.3858,5.4,,1.6,,KARBASAN-HISARCIK (KUTAHYA) İlksel
2026.04.05,18:22:07,39.0455,28.1922,3.3,,1.2,,KALEMOGLU-GORDES (MANISA) İlksel
2026.04.05,18:26:00,36.5962,36.6338,7.8,,1.8,,TURKIYE-SURIYE SINIR BOLGESI İlksel
2026.04.05,18:56:28,36.3512,33.8817,8.4,,0.6,,BAHCEDERESI-SILIFKE (MERSIN) İlksel
2026.04.05,19:26:13,40.2790,24.1517,5.2,,3.3,3.1,YUNANISTAN İlksel
2026.04.05,19:28:43,40.3075,24.1042,10.0,,1.4,,YUNANISTAN İlksel
2026.04.05,19:29:16,37.9750,36.2303,21.5,,1.2,,KALEBOYNU-GOKSUN (KAHRAMANMARAS) İlksel
2026.04.05,19:39:20,39.0983,27.9960,5.0,,1.4,,SARILAR-AKHISAR (MANISA) İlksel
2026.04.05,19:47:31,39.8677,39.0603,2.8,,2.9,2.7,YENIKOY-REFAHIYE (ERZINCAN) İlksel
2026.04.05,19:49:27,37.9995,27.5972,9.7,,1.8,,HABIBLER-GERMENCIK (AYDIN) İlksel
2026.04.05,19:57:52,35.3860,33.6415,12.7,,1.6,,KIBRIS-BESPARMAK İlksel
2026.04.05,20:21:27,36.6087,25.8598,18.9,,2.1,,EGE DENIZI İlksel
2026.04.05,20:44:58,37.7980,28.8043,5.4,,2.0,,KIRANYER-BABADAG (DENIZLI) İlksel
2026.04.05,21:01:25,38.1242,36.6375,5.0,,1.7,,YENIYAPAN-GOKSUN (KAHRAMANMARAS) İlksel
2026.04.05,21:27:37,39.2062,28.0628,9.8,,1.5,,KERTIL-SINDIRGI (BALIKESIR) İlksel
2026.04.05,21:38:40,40.8487,31.7945,15.3,,1.2,,DEGIRMENBELI-(BOLU) İlksel
2026.04.05,21:40:56,38.1935,38.4338,5.0,,1.4,,GULUMUSAGI-(MALATYA) İlksel
2026.04.05,22:19:09,39.1008,28.1750,11.4,,1.4,,KINIK-SINDIRGI (BALIKESIR) İlksel
2026.04.05,22:24:16,39.1957,28.1672,8.2,,1.4,,YAYLACIK-SINDIRGI (BALIKESIR) İlksel
2026.04.05,22:38:51,39.4443,27.9683,9.7,,1.5,,DIKKONAK-BIGADIC (BALIKESIR) İlksel
2026.04.05,23:00:08,39.3182,33.8082,3.4,,1.5,,CAGIRKAN-KAMAN (KIRSEHIR) İlksel
2026.04.05,23:06:34,39.2233,28.1185,7.4,,2.0,,BAYIRLI-SINDIRGI (BALIKESIR) İlksel
2026.04.05,23:10:25,39.1962,28.1388,8.4,,1.3,,ORMANICI-SINDIRGI (BALIKESIR) İlksel
2026.04.05,23:12:11,40.6308,36.7593,4.5,,2.3,,KUMBETLI-NIKSAR (TOKAT) İlksel
2026.04.05,23:12:42,40.6092,36.6840,5.0,,1.7,,OCAKBASI-ERBAA (TOKAT) İlksel
2026.04.05,23:27:03,40.6153,36.7568,7.0,,1.6,,KUMBETLI-NIKSAR (TOKAT) İlksel
2026.04.05,23:29:00,39.2367,28.9862,11.3,,1.3,,YEMISLI-SIMAV (KUTAHYA) İlksel
2026.04.05,23:40:55,36.9060,29.0798,5.0,,2.5,,GURLEYIK-DALAMAN (MUGLA) İlksel
2026.04.06,00:02:19,36.5000,28.8062,22.2,,1.5,,AKDENIZ İlksel
2026.04.06,00:18:03,39.2085,28.1433,9.2,,1.3,,MANDIRA-SINDIRGI (BALIKESIR) İlksel
2026.04.06,01:07:28,36.9780,35.1845,25.6,,1.8,,GUNYURDU-TARSUS (MERSIN) İlksel
2026.04.06,01:08:59,37.3100,36.9872,5.4,,1.4,,BAYRAMGAZI-PAZARCIK (KAHRAMANMARAS) İlksel
2026.04.06,01:13:24,38.1668,37.9383,15.1,,1.5,,POLATDERESI-DOGANSEHIR (MALATYA) İlksel
2026.04.06,01:38:16,36.1905,31.4423,7.1,,2.6,,ANTALYA KORFEZI (AKDENIZ) İlksel
2026.04.06,01:39:51,39.4445,25.8770,6.3,,2.0,,GULPINAR ACIKLARI-CANAKKALE (EGE DENIZI) İlksel
2026.04.06,01:44:02,40.7845,29.0938,17.3,,2.1,,ADALAR (ISTANBUL) İlksel
2026.04.06,01:59:29,38.1957,36.7620,5.0,,1.7,,AGCASAR-AFSIN (KAHRAMANMARAS) İlksel
2026.04.06,02:25:45,39.0125,25.6047,7.0,,1.9,,EGE DENIZI İlksel
2026.04.06,02:27:37,37.1335,30.5205,5.0,,1.4,,KOVANLIK-DOSEMEALTI (ANTALYA) İlksel
2026.04.06,03:07:26,39.0990,28.3683,5.1,,1.2,,KOBAKLAR-GORDES (MANISA) İlksel
2026.04.06,03:14:02,39.1180,28.3388,7.1,,1.6,,YUREGIL-SINDIRGI (BALIKESIR) İlksel
2026.04.06,03:20:21,39.2387,28.9980,6.8,,0.6,,YEMISLI-SIMAV (KUTAHYA) İlksel
2026.04.06,03:26:01,39.0713,28.3750,9.5,,1.4,,KOBAKLAR-GORDES (MANISA) İlksel
2026.04.06,03:37:59,37.0120,28.3172,10.9,,1.4,,CETIBELI-MARMARIS (MUGLA) İlksel
2026.04.06,03:43:12,40.7878,30.8522,12.3,,1.8,,YESILYAYLA-GUMUSOVA (DUZCE) İlksel
2026.04.06,03:59:31,39.2347,29.0317,5.0,,1.5,,KATRANDAGI-EMET (KUTAHYA) İlksel
2026.04.06,04:16:50,37.7850,35.3720,7.6,,1.4,,KAPUZBASI-YAHYALI (KAYSERI) İlksel
2026.04.06,04:55:43,39.2602,28.9572,9.6,,2.6,,KARAKOCA-SIMAV (KUTAHYA) İlksel
2026.04.06,05:17:43,39.2057,29.0053,18.6,,0.9,,EGIRLER-SIMAV (KUTAHYA) İlksel
2026.04.06,05:21:15,40.0110,41.3692,5.0,,1.1,,KUCUKTUY-PASINLER (ERZURUM) İlksel
2026.04.06,05:40:03,38.1095,38.4195,17.6,,1.3,,KARAGOL-CELIKHAN (ADIYAMAN) İlksel
2026.04.06,05:49:45,38.1460,36.7623,1.8,,1.4,,YAZIKOY-AFSIN (KAHRAMANMARAS) İlksel
2026.04.06,06:04:02,39.0258,32.5412,5.0,,1.8,,CIMEN-CIHANBEYLI (KONYA) İlksel
2026.04.06,06:05:21,37.6070,36.0965,5.7,,1.7,,ESENLI-SUMBAS (OSMANIYE) İlksel
2026.04.06,06:06:09,39.1263,28.3552,9.3,,2.6,,YAYLABAYIR-SINDIRGI (BALIKESIR) İlksel
2026.04.06,06:15:41,40.2713,29.0170,9.2,,0.8,,CAGLAYAN-OSMANGAZI (BURSA) İlksel
2026.04.06,06:32:33,39.2307,28.9877,10.6,,1.7,,YEMISLI-SIMAV (KUTAHYA) İlksel
2026.04.06,06:36:27,37.0447,28.0267,17.0,,1.2,,KULTAK-MILAS (MUGLA) İlksel
2026.04.06,07:17:10,36.8835,29.1695,8.0,,0.8,,KARABAYIR-CAMELI (DENIZLI) İlksel
2026.04.06,07:52:39,39.1162,28.3222,8.0,,1.7,,YUREGIL-SINDIRGI (BALIKESIR) İlksel
2026.04.06,07:57:09,37.1103,28.6338,9.8,,2.3,,KAVAKCALI-ULA (MUGLA) İlksel
2026.04.06,07:59:47,38.0470,28.9618,6.5,,2.1,,YENICEKENT-BULDAN (DENIZLI) İlksel
2026.04.06,08:27:13,39.1845,28.0512,11.8,,1.2,,SAHINKAYA-SINDIRGI (BALIKESIR) İlksel
2026.04.06,08:31:42,41.2072,23.9073,7.3,,2.7,,YUNANISTAN İlksel
2026.04.06,08:35:16,37.8525,29.2632,15.1,,1.3,,GURLEYIK-HONAZ (DENIZLI) İlksel
2026.04.06,08:44:50,36.7627,26.8183,118.3,,2.1,,ONIKI ADALAR (EGE DENIZI) İlksel
2026.04.06,08:56:11,37.2840,27.8152,5.2,,1.9,,MENTES-MILAS (MUGLA) İlksel
2026.04.06,08:56:38,37.6113,36.0985,5.4,,2.3,,ESENLI-SUMBAS (OSMANIYE) İlksel
2026.04.06,08:59:05,37.2607,27.7787,6.7,,1.9,,BECIN-MILAS (MUGLA) İlksel
2026.04.06,09:13:49,40.2075,31.8228,6.9,,2.5,,SARIAGIL-BEYPAZARI (ANKARA) İlksel
2026.04.06,09:52:00,36.4885,28.9382,24.7,,1.6,,OLUDENIZ ACIKLARI-MUGLA (AKDENIZ) İlksel
2026.04.06,09:55:21,39.2165,27.9565,9.1,,1.6,,HACET-KIRKAGAC (MANISA) İlksel
2026.04.06,10:19:55,39.1130,28.3143,17.7,,1.9,,YUREGIL-SINDIRGI (BALIKESIR) İlksel
2026.04.06,10:31:58,38.1703,37.8265,12.3,,2.1,,POLAT-DOGANSEHIR (MALATYA) İlksel
2026.04.06,10:52:16,33.6365,34.9263,56.2,,4.6,4.4,DOGU AKDENIZ REVIZE01 (2026.04.06 10:52:16)
2026.04.06,11:13:46,39.1193,28.3477,9.1,,1.9,,YAYLABAYIR-SINDIRGI (BALIKESIR) İlksel
2026.04.06,11:16:00,39.1182,28.3568,13.1,,1.5,,YAYLABAYIR-SINDIRGI (BALIKESIR) İlksel
2026.04.06,11:23:06,39.7425,30.6260,0.0,,2.2,,SULTANDERE-ODUNPAZARI (ESKISEHIR) İlksel
2026.04.06,11:54:57,39.1023,28.3080,11.4,,1.1,,YUREGIL-SINDIRGI (BALIKESIR) İlksel
2026.04.06,12:20:13,37.4918,40.3230,5.0,,1.7,,KARATAS-MAZIDAGI (MARDIN) İlksel
2026.04.06,12:33:25,39.1088,28.3662,12.1,,1.5,,KOBAKLAR-GORDES (MANISA) İlksel
2026.04.06,12:36:33,40.6918,32.9072,4.9,,1.7,,YAKUPLAR-CERKES (CANKIRI) İlksel
2026.04.06,12:39:09,38.4912,29.3080,21.7,,1.7,,KOSELER-ULUBEY (USAK) İlksel
2026.04.06,13:02:37,38.9482,28.1630,9.4,,0.9,,CITAK-AKHISAR (MANISA) İlksel
2026.04.06,13:43:38,38.4562,39.2342,7.6,,2.4,,ALINCIK-SIVRICE (ELAZIG) İlksel
2026.04.06,13:45:24,40.1488,33.0020,0.0,,1.9,,AKYURT (ANKARA) İlksel
2026.04.06,13:54:41,39.7393,27.5553,5.4,,1.2,,MUSTECAP-BALYA (BALIKESIR) İlksel
2026.04.06,13:57:07,37.9512,28.8312,9.4,,1.5,,KARAKIRAN-SARAYKOY (DENIZLI) İlksel
2026.04.06,13:58:18,37.8788,28.7833,10.8,,1.4,,TIRKAZ-SARAYKOY (DENIZLI) İlksel
2026.04.06,14:20:58,39.1078,28.3502,10.9,,1.5,,KOBAKLAR-GORDES (MANISA) İlksel
2026.04.06,14:35:28,39.4543,28.0622,5.0,,1.8,,DEDECINAR-BIGADIC (BALIKESIR) İlksel
2026.04.06,15:47:21,38.6510,30.7435,6.9,,1.8,,ISIKLAR-(AFYONKARAHISAR) İlksel
2026.04.06,16:15:32,36.0062,29.7745,26.3,,2.0,,KAS ACIKLARI-ANTALYA (AKDENIZ) İlksel
2026.04.06,16:43:22,37.9142,36.1653,4.5,,1.8,,EYUPLU-SAIMBEYLI (ADANA) İlksel
2026.04.06,17:06:41,40.7693,32.9838,5.0,,1.6,,YALIOZU-CERKES (CANKIRI) İlksel
2026.04.06,17:35:12,40.8217,31.6898,3.4,,1.6,,GOLCUK-(BOLU) İlksel
2026.04.06,17:52:47,38.0920,35.1747,5.7,,1.9,,DUNDARLI-(NIGDE) İlksel
2026.04.06,18:31:18,39.5563,41.1500,10.3,,2.0,,AKDAMAR-TEKMAN (ERZURUM) İlksel
2026.04.06,18:46:05,39.0743,28.3398,19.3,,1.3,,KOBAKLAR-GORDES (MANISA) İlksel
2026.04.06,19:07:12,37.6128,32.1320,2.9,,1.6,,EVLIYATEKKE-MERAM (KONYA) İlksel
2026.04.06,19:28:53,36.7043,25.8112,6.2,,1.7,,EGE DENIZI İlksel
2026.04.06,19:58:39,37.0828,29.1242,3.7,,2.1,,YOLCATI-ACIPAYAM (DENIZLI) İlksel
2026.04.06,19:59:24,37.0848,29.1382,14.5,,2.3,,SUCATI-ACIPAYAM (DENIZLI) İlksel
2026.04.06,19:59:32,40.2547,37.8830,5.0,,2.0,,GOLCUK-KOYULHISAR (SIVAS) İlksel
2026.04.06,20:05:49,40.1940,37.8648,5.7,,2.0,,GUNISIK-KOYULHISAR (SIVAS) İlksel
2026.04.06,20:07:31,40.4893,30.4253,11.7,,1.3,,POYDALAR-TARAKLI (SAKARYA) İlksel
2026.04.06,20:36:17,37.0780,29.1313,12.7,,2.0,,SUCATI-ACIPAYAM (DENIZLI) İlksel
2026.04.06,20:38:17,40.4933,30.3960,9.2,,1.4,,BAGCAZ-GEYVE (SAKARYA) İlksel
2026.04.06,20:54:21,39.2540,29.0247,5.4,,1.7,,KATRANDAGI-EMET (KUTAHYA) İlksel
2026.04.06,20:55:43,40.8727,31.0920,16.3,,1.7,,ISHAKLAR-CILIMLI (DUZCE) İlksel
2026.04.06,21:11:53,40.1515,31.7433,6.0,,2.3,,CANTIRLI-BEYPAZARI (ANKARA) İlksel
2026.04.06,21:24:19,39.2508,29.0367,5.6,,2.1,,KATRANDAGI-EMET (KUTAHYA) İlksel
2026.04.06,21:28:53,38.0392,37.6960,5.5,,1.6,,BEGRE-DOGANSEHIR (MALATYA) İlksel
2026.04.06,21:29:35,38.9562,26.0163,9.3,,3.8,3.6,MIDILLI ADASI GUNEYI (EGE DENIZI) İlksel
2026.04.06,21:32:23,38.9777,25.9873,12.0,,2.3,,MIDILLI ADASI GUNEYI (EGE DENIZI) İlksel
2026.04.06,22:06:38,38.9212,26.5723,8.4,,2.1,,MIDILLI ADASI GUNEYI (EGE DENIZI) İlksel
2026.04.06,22:09:35,37.1490,28.5575,11.6,,1.8,,YAYLASOGUT-ULA (MUGLA) İlksel
2026.04.06,22:12:50,36.6627,25.6740,8.4,,1.4,,EGE DENIZI İlksel
2026.04.06,22:58:37,38.9793,25.9537,5.0,,2.3,,MIDILLI ADASI GUNEYI (EGE DENIZI) İlksel
2026.04.06,23:16:12,38.9933,25.9902,12.7,,1.6,,MIDILLI ADASI GUNEYI (EGE DENIZI) İlksel
2026.04.06,23:17:53,39.1232,28.1602,11.2,,1.4,,KINIK-SINDIRGI (BALIKESIR) İlksel
2026.04.06,23:27:45,39.2080,28.1208,9.3,,1.3,,KERTIL-SINDIRGI (BALIKESIR) İlksel
2026.04.06,23:50:30,38.9957,26.1190,23.6,,1.6,,MIDILLI ADASI GUNEYI (EGE DENIZI) İlksel
2026.04.07,00:31:32,39.2503,29.0032,5.5,,1.5,,YEMISLI-SIMAV (KUTAHYA) İlksel
2026.04.07,00:46:09,37.1440,30.9630,107.9,,1.5,,HACIOSMANLAR-SERIK (ANTALYA) İlksel
2026.04.07,00:54:58,40.4027,35.0830,19.7,,1.2,,SAZAK-(CORUM) İlksel
2026.04.07,01:28:15,39.2085,28.1097,13.1,,1.9,,KERTIL-SINDIRGI (BALIKESIR) İlksel
2026.04.07,02:00:30,38.7012,36.7313,7.6,,1.3,,CAVDAR-SARIZ (KAYSERI) İlksel
2026.04.07,02:07:16,40.9010,31.6447,14.6,,1.2,,YOGUNPELIT-YIGILCA (DUZCE) İlksel
2026.04.07,02:11:35,39.6283,27.8352,5.5,,1.4,,GOKKOY-(BALIKESIR) İlksel
2026.04.07,02:12:15,37.0860,29.1217,14.9,,1.9,,YOLCATI-ACIPAYAM (DENIZLI) İlksel
2026.04.07,02:20:00,37.9448,36.3102,5.1,,1.0,,HACIKODAL-GOKSUN (KAHRAMANMARAS) İlksel
2026.04.07,02:22:43,34.8568,28.9643,7.6,,2.1,,AKDENIZ İlksel
2026.04.07,02:42:32,37.2535,27.7895,7.5,,1.3,,BECIN-MILAS (MUGLA) İlksel
2026.04.07,02:47:09,38.4828,38.0305,18.8,,1.1,,KEKLIKPINARI-AKCADAG (MALATYA) İlksel
2026.04.07,03:00:28,39.2517,29.0358,14.2,,1.0,,KATRANDAGI-EMET (KUTAHYA) İlksel
2026.04.07,03:06:45,38.9872,26.0187,5.0,,1.9,,MIDILLI ADASI GUNEYI (EGE DENIZI) İlksel
2026.04.07,03:12:54,33.8208,34.8457,7.1,,2.9,,DOGU AKDENIZ İlksel
2026.04.07,03:17:13,35.6645,32.2900,10.3,,1.7,,AKDENIZ İlksel
2026.04.07,03:32:49,38.6902,39.9393,5.0,,1.5,,PALU (ELAZIG) İlksel
2026.04.07,03:49:11,38.5543,37.9617,10.5,,1.0,,IRIAGAC-YAZIHAN (MALATYA) İlksel
2026.04.07,03:56:29,39.5270,26.4342,9.2,,2.0,,SAZLI-AYVACIK (CANAKKALE) İlksel
2026.04.07,04:03:15,39.2133,28.9163,15.2,,1.0,,KOYUNOBA-SIMAV (KUTAHYA) İlksel
2026.04.07,04:09:31,36.0957,27.0512,7.3,,1.9,,EGE DENIZI İlksel
2026.04.07,04:13:00,40.7162,31.3537,9.2,,1.6,,BICKIYANI-KAYNASLI (DUZCE) İlksel
2026.04.07,04:21:52,37.9883,37.4093,9.0,,2.9,,NURHAK (KAHRAMANMARAS) İlksel
2026.04.07,04:26:03,37.0848,29.0955,10.8,,0.8,,YOLCATI-ACIPAYAM (DENIZLI) İlksel
2026.04.07,04:45:57,39.1218,28.2998,15.9,,1.5,,YUREGIL-SINDIRGI (BALIKESIR) İlksel
2026.04.07,04:48:48,37.0748,29.1373,15.9,,1.5,,SUCATI-ACIPAYAM (DENIZLI) İlksel
2026.04.07,04:49:58,39.1223,29.1468,9.1,,1.5,,INLICE-SIMAV (KUTAHYA) İlksel
2026.04.07,05:04:11,40.1873,31.7183,5.0,,2.0,,SEKLI-BEYPAZARI (ANKARA) İlksel
2026.04.07,05:13:00,38.0703,38.2773,9.2,,1.3,,KOSEUSAGI-CELIKHAN (ADIYAMAN) İlksel
2026.04.07,05:17:35,39.1795,28.1087,9.2,,1.8,,ORMANICI-SINDIRGI (BALIKESIR) İlksel
2026.04.07,05:20:43,39.2358,29.0337,14.1,,1.1,,KATRANDAGI-EMET (KUTAHYA) İlksel
2026.04.07,05:31:27,39.1177,28.3558,12.6,,1.2,,YAYLABAYIR-SINDIRGI (BALIKESIR) İlksel
2026.04.07,05:38:56,37.9685,38.2357,6.0,,2.1,,MESTAN-(ADIYAMAN) İlksel
2026.04.07,05:40:46,39.2065,28.0742,7.7,,1.2,,KERTIL-SINDIRGI (BALIKESIR) İlksel
2026.04.07,05:42:55,36.1453,27.2733,10.7,,1.8,,ONIKI ADALAR (EGE DENIZI) İlksel
2026.04.07,06:06:24,36.3438,33.8697,16.8,,0.8,,BAHCEDERESI-SILIFKE (MERSIN) İlksel
2026.04.07,06:18:22,37.8837,36.4537,8.8,,2.1,,DEGIRMENDERE-GOKSUN (KAHRAMANMARAS) İlksel
2026.04.07,06:27:18,37.7890,26.9192,14.4,,1.3,,SISAM ADASI (EGE DENIZI) İlksel
2026.04.07,06:40:15,39.1177,28.3422,9.6,,1.5,,YAYLABAYIR-SINDIRGI (BALIKESIR) İlksel
2026.04.07,06:42:07,37.8012,36.5697,7.9,,1.8,,KAYNAR-(KAHRAMANMARAS) İlksel
2026.04.07,07:00:56,38.8193,43.5558,13.7,,2.4,,AKCIFT-(VAN) İlksel
2026.04.07,07:01:48,39.1592,28.2340,16.0,,2.4,,BAYRAKLI-SINDIRGI (BALIKESIR) İlksel
2026.04.07,07:07:49,37.4342,35.7143,6.6,,1.4,,KARACAOREN-KOZAN (ADANA) İlksel
2026.04.07,07:10:44,39.1990,28.2200,5.1,,1.2,,ILICA-SINDIRGI (BALIKESIR) İlksel
2026.04.07,07:28:57,39.0895,28.3077,13.2,,1.4,,YUREGIL-SINDIRGI (BALIKESIR) İlksel
2026.04.07,07:31:04,40.4308,28.9310,8.4,,1.9,,GEMLIK KORFEZI (MARMARA DENIZI) İlksel
2026.04.07,07:54:16,37.3115,37.1337,8.9,,1.4,,HANOBASI-PAZARCIK (KAHRAMANMARAS) İlksel
2026.04.07,08:12:51,37.0807,28.1948,5.0,,1.8,,KIRAN-(MUGLA) İlksel
2026.04.07,08:25:42,36.0038,26.8012,10.9,,2.1,,EGE DENIZI İlksel
2026.04.07,08:45:31,37.9612,27.1305,8.8,,1.4,,KUSADASI KORFEZI (EGE DENIZI) İlksel
2026.04.07,09:32:23,40.8423,31.7468,10.8,,1.5,,BAGISLAR-(BOLU) İlksel
2026.04.07,09:45:06,37.2323,27.7925,7.4,,1.5,,ASLANYAKA-MILAS (MUGLA) İlksel
2026.04.07,09:53:34,38.0923,28.9487,10.4,,1.5,,HAMDIYE-GUNEY (DENIZLI) İlksel
2026.04.07,10:11:55,37.9277,36.2357,5.0,,2.4,,AKSAAGAC-SAIMBEYLI (ADANA) İlksel
2026.04.07,10:16:59,39.1948,27.9840,12.6,,2.8,,AKKOCALI-AKHISAR (MANISA) İlksel
2026.04.07,11:04:47,39.1128,27.5317,0.0,,1.7,,DEREKOY-SOMA (MANISA) İlksel
2026.04.07,11:34:33,38.0295,27.0028,5.2,,1.1,,KUSADASI KORFEZI (EGE DENIZI) İlksel
2026.04.07,11:58:41,38.3760,27.3083,4.9,,1.2,,GOKDERE-BORNOVA (IZMIR) İlksel
2026.04.07,12:02:23,38.0342,36.4500,6.2,,1.9,,CAGLAYAN-GOKSUN (KAHRAMANMARAS) İlksel
2026.04.07,12:27:05,36.6680,25.6758,10.9,,3.2,3.0,EGE DENIZI İlksel
2026.04.07,12:38:51,38.0570,28.9657,7.9,,3.9,3.8,YENICEKENT-BULDAN (DENIZLI) İlksel
2026.04.07,13:11:40,39.2338,28.1445,10.1,,2.6,,MANDIRA-SINDIRGI (BALIKESIR) İlksel
2026.04.07,13:40:41,38.0255,37.5118,6.2,,2.2,,TATLAR-NURHAK (KAHRAMANMARAS) İlksel
2026.04.07,14:38:55,39.2427,28.9757,14.2,,1.6,,YEMISLI-SIMAV (KUTAHYA) İlksel
2026.04.07,15:34:40,38.0680,28.9652,5.5,,2.4,,YENICEKENT-BULDAN (DENIZLI) İlksel
2026.04.07,15:48:10,36.6777,25.6692,12.7,,2.2,,EGE DENIZI İlksel
2026.04.07,15:59:51,35.9337,30.9325,9.5,,2.9,,AKDENIZ İlksel
2026.04.07,16:24:31,39.1613,28.3140,10.8,,1.9,,KUCUKDAGDERE-SINDIRGI (BALIKESIR) İlksel
2026.04.07,16:26:02,38.0545,28.9588,17.5,,1.9,,YENICEKENT-BULDAN (DENIZLI) İlksel
2026.04.07,16:42:40,39.1685,27.9388,9.1,,1.3,,YAYKIN-AKHISAR (MANISA) İlksel
2026.04.07,16:44:03,36.2492,27.1767,6.9,,2.1,,ONIKI ADALAR (EGE DENIZI) İlksel
2026.04.07,17:02:18,39.2298,28.0765,7.8,,1.5,,KOZLU-SINDIRGI (BALIKESIR) İlksel
2026.04.07,17:12:00,38.5485,43.9780,8.7,,2.5,,KASIKARA-OZALP (VAN) İlksel
2026.04.07,17:53:37,39.1463,28.4293,10.3,,1.5,,YAYLABAYIR-SINDIRGI (BALIKESIR) İlksel
2026.04.07,18:02:10,38.4743,38.0615,5.0,,1.3,,ILICAK-AKCADAG (MALATYA) İlksel
2026.04.07,18:17:31,37.1738,37.1518,0.0,,1.6,,CERITYENIYAPAN-SEHITKAMIL (GAZIANTEP) İlksel
2026.04.07,18:20:15,38.2570,37.7592,8.8,,2.0,,CEVIRME-AKCADAG (MALATYA) İlksel
2026.04.07,18:29:00,38.8217,43.5818,23.4,,2.1,,AKCIFT-(VAN) İlksel
2026.04.07,18:56:19,38.0388,28.9808,15.4,,1.9,,MAHMUTLU-BULDAN (DENIZLI) İlksel
2026.04.07,19:09:38,39.5228,25.8652,13.5,,1.7,,GULPINAR ACIKLARI-CANAKKALE (EGE DENIZI) İlksel
2026.04.07,19:52:45,35.0195,25.6872,23.1,,2.6,,GIRIT ADASI (AKDENIZ) İlksel
2026.04.07,20:11:17,39.9573,26.9240,10.7,,1.6,,GOLE-CAN (CANAKKALE) İlksel
2026.04.07,21:01:41,36.7242,25.5832,14.5,,1.8,,EGE DENIZI İlksel
2026.04.07,21:44:58,38.4440,39.0433,5.0,,2.1,,KULLUK-(ELAZIG) İlksel
2026.04.07,22:09:27,37.9287,36.2625,4.6,,1.6,,HACIKODAL-GOKSUN (KAHRAMANMARAS) İlksel
2026.04.07,22:37:38,38.7452,27.8875,2.1,,1.4,,HACIBASTANLAR-GOLMARMARA (MANISA) İlksel
2026.04.07,23:22:57,38.4583,39.0510,4.6,,2.1,,OKSUZUSAGI-(ELAZIG) İlksel
2026.04.07,23:34:07,38.3688,21.9822,19.7,,3.2,3.2,YUNANISTAN İlksel
2026.04.08,00:09:16,38.2618,37.7513,10.9,,2.3,,CEVIRME-AKCADAG (MALATYA) İlksel
2026.04.08,00:15:53,38.5125,37.2873,5.3,,1.8,,YENIKOY-DARENDE (MALATYA) İlksel
2026.04.08,01:20:23,38.8455,27.2055,5.0,,1.6,,YUNTDAGIKOSELER-(MANISA) İlksel
2026.04.08,01:21:45,36.6738,25.5692,5.0,,1.6,,EGE DENIZI İlksel
2026.04.08,01:29:15,40.3377,28.5507,8.0,,2.1,,CAMLICA-KARACABEY (BURSA) İlksel
2026.04.08,01:49:32,38.3085,27.8567,5.3,,1.5,,KIZILCA-ODEMIS (IZMIR) İlksel
2026.04.08,02:07:17,38.2947,27.9197,16.1,,1.3,,BEBEKLER-ODEMIS (IZMIR) İlksel
2026.04.08,02:39:45,40.4050,24.0433,8.0,,2.6,,YUNANISTAN İlksel
2026.04.08,02:44:03,38.1668,37.0085,5.0,,1.2,,ORTAKLI-AFSIN (KAHRAMANMARAS) İlksel
2026.04.08,02:47:39,39.1617,28.3522,12.4,,1.2,,YAYLABAYIR-SINDIRGI (BALIKESIR) İlksel
2026.04.08,02:52:40,37.9823,36.6038,5.4,,1.6,,KURUCAOVA-(KAHRAMANMARAS) İlksel
2026.04.08,03:12:23,40.8082,31.6568,9.7,,1.6,,CUKUROREN-(BOLU) İlksel
2026.04.08,03:14:56,38.0985,38.1742,12.4,,1.4,,YALINKAYA-YESILYURT (MALATYA) İlksel
2026.04.08,03:18:07,39.1343,28.2863,5.1,,1.2,,YUREGIL-SINDIRGI (BALIKESIR) İlksel
2026.04.08,03:18:26,37.9833,36.5860,13.9,,1.2,,KURUCAOVA-(KAHRAMANMARAS) İlksel
2026.04.08,03:26:04,39.0757,28.3690,12.3,,1.4,,KOBAKLAR-GORDES (MANISA) İlksel
2026.04.08,03:26:20,40.2305,31.7108,10.6,,1.7,,SEKLI-BEYPAZARI (ANKARA) İlksel
2026.04.08,03:41:41,37.0870,28.3395,5.8,,1.4,,KIZILAGAC-ULA (MUGLA) İlksel
2026.04.08,03:42:48,39.1723,28.1090,10.2,,1.2,,ORMANICI-SINDIRGI (BALIKESIR) İlksel
2026.04.08,04:02:33,38.2898,38.8038,10.4,,2.8,,BOLUKKAYA-PUTURGE (MALATYA) İlksel
2026.04.08,04:09:44,39.2435,29.0072,15.9,,1.1,,YEMISLI-SIMAV (KUTAHYA) İlksel
2026.04.08,04:14:05,40.0265,41.1647,15.3,,1.8,,KAVAKLIDERE-AZIZIYE (ERZURUM) İlksel
2026.04.08,04:24:15,40.6097,29.1703,11.4,,0.9,,TERMAL (YALOVA) İlksel
2026.04.08,04:37:18,39.1967,29.0343,18.7,,0.9,,KARACAOREN-SIMAV (KUTAHYA) İlksel
2026.04.08,04:38:43,38.5663,39.6802,6.8,,1.3,,KUMYAZI-MADEN (ELAZIG) İlksel
2026.04.08,04:58:40,36.9935,36.0177,21.9,,1.2,,HAMIDIYE-CEYHAN (ADANA) İlksel
2026.04.08,05:00:39,39.1315,28.3267,11.6,,1.4,,YUREGIL-SINDIRGI (BALIKESIR) İlksel
2026.04.08,05:22:45,37.1722,30.8753,84.9,,1.3,,AKCAPINAR-SERIK (ANTALYA) İlksel
2026.04.08,05:42:54,39.1438,28.1477,13.5,,1.7,,SINANDEDE-SINDIRGI (BALIKESIR) İlksel
2026.04.08,06:21:43,40.2017,31.7278,5.0,,1.9,,SEKLI-BEYPAZARI (ANKARA) İlksel
2026.04.08,06:21:43,40.1763,31.7403,9.7,,1.8,,HIRKATEPE-BEYPAZARI (ANKARA) İlksel
2026.04.08,06:23:36,39.9932,36.0758,9.4,,1.5,,SULUSARAY (TOKAT) İlksel
2026.04.08,06:27:18,37.8612,26.9367,8.8,,1.3,,KUSADASI KORFEZI (EGE DENIZI) İlksel
2026.04.08,06:31:06,39.1900,27.9837,14.0,,1.5,,AKKOCALI-AKHISAR (MANISA) İlksel
2026.04.08,06:41:17,40.8472,29.2895,8.3,,1.3,,TUZLA (ISTANBUL) İlksel
2026.04.08,06:42:21,36.4152,28.5108,19.7,,1.1,,AKDENIZ İlksel
2026.04.08,06:48:21,36.2707,28.4423,5.0,,2.0,,AKDENIZ İlksel
2026.04.08,07:17:56,39.2358,28.1462,12.3,,1.1,,MANDIRA-SINDIRGI (BALIKESIR) İlksel
2026.04.08,07:21:23,39.5655,27.7152,10.2,,3.2,,ERTUGRUL-(BALIKESIR) İlksel
2026.04.08,07:47:37,39.5557,27.7155,10.9,,3.4,,BAHCEDERE-(BALIKESIR) İlksel
2026.04.08,07:51:39,37.9535,36.2938,15.6,,1.5,,KAZANDERE-GOKSUN (KAHRAMANMARAS) İlksel
2026.04.08,08:11:55,39.1707,28.1062,10.2,,1.1,,ORMANICI-SINDIRGI (BALIKESIR) İlksel
2026.04.08,08:46:19,39.1075,28.3448,8.0,,2.2,,KOBAKLAR-GORDES (MANISA) İlksel
2026.04.08,09:04:37,38.2740,38.8163,3.2,,1.5,,AKTARLI-PUTURGE (MALATYA) İlksel
2026.04.08,09:36:18,38.2732,27.4348,8.3,,1.8,,KARAKIZLAR-TORBALI (IZMIR) İlksel
2026.04.08,09:47:41,38.5928,28.5127,5.0,,0.9,,GOKCEOREN-KULA (MANISA) İlksel
2026.04.08,09:54:22,36.6695,25.6800,10.4,,4.0,4.1,EGE DENIZI İlksel
2026.04.08,10:20:13,40.8160,34.1532,5.0,,4.1,4.0,AHACIK-BAYAT (CORUM) İlksel
2026.04.08,10:39:04,40.6400,36.7810,5.3,,2.2,,KUMBETLI-NIKSAR (TOKAT) İlksel
2026.04.08,10:43:53,35.9510,36.4695,1.6,,1.7,,SURIYE İlksel
2026.04.08,11:07:16,40.6905,29.2558,10.9,,1.6,,YALOVA ACIKLARI (MARMARA DENIZI) İlksel
2026.04.08,11:16:30,39.2160,28.1000,14.4,,1.3,,KERTIL-SINDIRGI (BALIKESIR) İlksel
2026.04.08,11:37:40,37.9275,27.6553,15.2,,1.6,,CARIKLAR-GERMENCIK (AYDIN) İlksel
2026.04.08,12:36:32,36.9728,33.7217,10.8,,3.0,,OZBOYNUINCELI-SILIFKE (MERSIN) İlksel
2026.04.08,12:57:23,36.3160,24.3073,28.1,,3.8,3.7,EGE DENIZI İlksel
2026.04.08,13:21:39,36.6390,25.9032,9.0,,1.5,,EGE DENIZI İlksel
2026.04.08,14:09:49,39.1068,28.9017,21.1,,1.0,,OREYLER-SIMAV (KUTAHYA) İlksel
2026.04.08,14:25:35,39.2243,29.0762,13.0,,1.4,,KATRANDAGI-EMET (KUTAHYA) İlksel
2026.04.08,14:28:05,39.2565,29.0087,7.8,,1.6,,YESILDERE-SIMAV (KUTAHYA) İlksel
2026.04.08,14:35:01,35.9525,22.4135,25.6,,4.7,5.0,AKDENIZ İlksel
2026.04.08,15:20:54,39.8903,39.6293,18.4,,1.3,,DEVEKORUSU-KELKIT (GUMUSHANE) İlksel
2026.04.08,15:28:46,38.4503,29.1293,5.0,,1.8,,GEDIKLER-ULUBEY (USAK) İlksel
2026.04.08,15:30:31,38.9583,28.5330,8.1,,2.0,,OKSUZLU-DEMIRCI (MANISA) İlksel
2026.04.08,16:18:15,36.3268,24.2708,2.7,,3.1,3.2,GIRIT ADASI (AKDENIZ) İlksel
2026.04.08,16:34:58,39.8913,40.7860,25.3,,2.1,,ABDALCIK-ASKALE (ERZURUM) İlksel
2026.04.08,16:41:52,39.2240,28.9933,11.5,,1.6,,YEMISLI-SIMAV (KUTAHYA) İlksel
2026.04.08,16:44:27,39.5618,29.3665,0.0,,1.6,,AYVALI-TAVSANLI (KUTAHYA) İlksel
2026.04.08,16:48:44,39.2188,28.9905,15.1,,1.2,,EGIRLER-SIMAV (KUTAHYA) İlksel
2026.04.08,17:51:49,37.2982,27.7323,0.0,,1.7,,SAVRAN-MILAS (MUGLA) İlksel
2026.04.08,18:07:05,40.6085,29.0545,5.0,,2.1,,TESVIKIYE-CINARCIK (YALOVA) İlksel
2026.04.08,18:10:02,37.3943,34.9593,18.8,,1.6,,BELEMEDIK-POZANTI (ADANA) İlksel
2026.04.08,18:12:41,39.2022,28.0940,8.2,,1.4,,KERTIL-SINDIRGI (BALIKESIR) İlksel
2026.04.08,18:26:00,39.1445,28.3067,9.5,,2.1,,YUREGIL-SINDIRGI (BALIKESIR) İlksel
2026.04.08,18:26:47,38.2643,38.6572,3.5,,2.1,,CAYKOY-PUTURGE (MALATYA) İlksel
2026.04.08,18:56:33,37.4775,28.6073,3.4,,1.6,,CAMOLUK-(MUGLA) İlksel
2026.04.08,19:02:28,39.2200,28.9558,14.9,,2.0,,YEMISLI-SIMAV (KUTAHYA) İlksel
2026.04.08,19:06:43,39.2352,28.9402,14.6,,1.5,,YENILER-SIMAV (KUTAHYA) İlksel
2026.04.08,20:00:56,37.6027,36.1053,5.0,,2.2,,ESENLI-SUMBAS (OSMANIYE) İlksel
2026.04.08,20:33:20,39.2563,29.0073,3.3,,1.3,,YESILDERE-SIMAV (KUTAHYA) İlksel
2026.04.08,20:35:38,36.4283,28.7773,26.3,,1.4,,AKDENIZ İlksel
2026.04.08,21:22:57,40.2845,31.7702,9.8,,2.1,,NUHHOCA-BEYPAZARI (ANKARA) İlksel
2026.04.08,21:44:37,38.0403,28.9767,5.0,,3.4,3.2,MAHMUTLU-BULDAN (DENIZLI) İlksel
2026.04.08,21:46:28,36.3957,24.2773,3.1,,2.3,,EGE DENIZI İlksel
2026.04.08,22:05:07,39.3878,40.6618,1.7,,2.5,,ELMALI-YEDISU (BINGOL) İlksel
2026.04.08,22:13:59,36.3020,24.3182,5.2,,2.6,,EGE DENIZI İlksel
2026.04.08,22:23:14,36.3622,24.2568,1.9,,2.9,,EGE DENIZI İlksel
2026.04.08,22:42:24,37.2237,28.2120,9.0,,1.3,,KAFACA-(MUGLA) İlksel
2026.04.08,23:01:44,37.1695,36.4380,6.6,,1.4,,KALECIK-HASANBEYLI (OSMANIYE) İlksel
2026.04.08,23:05:24,39.4578,26.1917,10.9,,1.8,,KOYUNEVI-AYVACIK (CANAKKALE) İlksel
2026.04.08,23:22:26,39.1103,28.3782,10.1,,1.4,,KOBAKLAR-GORDES (MANISA) İlksel
2026.04.08,23:52:54,36.6463,25.7428,9.6,,2.8,,EGE DENIZI İlksel
2026.04.09,00:10:10,40.3882,28.8587,6.8,,1.4,,MUDANYA (BURSA) İlksel
2026.04.09,00:19:22,39.1940,27.9038,8.6,,1.4,,DUALAR-KIRKAGAC (MANISA) İlksel
2026.04.09,00:22:06,39.2513,29.0352,11.5,,1.4,,KATRANDAGI-EMET (KUTAHYA) İlksel
2026.04.09,00:22:11,41.3438,33.5770,5.1,,2.0,,AHLATCIK-(KASTAMONU) İlksel
2026.04.09,00:24:02,36.7567,42.5258,5.0,,2.8,,IRAK İlksel
2026.04.09,00:27:48,40.4475,26.2988,20.9,,1.4,,SAROS KORFEZI (EGE DENIZI) İlksel
2026.04.09,00:49:46,42.5302,45.5055,5.0,,2.6,2.8,RUSYA İlksel
2026.04.09,01:22:25,38.1288,38.4022,8.5,,1.7,,SALKONAK-YESILYURT (MALATYA) İlksel
2026.04.09,01:45:55,36.3048,24.2607,3.9,,3.4,3.2,GIRIT ADASI (AKDENIZ) İlksel
2026.04.09,02:39:27,38.4350,30.5720,13.0,,1.3,,ATLIHISAR-SUHUT (AFYONKARAHISAR) İlksel
2026.04.09,03:19:18,36.6117,25.5032,15.7,,1.6,,EGE DENIZI İlksel
2026.04.09,03:35:32,37.3715,28.4110,5.0,,1.8,,MENTESE-KAVAKLIDERE (MUGLA) İlksel
2026.04.09,03:56:52,38.0895,28.9780,11.1,,1.6,,HAMDIYE-GUNEY (DENIZLI) İlksel
2026.04.09,03:58:30,38.1228,38.4927,20.2,,1.0,,AKSU-SINCIK (ADIYAMAN) İlksel
2026.04.09,04:15:35,37.6290,35.4415,8.8,,1.5,,DARILIK-ALADAG (ADANA) İlksel
2026.04.09,04:31:12,38.2502,38.1617,12.7,,1.6,,SEYITUSAGI-YESILYURT (MALATYA) İlksel
2026.04.09,04:31:58,37.1230,27.9562,5.3,,1.5,,YOGUNOLUK-MILAS (MUGLA) İlksel
2026.04.09,04:32:50,39.0520,27.5465,9.7,,1.7,,EGNEZ-SOMA (MANISA) İlksel
2026.04.09,04:46:11,40.9067,31.6760,16.8,,1.2,,MESCICELE-(BOLU) İlksel
2026.04.09,05:08:14,40.4842,29.2027,7.8,,1.6,,SAHINYURDU-GEMLIK (BURSA) İlksel
2026.04.09,05:31:57,39.6435,25.9178,7.5,,2.1,,TAVAKLI ACIKLARI-CANAKKALE (EGE DENIZI) İlksel
2026.04.09,05:43:24,38.3795,38.7717,5.4,,1.0,,TEPEKOY-KALE (MALATYA) İlksel
2026.04.09,05:49:23,38.1038,28.9755,22.6,,1.2,,HAMDIYE-GUNEY (DENIZLI) İlksel
2026.04.09,05:56:17,38.3382,38.7790,5.0,,1.4,,CANAKCI-KALE (MALATYA) İlksel
2026.04.09,06:13:00,39.2552,28.9920,11.1,,1.5,,YEMISLI-SIMAV (KUTAHYA) İlksel
2026.04.09,06:18:48,39.2022,28.0250,7.8,,1.1,,SAHINKAYA-SINDIRGI (BALIKESIR) İlksel
2026.04.09,06:38:01,38.3438,38.7927,5.0,,2.4,,CANAKCI-KALE (MALATYA) İlksel
2026.04.09,07:03:04,36.3728,24.2653,18.0,,2.7,,EGE DENIZI İlksel
2026.04.09,07:46:16,39.1202,28.2778,5.4,,1.0,,YUREGIL-SINDIRGI (BALIKESIR) İlksel
2026.04.09,08:08:02,37.8772,26.9193,8.3,,2.0,,KUSADASI KORFEZI (EGE DENIZI) İlksel
2026.04.09,09:07:00,39.2255,29.0270,16.0,,1.5,,EGIRLER-SIMAV (KUTAHYA) İlksel
2026.04.09,09:14:00,39.2468,29.0123,11.9,,1.4,,YEMISLI-SIMAV (KUTAHYA) İlksel
2026.04.09,09:20:04,38.1570,36.5463,5.0,,1.4,,KOMURKOY-GOKSUN (KAHRAMANMARAS) İlksel
2026.04.09,09:56:22,37.3590,28.4457,15.1,,2.5,,SENYAYLA-(MUGLA) İlksel
2026.04.09,09:59:26,39.4390,31.6047,0.0,,1.2,,TEKOREN-SIVRIHISAR (ESKISEHIR) İlksel
2026.04.09,10:01:26,39.0903,28.3735,11.6,,1.3,,KOBAKLAR-GORDES (MANISA) İlksel
2026.04.09,10:57:51,39.0640,42.8748,29.2,,2.0,,GENCALI-PATNOS (AGRI) İlksel
2026.04.09,11:03:05,39.1368,28.2088,12.1,,1.3,,AKTAS-SINDIRGI (BALIKESIR) İlksel
2026.04.09,12:20:00,39.8422,26.3347,5.4,,1.5,,KOPRUBASI-EZINE (CANAKKALE) İlksel
2026.04.09,13:39:27,39.1705,29.0552,26.2,,1.2,,KARACAOREN-SIMAV (KUTAHYA) İlksel
2026.04.09,13:50:17,39.6997,29.1713,8.3,,1.8,,HARMANCIK (BURSA) İlksel
2026.04.09,14:14:05,38.0202,28.9690,5.1,,1.8,,MAHMUTLU-BULDAN (DENIZLI) İlksel
2026.04.09,14:14:06,38.0548,28.9458,13.2,,1.7,,YENICEKENT-BULDAN (DENIZLI) İlksel
2026.04.09,14:46:13,38.9890,33.4690,5.0,,2.0,,SEREFLIKOCHISAR (ANKARA) İlksel
2026.04.09,14:46:16,38.4037,27.2197,9.7,,1.4,,GOKDERE-BORNOVA (IZMIR) İlksel
2026.04.09,15:08:59,40.4720,29.2227,10.0,,1.2,,SAHINYURDU-GEMLIK (BURSA) İlksel
2026.04.09,15:38:14,39.0722,26.9050,5.0,,1.8,,DIKILI (IZMIR) İlksel
2026.04.09,15:45:06,39.2025,28.1978,15.5,,1.0,,YAYLACIK-SINDIRGI (BALIKESIR) İlksel
2026.04.09,15:53:06,39.1770,28.2162,16.5,,1.4,,AKTAS-SINDIRGI (BALIKESIR) İlksel
2026.04.09,15:53:06,39.1737,28.2003,5.1,,1.5,,AKTAS-SINDIRGI (BALIKESIR) İlksel
2026.04.09,16:51:32,39.3385,29.3180,0.0,,1.2,,BAHATLAR-EMET (KUTAHYA) İlksel
2026.04.09,17:34:03,40.8232,29.2110,14.6,,1.4,,PENDIK (ISTANBUL) İlksel
2026.04.09,17:35:20,39.8200,30.2758,4.8,,1.4,,OKLUBALI-INONU (ESKISEHIR) İlksel
2026.04.09,17:49:45,39.1847,28.2097,10.6,,2.6,,AKTAS-SINDIRGI (BALIKESIR) İlksel
2026.04.09,18:03:37,39.1802,28.2200,10.2,,2.0,,AKTAS-SINDIRGI (BALIKESIR) İlksel
2026.04.09,18:30:29,38.0943,38.4795,4.8,,1.4,,KARAKOSE-SINCIK (ADIYAMAN) İlksel
2026.04.09,18:42:01,39.1382,28.2998,9.3,,1.8,,YUREGIL-SINDIRGI (BALIKESIR) İlksel
2026.04.09,19:06:45,38.1457,28.9132,22.5,,1.3,,TURLUBEY-BULDAN (DENIZLI) İlksel
2026.04.09,19:29:05,39.1428,29.1475,13.1,,0.8,,INLICE-SIMAV (KUTAHYA) İlksel
2026.04.09,19:46:15,37.9367,38.0153,15.9,,1.1,,RESADIYE-DOGANSEHIR (MALATYA) İlksel
2026.04.09,19:52:02,39.2278,29.0267,11.1,,1.8,,EGIRLER-SIMAV (KUTAHYA) İlksel
2026.04.09,20:11:36,39.2298,29.0273,14.4,,1.8,,EGIRLER-SIMAV (KUTAHYA) İlksel
2026.04.09,20:16:42,37.9075,36.2075,6.4,,1.8,,AKSAAGAC-SAIMBEYLI (ADANA) İlksel
2026.04.09,20:21:54,40.2745,31.7162,2.8,,1.8,,DUDAS-BEYPAZARI (ANKARA) İlksel
2026.04.09,21:09:49,39.3118,28.9193,5.2,,1.1,,ORTACA-SIMAV (KUTAHYA) İlksel
2026.04.09,21:39:43,40.8025,27.8465,1.9,,1.8,,MARMARA DENIZI İlksel
2026.04.09,21:43:03,39.1537,28.1812,11.3,,1.7,,AKTAS-SINDIRGI (BALIKESIR) İlksel
2026.04.09,21:44:11,41.1608,43.9613,1.7,,3.2,3.3,ERMENISTAN İlksel
2026.04.09,21:47:35,39.0738,28.0823,10.4,,1.4,,KOCAKAGAN-AKHISAR (MANISA) İlksel
2026.04.09,21:48:30,39.1510,28.2250,11.6,,1.8,,BAYRAKLI-SINDIRGI (BALIKESIR) İlksel
2026.04.09,21:51:33,38.4002,38.9373,2.6,,3.4,3.4,HACIHUSEYINLER-BASKIL (ELAZIG) İlksel
2026.04.09,22:37:47,37.9027,36.1757,5.0,,2.2,,EYUPLU-SAIMBEYLI (ADANA) İlksel
2026.04.09,22:45:47,38.0975,28.9812,4.7,,1.6,,HAMDIYE-GUNEY (DENIZLI) İlksel
2026.04.09,22:58:44,38.0370,37.5930,3.0,,2.0,,GOVDELI-DOGANSEHIR (MALATYA) İlksel
2026.04.09,23:01:57,36.3372,24.2762,12.0,,2.9,,EGE DENIZI İlksel
2026.04.09,23:06:07,39.2307,29.0960,1.4,,1.3,,KARAAGIL-HISARCIK (KUTAHYA) İlksel
2026.04.09,23:16:36,38.4612,31.7647,5.0,,1.8,,KONARI-TUZLUKCU (KONYA) İlksel
2026.04.09,23:23:00,37.8882,29.3880,10.7,,1.2,,KARAPINAR-CAL (DENIZLI) İlksel
2026.04.09,23:23:35,39.3740,27.8310,7.3,,1.7,,CAKILLIK (BALIKESIR) İlksel
2026.04.09,23:51:25,40.4832,29.1998,8.0,,1.4,,SAHINYURDU-GEMLIK (BURSA) İlksel
2026.04.10,00:27:00,38.1870,27.6945,21.6,,1.6,,BURUNCUK-BAYINDIR (IZMIR) İlksel
2026.04.10,00:42:10,36.6707,25.6417,5.2,,1.2,,EGE DENIZI İlksel
2026.04.10,00:55:18,42.4353,34.6335,7.7,,2.1,,SINOP ACIKLARI (KARADENIZ) İlksel
2026.04.10,01:14:07,40.8703,31.5585,11.5,,1.6,,KOZLU (BOLU) İlksel
2026.04.10,01:16:57,40.6390,29.0970,13.3,,0.7,,CINARCIK (YALOVA) İlksel
2026.04.10,01:41:47,38.1363,36.7175,3.2,,2.0,,KARAOMER-GOKSUN (KAHRAMANMARAS) İlksel
2026.04.10,01:44:18,38.1990,26.6867,8.4,,1.9,,DEMIRCILI-URLA (IZMIR) İlksel
2026.04.10,01:52:21,37.2925,37.0520,6.6,,1.5,,KARAHUYUK-PAZARCIK (KAHRAMANMARAS) İlksel
2026.04.10,01:56:39,39.2508,29.0067,11.2,,1.4,,YEMISLI-SIMAV (KUTAHYA) İlksel
2026.04.10,02:16:20,39.2030,28.9072,13.0,,1.3,,ORENLI-SIMAV (KUTAHYA) İlksel
2026.04.10,02:16:43,38.8360,33.9847,2.2,,1.6,,DADILAR-AGACOREN (AKSARAY) İlksel
2026.04.10,02:19:38,39.1870,28.1777,8.7,,1.8,,YAYLACIK-SINDIRGI (BALIKESIR) İlksel
2026.04.10,02:34:46,38.8387,33.9513,5.0,,1.8,,KEDERLI-AGACOREN (AKSARAY) İlksel
2026.04.10,02:35:56,40.7955,27.9465,5.0,,1.4,,MARMARA DENIZI İlksel
2026.04.10,02:38:52,36.6477,29.3373,5.4,,1.4,,ZORLAR-FETHIYE (MUGLA) İlksel
2026.04.10,02:46:23,39.3732,28.8923,7.9,,1.6,,INKAYA-SIMAV (KUTAHYA) İlksel
2026.04.10,02:48:06,39.2183,28.0625,19.0,,0.9,,ALAKIR-SINDIRGI (BALIKESIR) İlksel
2026.04.10,02:59:11,38.8572,43.6548,5.0,,2.3,,KELLE (VAN) İlksel
2026.04.10,03:05:20,39.9407,39.5700,10.7,,1.5,,KARACAOREN-KELKIT (GUMUSHANE) İlksel
2026.04.10,03:05:51,39.2055,27.9275,6.9,,1.5,,DUALAR-KIRKAGAC (MANISA) İlksel
2026.04.10,03:07:43,39.9192,39.5412,9.3,,2.0,,GUZYURDU-KELKIT (GUMUSHANE) İlksel
2026.04.10,03:24:26,38.8137,33.9640,5.0,,2.1,,KEDERLI-AGACOREN (AKSARAY) İlksel
2026.04.10,03:33:12,37.9097,27.6207,7.8,,1.1,,DAGKARAAGAC-GERMENCIK (AYDIN) İlksel
2026.04.10,03:57:42,40.5898,27.6408,14.8,,1.0,,TOPAGAC-MARMARA (BALIKESIR) İlksel
2026.04.10,04:07:59,40.2385,25.2433,6.2,,1.2,,EGE DENIZI İlksel
2026.04.10,04:10:01,38.3890,27.1437,13.3,,0.9,,KARABAGLAR (IZMIR) İlksel
2026.04.10,04:50:40,39.1825,28.0337,15.2,,1.0,,SOGUTLU-AKHISAR (MANISA) İlksel
2026.04.10,04:54:11,39.2552,28.9968,9.4,,2.1,,YEMISLI-SIMAV (KUTAHYA) İlksel
2026.04.10,04:56:10,39.2380,29.0120,18.7,,1.0,,YEMISLI-SIMAV (KUTAHYA) İlksel
2026.04.10,04:59:01,39.2340,29.0195,14.8,,1.2,,YEMISLI-SIMAV (KUTAHYA) İlksel
2026.04.10,05:02:19,39.1318,28.3317,7.1,,1.5,,YUREGIL-SINDIRGI (BALIKESIR) İlksel
2026.04.10,05:31:52,38.0643,28.9582,4.8,,1.2,,YENICEKENT-BULDAN (DENIZLI) İlksel
2026.04.10,05:45:52,37.9265,27.3942,9.3,,1.2,,ACARLAR-SELCUK (IZMIR) İlksel
2026.04.10,05:58:12,38.8108,33.9890,5.3,,1.7,,HACIAHMETLITEPEKOY-AGACOREN (AKSARAY) İlksel
2026.04.10,06:06:22,39.6318,38.1867,7.9,,1.1,,CAYOZU-DIVRIGI (SIVAS) İlksel
2026.04.10,06:28:48,36.5835,36.0710,13.2,,1.3,,KARAAGAC-ARSUZ (HATAY) İlksel
2026.04.10,06:55:56,40.2373,35.3325,6.7,,1.8,,INCESU-ORTAKOY (CORUM) İlksel
2026.04.10,07:01:49,36.5625,25.4463,10.8,,2.2,,EGE DENIZI İlksel
2026.04.10,07:12:28,39.8193,41.9395,8.6,,2.0,,GUZELHISAR-KOPRUKOY (ERZURUM) İlksel
2026.04.10,07:15:57,39.0005,32.5378,7.3,,1.8,,CIMEN-CIHANBEYLI (KONYA) İlksel
2026.04.10,08:05:11,39.4757,36.7340,8.9,,2.2,,KAYADIBI (SIVAS) İlksel
2026.04.10,08:26:07,39.0903,28.3780,5.2,,1.4,,KOBAKLAR-GORDES (MANISA) İlksel
2026.04.10,08:35:19,35.7013,26.1740,20.9,,3.4,3.3,EGE DENIZI İlksel
2026.04.10,08:51:45,40.8770,28.3345,24.3,,1.9,,MARMARA DENIZI İlksel
2026.04.10,08:59:27,38.0738,37.5247,4.6,,1.4,,TATLAR-NURHAK (KAHRAMANMARAS) İlksel
2026.04.10,09:08:54,38.5747,26.5002,4.4,,2.5,,YAYLAKOY-KARABURUN (IZMIR) İlksel
2026.04.10,09:11:41,36.4562,31.3253,23.2,,2.1,,ANTALYA KORFEZI (AKDENIZ) İlksel
2026.04.10,09:27:17,36.0533,36.1178,7.0,,2.5,,SENKOY (HATAY) İlksel
2026.04.10,10:23:25,38.8235,38.7403,11.2,,1.5,,KEBAN (ELAZIG) İlksel
2026.04.10,10:33:57,37.3775,35.1343,6.0,,2.0,,CUKUR-KARAISALI (ADANA) İlksel
2026.04.10,10:33:57,37.3510,35.1338,5.1,,1.9,,CUKUR-KARAISALI (ADANA) İlksel
2026.04.10,10:45:31,36.7565,28.5737,12.7,,1.3,,DALYAN ACIKLARI-MUGLA (AKDENIZ) İlksel
2026.04.10,11:25:27,38.8610,30.5330,13.3,,1.7,,CAYIRBAG (AFYONKARAHISAR) İlksel
2026.04.10,11:26:36,40.4408,29.2160,0.0,,2.0,,CIHATLI-GEMLIK (BURSA) İlksel
2026.04.10,11:47:49,39.8318,26.2755,0.0,,1.3,,CAMKOY-EZINE (CANAKKALE) İlksel
2026.04.10,11:56:45,39.1327,28.4010,5.2,,1.5,,YAYLABAYIR-SINDIRGI (BALIKESIR) İlksel
2026.04.10,12:30:47,36.2763,33.7292,0.0,,1.3,,AKDERE-SILIFKE (MERSIN) İlksel
2026.04.10,12:40:53,37.1367,27.9492,0.0,,1.9,,YOGUNOLUK-MILAS (MUGLA) İlksel
2026.04.10,13:04:01,38.0968,38.4587,8.3,,1.7,,KARAKOSE-SINCIK (ADIYAMAN) İlksel
2026.04.10,13:21:27,39.1217,28.3525,15.9,,1.3,,YAYLABAYIR-SINDIRGI (BALIKESIR) İlksel
2026.04.10,13:26:49,36.1618,33.5572,0.0,,0.8,,BUYUKECELI-GULNAR (MERSIN) İlksel
2026.04.10,13:28:37,40.3068,26.7692,4.7,,1.2,,SAHINLI-LAPSEKI (CANAKKALE) İlksel
2026.04.10,13:32:17,36.9112,27.7457,11.6,,1.5,,GOKOVA KORFEZI (EGE DENIZI) İlksel
2026.04.10,13:40:15,39.2317,28.3648,5.2,,1.4,,ALAYAKA-SINDIRGI (BALIKESIR) İlksel
2026.04.10,13:53:32,39.4680,28.2195,23.9,,1.6,,EMIRLER-BIGADIC (BALIKESIR) İlksel
2026.04.10,15:20:29,38.1158,38.6013,9.0,,2.0,,TEKEDERESI-PUTURGE (MALATYA) İlksel
2026.04.10,15:49:38,39.1895,28.1475,18.7,,2.2,,ORMANICI-SINDIRGI (BALIKESIR) İlksel
2026.04.10,16:01:08,39.1657,28.2673,8.5,,1.6,,ISIKLAR-SINDIRGI (BALIKESIR) İlksel
2026.04.10,16:02:04,39.0792,28.3415,11.9,,1.4,,KOBAKLAR-GORDES (MANISA) İlksel
2026.04.10,16:02:04,39.0752,28.3372,5.3,,1.4,,KOBAKLAR-GORDES (MANISA) İlksel
2026.04.10,16:05:13,39.1440,28.2908,7.5,,2.9,,YUREGIL-SINDIRGI (BALIKESIR) İlksel
2026.04.10,16:19:05,39.1430,28.2940,16.7,,1.6,,YUREGIL-SINDIRGI (BALIKESIR) İlksel
2026.04.10,16:27:03,36.8107,27.2655,9.3,,1.8,,KOS ADASI (EGE DENIZI) İlksel
2026.04.10,16:49:55,39.3207,26.1912,5.4,,1.5,,MIDILLI ADASI (EGE DENIZI) İlksel
2026.04.10,17:00:02,40.3047,41.6877,9.7,,2.5,,KARAPINAR-NARMAN (ERZURUM) İlksel
2026.04.10,17:03:22,39.6537,27.9315,5.0,,2.9,,HALALCA (BALIKESIR) İlksel
2026.04.10,17:30:43,38.8648,26.5228,6.3,,1.9,,MIDILLI ADASI GUNEYI (EGE DENIZI) İlksel
2026.04.10,17:47:57,37.2882,36.8042,11.5,,1.6,,BEYOGLU-TURKOGLU (KAHRAMANMARAS) İlksel
2026.04.10,18:12:03,39.9717,27.6447,14.9,,1.6,,SEBEPLI-GONEN (BALIKESIR) İlksel
2026.04.10,19:12:51,40.0942,41.9150,5.0,,1.8,,ORTAKLAR-KOPRUKOY (ERZURUM) İlksel
2026.04.10,19:47:07,37.8917,36.4762,5.0,,2.7,,DEGIRMENDERE-GOKSUN (KAHRAMANMARAS) İlksel
2026.04.10,19:47:15,39.2187,28.0775,8.8,,1.6,,KERTIL-SINDIRGI (BALIKESIR) İlksel
2026.04.10,19:48:49,39.2207,28.1380,17.7,,1.5,,MANDIRA-SINDIRGI (BALIKESIR) İlksel
2026.04.10,20:24:21,39.2163,29.0008,14.6,,1.0,,EGIRLER-SIMAV (KUTAHYA) İlksel
2026.04.10,20:34:06,40.2285,31.7453,15.5,,1.7,,KOZAGAC-BEYPAZARI (ANKARA) İlksel
2026.04.10,21:37:03,39.1868,28.1320,11.8,,1.3,,ORMANICI-SINDIRGI (BALIKESIR) İlksel
2026.04.10,21:45:42,36.3978,35.4720,15.5,,2.2,,ISKENDERUN KORFEZI (AKDENIZ) İlksel
2026.04.10,22:03:02,39.9280,27.2753,11.6,,1.6,,YENICE (CANAKKALE) İlksel
2026.04.10,22:11:07,39.5703,27.9213,7.0,,1.6,,KUCUKBOSTANCI (BALIKESIR) İlksel
2026.04.10,22:12:48,38.7857,27.1613,5.2,,1.5,,DUZLEN (MANISA) İlksel
2026.04.10,22:21:39,37.3768,36.2317,5.0,,2.3,,DURMUSSOFULAR-KADIRLI (OSMANIYE) İlksel
2026.04.10,22:23:16,39.5698,28.8833,5.4,,2.1,,DOGANCILAR-DURSUNBEY (BALIKESIR) İlksel
2026.04.10,22:25:27,37.3522,36.2265,2.3,,2.5,,BEKERECI-KADIRLI (OSMANIYE) İlksel
2026.04.10,23:11:28,39.5142,28.8335,2.5,,1.5,,SARISIPAHILER-DURSUNBEY (BALIKESIR) İlksel
2026.04.10,23:55:32,36.8797,27.3713,2.8,,1.4,,GOKOVA KORFEZI (EGE DENIZI) İlksel
2026.04.11,00:00:54,37.6773,35.3837,11.2,,1.3,,YETIMLI-ALADAG (ADANA) İlksel
2026.04.11,00:02:38,37.8883,36.5307,8.6,,1.6,,KUMARLI (KAHRAMANMARAS) İlksel
2026.04.11,00:47:30,39.8592,40.9250,17.0,,1.1,,YUKARIYENICE-PALANDOKEN (ERZURUM) İlksel
2026.04.11,00:51:42,38.0187,37.0152,4.4,,1.3,,KABAKTEPE-EKINOZU (KAHRAMANMARAS) İlksel
2026.04.11,00:56:33,35.7073,30.5745,19.2,,1.9,,AKDENIZ İlksel
2026.04.11,00:58:51,40.1872,28.9157,3.8,,0.9,,YAYLACIK-NILUFER (BURSA) İlksel
2026.04.11,01:16:29,37.8022,36.4055,24.9,,1.4,,GEBEN-ANDIRIN (KAHRAMANMARAS) İlksel
2026.04.11,01:17:24,38.1058,37.1162,5.2,,1.4,,ORTAOREN-EKINOZU (KAHRAMANMARAS) İlksel
2026.04.11,01:19:16,40.7680,31.8807,2.6,,1.0,,BUNUS (BOLU) İlksel
2026.04.11,01:22:21,41.6718,23.0850,5.0,,2.8,,BULGARISTAN İlksel
2026.04.11,01:27:48,38.6212,44.1487,2.3,,1.6,,DOLUTAS-SARAY (VAN) İlksel
2026.04.11,01:38:53,36.8312,27.2763,4.0,,1.3,,KOS ADASI (EGE DENIZI) İlksel
2026.04.11,01:54:24,37.4655,28.7130,5.5,,1.5,,CAKIRBAG-KALE (DENIZLI) İlksel
2026.04.11,02:18:42,38.1993,37.7932,16.0,,1.0,,CAVUSLU-DOGANSEHIR (MALATYA) İlksel
2026.04.11,02:19:37,39.1007,28.3090,5.3,,0.9,,YUREGIL-SINDIRGI (BALIKESIR) İlksel
2026.04.11,02:20:57,39.0797,28.3843,13.2,,1.3,,KOBAKLAR-GORDES (MANISA) İlksel
2026.04.11,02:22:20,38.2938,38.1928,11.0,,0.8,,IKIZCE-YESILYURT (MALATYA) İlksel
2026.04.11,02:23:09,37.7707,35.6950,5.8,,1.1,,ORTAKOY-FEKE (ADANA) İlksel
2026.04.11,02:32:53,39.2608,27.9808,4.8,,1.3,,EGRIDERE-SINDIRGI (BALIKESIR) İlksel
2026.04.11,02:35:34,39.1798,29.0420,22.7,,1.0,,KARACAOREN-SIMAV (KUTAHYA) İlksel
2026.04.11,02:36:09,40.3850,27.2665,7.5,,1.0,,KARABIGA-BIGA (CANAKKALE) İlksel
2026.04.11,02:36:52,36.0462,27.6220,5.0,,1.9,,EGE DENIZI İlksel
2026.04.11,02:47:35,39.7652,41.3788,4.8,,1.2,,GECITKOY-TEKMAN (ERZURUM) İlksel
2026.04.11,02:54:52,37.2168,29.1593,3.9,,1.1,,BENLIK-ACIPAYAM (DENIZLI) İlksel
2026.04.11,03:12:45,37.8235,36.4400,5.2,,1.1,,GEBEN-ANDIRIN (KAHRAMANMARAS) İlksel
2026.04.11,03:16:03,37.5705,36.1437,6.4,,1.4,,KOSEPINARI-KADIRLI (OSMANIYE) İlksel
2026.04.11,03:19:09,37.8363,36.4617,4.2,,1.5,,GEBEN-ANDIRIN (KAHRAMANMARAS) İlksel
2026.04.11,03:20:41,38.4475,36.5803,2.0,,0.7,,CAGSAK-SARIZ (KAYSERI) İlksel
2026.04.11,03:40:34,39.2185,28.2230,13.5,,1.6,,ILICA-SINDIRGI (BALIKESIR) İlksel
2026.04.11,03:42:06,38.2718,27.9485,14.5,,0.8,,GUNLUCE-ODEMIS (IZMIR) İlksel
2026.04.11,03:50:02,40.2627,27.4420,10.5,,0.5,,KURUOBA-BIGA (CANAKKALE) İlksel
2026.04.11,04:18:49,37.8585,27.2682,11.9,,1.1,,KUSADASI (AYDIN) İlksel
2026.04.11,04:26:14,39.1327,28.3368,5.4,,0.8,,YUREGIL-SINDIRGI (BALIKESIR) İlksel
2026.04.11,04:27:53,38.9218,26.6480,8.2,,1.5,,MIDILLI ADASI GUNEYI (EGE DENIZI) İlksel
2026.04.11,04:28:08,40.5027,36.7920,7.7,,1.1,,ORMANBEYLI (TOKAT) İlksel
2026.04.11,04:33:25,39.0528,38.7898,13.9,,1.2,,ASAGIDEMIRBUK-CEMISGEZEK (TUNCELI) İlksel
2026.04.11,04:35:59,37.3642,27.0023,6.3,,1.9,,EGE DENIZI İlksel
2026.04.11,04:42:35,39.0607,28.1448,18.3,,1.1,,HANPASA-AKHISAR (MANISA) İlksel
2026.04.11,04:47:21,37.9090,36.5583,5.9,,1.4,,KURUCAOVA (KAHRAMANMARAS) İlksel
2026.04.11,05:12:07,39.1438,28.2412,12.6,,1.9,,BAYRAKLI-SINDIRGI (BALIKESIR) İlksel
2026.04.11,05:32:16,37.8865,36.4440,5.5,,1.6,,BUYUKCAMURLU-GOKSUN (KAHRAMANMARAS) İlksel
2026.04.11,05:46:56,39.1388,28.1507,5.0,,1.3,,SINANDEDE-SINDIRGI (BALIKESIR) İlksel
2026.04.11,05:51:00,38.6185,36.2753,4.4,,0.9,,BUYUKKARAMANLI-PINARBASI (KAYSERI) İlksel
2026.04.11,05:58:44,38.3005,38.7937,5.0,,2.2,,BOLUKKAYA-PUTURGE (MALATYA) İlksel
2026.04.11,06:10:40,37.8680,36.2350,7.6,,2.1,,KARAKUYU-SAIMBEYLI (ADANA) İlksel
2026.04.11,06:13:41,41.4448,32.4717,5.4,,1.7,,KUMLUCA-ULUS (BARTIN) İlksel
2026.04.11,06:13:50,37.0500,27.8857,11.5,,1.6,,TURKEVLERI-MILAS (MUGLA) İlksel
2026.04.11,06:29:10,39.2535,28.1758,5.5,,1.2,,SINDIRGI (BALIKESIR) İlksel
2026.04.11,06:30:35,38.2707,38.8157,18.4,,1.3,,AKTARLI-PUTURGE (MALATYA) İlksel
2026.04.11,06:37:03,38.0567,37.1060,7.9,,1.1,,KANDILKOY-EKINOZU (KAHRAMANMARAS) İlksel
2026.04.11,06:44:26,37.9917,35.9227,5.0,,1.3,,CORAK-SAIMBEYLI (ADANA) İlksel
2026.04.11,07:02:30,40.1848,31.7458,2.6,,2.2,,HIRKATEPE-BEYPAZARI (ANKARA) İlksel
2026.04.11,07:30:02,39.2742,28.9552,4.9,,0.8,,KARAKOCA-SIMAV (KUTAHYA) İlksel
2026.04.11,07:42:24,37.9380,36.3660,3.2,,1.2,,YOGUNOLUK-GOKSUN (KAHRAMANMARAS) İlksel
2026.04.11,07:51:43,37.9407,36.5815,5.0,,1.2,,KURUCAOVA (KAHRAMANMARAS) İlksel
2026.04.11,07:53:35,38.3698,38.2995,10.7,,1.4,,MALATYA (MALATYA) İlksel
2026.04.11,07:55:37,39.2687,41.5032,9.8,,1.5,,CALTILI-VARTO (MUS) İlksel
2026.04.11,08:01:31,36.5960,25.8210,6.4,,1.7,,EGE DENIZI İlksel
2026.04.11,08:02:11,39.2540,29.0092,5.0,,1.2,,YESILDERE-SIMAV (KUTAHYA) İlksel
2026.04.11,08:16:28,37.3848,31.1237,106.6,,1.9,,BEYDILI-SUTCULER (ISPARTA) İlksel
2026.04.11,08:30:07,40.8307,29.2968,8.2,,1.3,,TUZLA (ISTANBUL) İlksel
2026.04.11,08:43:01,39.1812,28.1648,10.5,,1.4,,SINANDEDE-SINDIRGI (BALIKESIR) İlksel
2026.04.11,08:50:47,39.2048,28.1345,8.0,,1.8,,ORMANICI-SINDIRGI (BALIKESIR) İlksel
2026.04.11,09:14:59,38.0687,28.9627,11.8,,2.0,,YENICEKENT-BULDAN (DENIZLI) İlksel
2026.04.11,09:18:36,40.1697,27.4223,5.9,,1.5,,TAHTALI-GONEN (BALIKESIR) İlksel
2026.04.11,09:23:32,40.7237,27.6588,18.4,,1.1,,MARMARA DENIZI İlksel
2026.04.11,09:36:53,39.1638,28.8937,12.7,,1.6,,GOLKOY-SIMAV (KUTAHYA) İlksel
2026.04.11,10:05:21,40.2667,24.1365,5.4,,2.7,,YUNANISTAN İlksel
2026.04.11,10:06:06,40.8393,29.3058,6.9,,1.5,,TUZLA (ISTANBUL) İlksel
2026.04.11,10:11:13,40.8197,29.3215,7.0,,1.5,,TUZLA (ISTANBUL) İlksel
2026.04.11,10:26:04,40.8437,29.3025,8.0,,1.7,,TUZLA (ISTANBUL) İlksel
2026.04.11,10:57:28,40.8285,29.2852,8.7,,1.9,,TUZLA (ISTANBUL) İlksel
2026.04.11,10:59:04,40.8332,29.2860,8.7,,1.5,,TUZLA (ISTANBUL) İlksel
2026.04.11,11:57:47,36.5788,32.0485,2.9,,1.7,,DEGIRMENDERE-ALANYA (ANTALYA) İlksel
2026.04.11,12:02:21,36.2673,33.7492,9.2,,1.2,,AKDERE-SILIFKE (MERSIN) İlksel
2026.04.11,12:33:02,39.1323,28.3078,11.5,,2.7,,YUREGIL-SINDIRGI (BALIKESIR) İlksel
2026.04.11,12:51:12,40.3975,29.9763,5.0,,0.7,,SELCIK-OSMANELI (BILECIK) İlksel
2026.04.11,13:10:47,39.6223,39.6387,5.1,,1.9,,YALINCA (ERZINCAN) İlksel
2026.04.11,13:20:36,39.9187,40.8155,5.9,,2.2,,KANDILLI-ASKALE (ERZURUM) İlksel
2026.04.11,13:28:04,36.5678,25.7463,6.1,,1.8,,EGE DENIZI İlksel
2026.04.11,13:41:57,39.1223,28.2925,11.6,,1.9,,YUREGIL-SINDIRGI (BALIKESIR) İlksel
2026.04.11,13:47:09,39.1755,28.1780,9.9,,1.2,,AKTAS-SINDIRGI (BALIKESIR) İlksel
2026.04.11,13:56:31,36.0298,32.8185,4.3,,1.3,,OREN-ANAMUR (MERSIN) İlksel
2026.04.11,14:05:43,39.2600,29.3287,10.1,,1.5,,SEYHCAKIR-HISARCIK (KUTAHYA) İlksel
2026.04.11,14:16:30,36.7788,33.6957,23.5,,2.1,,KICAKOY-SILIFKE (MERSIN) İlksel
2026.04.11,14:24:02,36.1855,33.7223,5.0,,1.2,,YESILOVACIK-SILIFKE (MERSIN) İlksel
2026.04.11,14:32:10,38.2473,38.1738,11.2,,2.0,,SEYITUSAGI-YESILYURT (MALATYA) İlksel
2026.04.11,15:08:50,38.5967,31.4048,5.3,,1.7,,UCKUYU-SULTANDAGI (AFYONKARAHISAR) İlksel
2026.04.11,15:19:01,40.7860,29.4152,5.0,,1.3,,ESKIHISAR-GEBZE (KOCAELI) İlksel
2026.04.11,15:32:43,40.0120,41.7533,8.2,,1.8,,ARDICLI-PASINLER (ERZURUM) İlksel
2026.04.11,15:47:26,37.0873,28.3483,7.7,,2.2,,KIZILAGAC-ULA (MUGLA) İlksel
2026.04.11,16:15:36,39.2430,29.0002,5.4,,2.9,,YEMISLI-SIMAV (KUTAHYA) İlksel
2026.04.11,16:16:08,39.2437,28.9858,6.8,,2.4,,YEMISLI-SIMAV (KUTAHYA) İlksel
2026.04.11,16:45:52,39.1623,28.1803,9.8,,1.8,,AKTAS-SINDIRGI (BALIKESIR) İlksel
2026.04.11,16:59:04,39.2567,28.9087,8.1,,1.3,,KAYALIDERE-SIMAV (KUTAHYA) İlksel
2026.04.11,17:28:17,39.2500,29.0075,10.3,,2.0,,YEMISLI-SIMAV (KUTAHYA) İlksel
2026.04.11,17:31:56,39.2533,28.9687,5.4,,4.9,4.8,YEMISLI-SIMAV (KUTAHYA) İlksel
2026.04.11,17:31:56,39.2602,28.9578,6.6,,4.9,4.9,KARAKOCA-SIMAV (KUTAHYA) İlksel
2026.04.11,17:33:03,39.1417,28.9822,5.0,,3.1,3.3,HACIAHMETOGLU-SIMAV (KUTAHYA) İlksel
2026.04.11,17:33:47,39.1797,28.7557,6.2,,2.6,,YAGILLAR-SIMAV (KUTAHYA) İlksel
2026.04.11,17:36:15,39.1960,28.7588,18.9,,2.8,2.5,AKPINAR-SIMAV (KUTAHYA) İlksel
2026.04.11,17:37:07,39.2573,28.9693,5.4,,3.8,3.6,YEMISLI-SIMAV (KUTAHYA) İlksel
2026.04.11,17:38:16,39.1792,29.0842,14.6,,2.3,,AHLATLICESME-SIMAV (KUTAHYA) İlksel
2026.04.11,17:39:54,39.2368,28.9430,6.3,,2.0,,YENILER-SIMAV (KUTAHYA) İlksel
2026.04.11,17:39:54,39.2022,28.8997,13.3,,2.1,,ORENLI-SIMAV (KUTAHYA) İlksel
2026.04.11,17:42:11,39.2462,28.9802,6.9,,3.7,3.6,YEMISLI-SIMAV (KUTAHYA) İlksel
2026.04.11,17:46:08,39.1062,28.8592,3.2,,1.7,,OREYLER-SIMAV (KUTAHYA) İlksel
2026.04.11,17:49:08,39.2240,29.0370,7.8,,1.9,,KATRANDAGI-EMET (KUTAHYA) İlksel
2026.04.11,17:54:19,39.2862,28.9683,10.9,,1.8,,YESILDERE-SIMAV (KUTAHYA) İlksel
2026.04.11,17:55:32,39.2150,29.0225,5.4,,2.3,,EGIRLER-SIMAV (KUTAHYA) İlksel
2026.04.11,17:55:45,39.2570,28.9910,11.1,,2.4,,YEMISLI-SIMAV (KUTAHYA) İlksel
2026.04.11,17:57:07,39.1250,28.9248,39.3,,1.4,,DEMIRCI-SIMAV (KUTAHYA) İlksel
2026.04.11,18:00:25,39.1873,28.9790,5.0,,1.2,,EGIRLER-SIMAV (KUTAHYA) İlksel
2026.04.11,18:05:11,39.1523,29.0812,19.2,,1.3,,SOGUT-SIMAV (KUTAHYA) İlksel
2026.04.11,18:05:48,39.1957,29.0122,14.7,,1.3,,EGIRLER-SIMAV (KUTAHYA) İlksel
2026.04.11,18:06:44,39.1212,29.1635,7.8,,1.5,,INLICE-SIMAV (KUTAHYA) İlksel
2026.04.11,18:08:32,39.2283,28.9737,10.5,,2.1,,YEMISLI-SIMAV (KUTAHYA) İlksel
2026.04.11,18:10:57,39.2153,29.0225,12.3,,1.5,,EGIRLER-SIMAV (KUTAHYA) İlksel
2026.04.11,18:11:44,39.1080,40.3718,3.8,,2.9,,SANCAK (BINGOL) İlksel
2026.04.11,18:11:56,39.1390,29.1490,10.3,,2.3,,INLICE-SIMAV (KUTAHYA) İlksel
2026.04.11,18:12:11,39.2358,29.0117,5.8,,2.1,,YEMISLI-SIMAV (KUTAHYA) İlksel
2026.04.11,18:14:34,39.1095,40.3805,8.8,,2.7,,SANCAK (BINGOL) İlksel
2026.04.11,18:16:20,39.2337,29.0113,12.8,,1.9,,YEMISLI-SIMAV (KUTAHYA) İlksel
2026.04.11,18:18:30,39.2313,29.0285,5.3,,1.8,,KATRANDAGI-EMET (KUTAHYA) İlksel
2026.04.11,18:20:23,39.2568,28.9810,6.8,,1.7,,YEMISLI-SIMAV (KUTAHYA) İlksel
2026.04.11,18:21:14,39.1837,29.0403,9.0,,1.5,,KARACAOREN-SIMAV (KUTAHYA) İlksel
2026.04.11,18:21:53,39.1840,29.0795,1.2,,1.3,,KARACAOREN-SIMAV (KUTAHYA) İlksel
2026.04.11,18:23:46,39.2325,29.0013,12.2,,1.4,,YEMISLI-SIMAV (KUTAHYA) İlksel
2026.04.11,18:24:28,39.2020,28.9305,19.2,,1.1,,HAMZABEY-SIMAV (KUTAHYA) İlksel
2026.04.11,18:25:22,39.2438,29.0462,12.1,,1.8,,KATRANDAGI-EMET (KUTAHYA) İlksel
2026.04.11,18:27:56,39.2118,28.9392,9.4,,1.3,,HAMZABEY-SIMAV (KUTAHYA) İlksel
2026.04.11,18:29:04,39.2077,28.9875,22.5,,1.3,,EGIRLER-SIMAV (KUTAHYA) İlksel
2026.04.11,18:31:47,39.2347,29.0187,11.8,,2.0,,YEMISLI-SIMAV (KUTAHYA) İlksel
2026.04.11,18:33:58,39.2387,28.9760,6.0,,3.3,3.2,YEMISLI-SIMAV (KUTAHYA) İlksel
2026.04.11,18:34:49,39.2437,29.0042,8.8,,1.2,,YEMISLI-SIMAV (KUTAHYA) İlksel
2026.04.11,18:35:37,37.9967,36.5182,9.9,,2.0,,ASLANBEYCIFTLIGI-GOKSUN (KAHRAMANMARAS) İlksel
2026.04.11,18:35:40,39.2317,29.0147,8.6,,2.0,,YEMISLI-SIMAV (KUTAHYA) İlksel
2026.04.11,18:37:36,39.2328,28.9992,4.3,,2.5,,YEMISLI-SIMAV (KUTAHYA) İlksel
2026.04.11,18:38:18,39.2073,29.0128,5.5,,1.7,,EGIRLER-SIMAV (KUTAHYA) İlksel
2026.04.11,18:38:18,39.1815,29.0097,14.0,,1.6,,KARACAOREN-SIMAV (KUTAHYA) İlksel
2026.04.11,18:41:32,39.2217,29.0180,10.0,,1.6,,EGIRLER-SIMAV (KUTAHYA) İlksel
2026.04.11,18:43:47,39.2083,29.0152,11.0,,1.4,,EGIRLER-SIMAV (KUTAHYA) İlksel
2026.04.11,18:44:26,39.2213,29.0228,11.5,,1.6,,EGIRLER-SIMAV (KUTAHYA) İlksel
2026.04.11,18:46:37,39.6433,28.5815,7.4,,1.8,,TASKESIK-DURSUNBEY (BALIKESIR) İlksel
2026.04.11,18:50:27,39.2350,28.9940,4.8,,1.5,,YEMISLI-SIMAV (KUTAHYA) İlksel
2026.04.11,18:52:30,39.1517,29.0142,12.6,,1.6,,HACIAHMETOGLU-SIMAV (KUTAHYA) İlksel
2026.04.11,18:53:28,39.2335,29.0163,5.2,,1.5,,YEMISLI-SIMAV (KUTAHYA) İlksel
2026.04.11,18:54:16,39.2282,29.0223,20.9,,2.1,,EGIRLER-SIMAV (KUTAHYA) İlksel
2026.04.11,18:56:28,39.2343,29.0527,5.0,,1.3,,KATRANDAGI-EMET (KUTAHYA) İlksel
2026.04.11,18:57:53,39.2377,28.9517,9.4,,1.7,,YENILER-SIMAV (KUTAHYA) İlksel
2026.04.11,19:02:20,39.2408,29.0107,4.2,,2.1,,YEMISLI-SIMAV (KUTAHYA) İlksel
2026.04.11,19:05:45,39.2208,28.9915,13.3,,2.3,,YEMISLI-SIMAV (KUTAHYA) İlksel
2026.04.11,19:10:23,39.2442,28.9955,7.1,,2.2,,YEMISLI-SIMAV (KUTAHYA) İlksel
2026.04.11,19:11:23,39.1120,28.3585,8.2,,3.7,3.7,KOBAKLAR-GORDES (MANISA) İlksel
2026.04.11,19:14:13,39.2457,29.0183,10.8,,1.8,,YEMISLI-SIMAV (KUTAHYA) İlksel
2026.04.11,19:14:53,39.2523,29.0072,3.9,,1.7,,YEMISLI-SIMAV (KUTAHYA) İlksel
2026.04.11,19:18:46,39.2325,29.0337,8.9,,1.9,,KATRANDAGI-EMET (KUTAHYA) İlksel
2026.04.11,19:19:44,39.1512,28.9945,12.4,,1.6,,HACIAHMETOGLU-SIMAV (KUTAHYA) İlksel
2026.04.11,19:20:54,39.2278,29.0347,6.4,,2.0,,KATRANDAGI-EMET (KUTAHYA) İlksel
2026.04.11,19:23:22,39.2292,29.0575,2.2,,1.3,,KATRANDAGI-EMET (KUTAHYA) İlksel
2026.04.11,19:24:37,39.2323,28.9978,9.3,,1.5,,YEMISLI-SIMAV (KUTAHYA) İlksel
2026.04.11,19:26:07,39.1805,28.9635,17.5,,1.6,,NASA-SIMAV (KUTAHYA) İlksel
2026.04.11,19:27:51,39.2448,29.0015,14.7,,1.4,,YEMISLI-SIMAV (KUTAHYA) İlksel
2026.04.11,19:30:11,39.2293,29.0940,5.0,,1.1,,KARAAGIL-HISARCIK (KUTAHYA) İlksel
2026.04.11,19:30:12,39.2252,29.1015,5.0,,1.1,,KARAAGIL-HISARCIK (KUTAHYA) İlksel
2026.04.11,19:32:14,39.2118,29.0145,10.8,,1.7,,EGIRLER-SIMAV (KUTAHYA) İlksel
2026.04.11,19:34:13,39.3132,40.9075,13.8,,1.6,,TASLICAY-KARLIOVA (BINGOL) İlksel
2026.04.11,19:36:20,39.1848,28.9973,21.6,,1.6,,EGIRLER-SIMAV (KUTAHYA) İlksel
2026.04.11,19:36:21,39.2070,29.0328,5.4,,1.1,,EGIRLER-SIMAV (KUTAHYA) İlksel
2026.04.11,19:36:42,39.2492,28.9895,10.0,,1.5,,YEMISLI-SIMAV (KUTAHYA) İlksel
2026.04.11,19:38:30,39.2310,29.0360,2.2,,1.8,,KATRANDAGI-EMET (KUTAHYA) İlksel
2026.04.11,19:41:07,39.2447,29.0257,11.4,,1.9,,KATRANDAGI-EMET (KUTAHYA) İlksel
2026.04.11,19:46:28,39.1680,28.9928,20.8,,1.4,,NASA-SIMAV (KUTAHYA) İlksel
2026.04.11,19:46:28,39.1667,28.9878,20.7,,1.3,,NASA-SIMAV (KUTAHYA) İlksel
2026.04.11,19:51:43,39.2378,29.0440,11.3,,1.6,,KATRANDAGI-EMET (KUTAHYA) İlksel
2026.04.11,19:51:43,39.2438,29.0378,9.1,,1.8,,KATRANDAGI-EMET (KUTAHYA) İlksel
2026.04.11,19:52:42,39.2065,29.0265,6.9,,1.4,,EGIRLER-SIMAV (KUTAHYA) İlksel
2026.04.11,19:53:42,39.1737,28.9047,15.2,,1.2,,GUNEY-SIMAV (KUTAHYA) İlksel
2026.04.11,19:54:48,39.2275,28.9900,8.7,,1.6,,YEMISLI-SIMAV (KUTAHYA) İlksel
2026.04.11,19:58:21,39.0980,33.0262,4.1,,1.6,,KULU (KONYA) İlksel
2026.04.11,20:00:26,38.0308,37.6350,13.8,,1.3,,GOVDELI-DOGANSEHIR (MALATYA) İlksel
2026.04.11,20:04:19,39.2848,28.9783,9.0,,1.1,,YESILDERE-SIMAV (KUTAHYA) İlksel
2026.04.11,20:07:00,39.1567,28.9730,15.8,,1.7,,NASA-SIMAV (KUTAHYA) İlksel
2026.04.11,20:08:57,39.1103,29.0132,9.4,,1.2,,GOKCELER-SIMAV (KUTAHYA) İlksel
2026.04.11,20:14:05,39.1552,28.9542,13.9,,1.2,,NASA-SIMAV (KUTAHYA) İlksel
2026.04.11,20:18:29,39.2238,29.0297,9.7,,1.7,,EGIRLER-SIMAV (KUTAHYA) İlksel
2026.04.11,20:18:46,39.2483,28.9973,5.4,,1.9,,YEMISLI-SIMAV (KUTAHYA) İlksel
2026.04.11,20:19:33,39.1700,28.9793,14.5,,1.5,,NASA-SIMAV (KUTAHYA) İlksel
2026.04.11,20:19:40,39.2152,28.1427,11.4,,1.7,,MANDIRA-SINDIRGI (BALIKESIR) İlksel
2026.04.11,20:25:32,38.8025,28.0518,5.0,,1.6,,CAGLAYAN-GORDES (MANISA) İlksel
2026.04.11,20:27:25,39.2373,29.0365,8.6,,1.2,,KATRANDAGI-EMET (KUTAHYA) İlksel
2026.04.11,20:33:02,39.2505,29.0180,9.5,,0.9,,YESILDERE-SIMAV (KUTAHYA) İlksel
2026.04.11,20:40:06,39.2070,28.9863,5.0,,1.1,,EGIRLER-SIMAV (KUTAHYA) İlksel
2026.04.11,20:42:14,36.9263,29.1047,7.5,,2.3,,KARABAYIR-CAMELI (DENIZLI) İlksel
2026.04.11,20:44:43,39.2140,28.9402,17.1,,0.8,,HAMZABEY-SIMAV (KUTAHYA) İlksel
2026.04.11,20:45:20,39.1735,29.0003,15.1,,0.6,,KARACAOREN-SIMAV (KUTAHYA) İlksel
2026.04.11,20:51:21,39.2167,29.0138,11.6,,1.7,,EGIRLER-SIMAV (KUTAHYA) İlksel
2026.04.11,20:53:43,39.2338,29.0118,11.0,,2.0,,YEMISLI-SIMAV (KUTAHYA) İlksel
2026.04.11,20:57:41,36.9410,29.0963,4.2,,1.6,,KARABAYIR-CAMELI (DENIZLI) İlksel
2026.04.11,21:07:16,39.2152,28.9547,15.3,,2.0,,HAMZABEY-SIMAV (KUTAHYA) İlksel
2026.04.11,21:07:31,39.2118,28.9272,9.5,,1.7,,HAMZABEY-SIMAV (KUTAHYA) İlksel
2026.04.11,21:09:24,39.2233,29.0043,11.8,,1.5,,EGIRLER-SIMAV (KUTAHYA) İlksel
2026.04.11,21:11:26,39.2158,29.0103,7.7,,2.0,,EGIRLER-SIMAV (KUTAHYA) İlksel
2026.04.11,21:21:32,39.2072,28.9468,14.3,,1.0,,HAMZABEY-SIMAV (KUTAHYA) İlksel
2026.04.11,21:25:47,39.2293,28.9737,11.1,,1.8,,YEMISLI-SIMAV (KUTAHYA) İlksel
2026.04.11,21:30:01,39.1380,28.9908,5.5,,1.0,,HACIAHMETOGLU-SIMAV (KUTAHYA) İlksel
2026.04.11,21:32:10,39.2357,29.0115,9.1,,1.1,,YEMISLI-SIMAV (KUTAHYA) İlksel
2026.04.11,21:35:23,39.2873,39.8500,5.0,,2.2,,DEREOVA-NAZIMIYE (TUNCELI) İlksel
2026.04.11,21:41:42,39.2298,28.9903,11.8,,1.4,,YEMISLI-SIMAV (KUTAHYA) İlksel
2026.04.11,21:52:20,37.0508,28.5570,12.9,,1.5,,BALCILAR-KOYCEGIZ (MUGLA) İlksel
2026.04.11,21:52:33,38.9413,26.6538,8.0,,1.7,,MIDILLI ADASI GUNEYI (EGE DENIZI) İlksel
2026.04.11,21:54:20,39.2177,28.9957,5.4,,2.1,,EGIRLER-SIMAV (KUTAHYA) İlksel
2026.04.11,21:58:10,39.2520,28.9785,6.1,,3.1,3.1,YEMISLI-SIMAV (KUTAHYA) İlksel
2026.04.11,22:07:11,37.2083,27.7840,5.0,,1.2,,CAMOVALI-MILAS (MUGLA) İlksel
2026.04.11,22:12:24,38.1335,28.9130,26.8,,1.5,,CAMKOY-BULDAN (DENIZLI) İlksel
2026.04.11,22:19:02,39.2183,29.0185,10.8,,1.7,,EGIRLER-SIMAV (KUTAHYA) İlksel
2026.04.11,22:19:12,39.2020,29.0215,10.4,,1.8,,EGIRLER-SIMAV (KUTAHYA) İlksel
2026.04.11,22:22:37,39.0662,28.3488,17.0,,1.4,,KOBAKLAR-GORDES (MANISA) İlksel
2026.04.11,22:25:36,39.2342,29.0368,2.8,,1.2,,KATRANDAGI-EMET (KUTAHYA) İlksel
2026.04.11,22:26:44,39.2378,29.0210,11.0,,1.5,,YEMISLI-SIMAV (KUTAHYA) İlksel
2026.04.11,22:29:19,39.2368,29.0340,11.3,,2.1,,KATRANDAGI-EMET (KUTAHYA) İlksel
2026.04.11,22:29:19,39.2390,29.0228,14.9,,2.0,,YEMISLI-SIMAV (KUTAHYA) İlksel
2026.04.11,22:32:10,39.1973,28.9793,14.2,,1.0,,EGIRLER-SIMAV (KUTAHYA) İlksel
2026.04.11,22:35:58,39.1760,29.0487,5.0,,1.2,,KARACAOREN-SIMAV (KUTAHYA) İlksel
2026.04.11,22:41:18,36.8805,29.1158,4.3,,1.9,,DARIYERI-DALAMAN (MUGLA) İlksel
2026.04.11,22:46:09,39.2218,29.0252,10.3,,0.8,,EGIRLER-SIMAV (KUTAHYA) İlksel
2026.04.11,22:51:14,39.1895,28.9950,5.8,,0.8,,EGIRLER-SIMAV (KUTAHYA) İlksel
2026.04.11,22:55:22,39.2287,29.0195,5.2,,1.4,,YEMISLI-SIMAV (KUTAHYA) İlksel
2026.04.11,22:57:32,36.9107,29.1033,7.2,,1.8,,KARABAYIR-CAMELI (DENIZLI) İlksel
2026.04.11,23:02:58,39.2080,29.0187,13.5,,1.2,,EGIRLER-SIMAV (KUTAHYA) İlksel
2026.04.11,23:07:40,39.2477,29.0308,7.2,,1.5,,KATRANDAGI-EMET (KUTAHYA) İlksel
2026.04.11,23:11:43,39.2462,25.9465,2.0,,2.7,,MIDILLI ADASI (EGE DENIZI) İlksel
2026.04.11,23:14:37,39.2372,29.0455,5.5,,2.5,,KATRANDAGI-EMET (KUTAHYA) İlksel
2026.04.11,23:17:03,36.5187,26.9798,5.3,,1.9,,ONIKI ADALAR (EGE DENIZI) İlksel
2026.04.11,23:20:13,39.2110,29.0143,12.5,,1.8,,EGIRLER-SIMAV (KUTAHYA) İlksel
2026.04.11,23:28:21,39.2288,28.9878,10.8,,2.0,,YEMISLI-SIMAV (KUTAHYA) İlksel
2026.04.11,23:34:44,39.2288,29.0215,6.2,,1.9,,YEMISLI-SIMAV (KUTAHYA) İlksel
2026.04.11,23:41:31,38.3890,38.9333,5.0,,1.6,,GELINDERE-SIVRICE (ELAZIG) İlksel
2026.04.11,23:48:46,39.1825,28.9860,12.6,,1.5,,EGIRLER-SIMAV (KUTAHYA) İlksel
2026.04.11,23:59:17,39.2263,29.0107,5.4,,2.0,,YEMISLI-SIMAV (KUTAHYA) İlksel
2026.04.12,00:02:06,39.2083,29.0157,13.7,,1.4,,EGIRLER-SIMAV (KUTAHYA) İlksel
2026.04.12,00:17:19,39.2190,28.9983,4.7,,2.0,,EGIRLER-SIMAV (KUTAHYA) İlksel
2026.04.12,00:19:49,39.2225,29.0285,15.8,,1.7,,EGIRLER-SIMAV (KUTAHYA) İlksel
2026.04.12,00:25:33,39.2038,29.0263,5.4,,0.9,,EGIRLER-SIMAV (KUTAHYA) İlksel
2026.04.12,00:30:59,36.7885,31.0067,82.0,,1.3,,BELEK ACIKLARI-ANTALYA (AKDENIZ) İlksel
2026.04.12,00:32:43,39.2270,28.9983,13.9,,1.7,,YEMISLI-SIMAV (KUTAHYA) İlksel
2026.04.12,00:33:25,39.2490,28.9922,11.9,,1.4,,YEMISLI-SIMAV (KUTAHYA) İlksel
2026.04.12,00:35:55,38.0097,28.9345,14.1,,1.8,,YENICEKENT-BULDAN (DENIZLI) İlksel
2026.04.12,00:44:11,39.2125,29.0117,8.6,,1.9,,EGIRLER-SIMAV (KUTAHYA) İlksel
2026.04.12,00:49:52,39.2463,28.9910,10.0,,1.8,,YEMISLI-SIMAV (KUTAHYA) İlksel
2026.04.12,00:51:09,39.1737,29.0725,12.7,,1.1,,AHLATLICESME-SIMAV (KUTAHYA) İlksel
2026.04.12,00:55:24,39.2238,29.0038,12.4,,1.3,,YEMISLI-SIMAV (KUTAHYA) İlksel
2026.04.12,01:06:23,39.2235,29.0177,5.4,,2.2,,EGIRLER-SIMAV (KUTAHYA) İlksel
2026.04.12,01:11:46,39.2385,29.0248,11.2,,1.3,,KATRANDAGI-EMET (KUTAHYA) İlksel
2026.04.12,01:17:28,37.9282,36.1492,12.8,,1.3,,EYUPLU-SAIMBEYLI (ADANA) İlksel
2026.04.12,01:20:22,39.2312,29.0103,9.2,,1.5,,YEMISLI-SIMAV (KUTAHYA) İlksel
2026.04.12,01:21:07,39.1583,28.9922,17.2,,1.0,,NASA-SIMAV (KUTAHYA) İlksel
2026.04.12,01:23:47,38.1140,36.5968,5.1,,1.6,,KANLIKAVAK-GOKSUN (KAHRAMANMARAS) İlksel
2026.04.12,01:28:50,39.2547,29.0257,9.6,,1.3,,KATRANDAGI-EMET (KUTAHYA) İlksel
2026.04.12,01:31:21,39.2257,28.1762,9.7,,1.8,,SINDIRGI (BALIKESIR) İlksel
2026.04.12,01:34:25,39.2405,28.9713,6.7,,2.8,,YEMISLI-SIMAV (KUTAHYA) İlksel
2026.04.12,01:36:00,39.2353,28.9742,6.7,,2.3,,YEMISLI-SIMAV (KUTAHYA) İlksel
2026.04.12,01:39:56,39.2385,28.9795,6.7,,2.8,,YEMISLI-SIMAV (KUTAHYA) İlksel
2026.04.12,01:46:50,35.9718,29.0662,5.6,,1.7,,AKDENIZ İlksel
2026.04.12,01:47:41,36.3463,36.2485,5.4,,2.1,,ARPAHAN (HATAY) İlksel
2026.04.12,01:47:46,39.2408,28.9870,5.3,,1.1,,YEMISLI-SIMAV (KUTAHYA) İlksel
2026.04.12,01:48:58,38.1062,36.6010,12.8,,1.3,,KANLIKAVAK-GOKSUN (KAHRAMANMARAS) İlksel
2026.04.12,01:58:29,39.2093,28.1607,7.6,,1.5,,YAYLACIK-SINDIRGI (BALIKESIR) İlksel
2026.04.12,01:59:27,39.2178,29.0262,12.6,,1.7,,EGIRLER-SIMAV (KUTAHYA) İlksel
2026.04.12,01:59:27,39.2178,29.0243,13.0,,1.7,,EGIRLER-SIMAV (KUTAHYA) İlksel
2026.04.12,02:02:48,38.2078,27.5830,5.1,,1.0,,ELIFLI-BAYINDIR (IZMIR) İlksel
2026.04.12,02:06:45,38.4612,39.2167,5.0,,1.6,,ALINCIK-SIVRICE (ELAZIG) İlksel
2026.04.12,02:23:05,39.2353,29.0150,13.4,,1.3,,YEMISLI-SIMAV (KUTAHYA) İlksel
2026.04.12,02:32:00,39.2240,29.0718,17.1,,1.4,,KATRANDAGI-EMET (KUTAHYA) İlksel
2026.04.12,02:36:44,38.0952,37.8300,4.6,,1.1,,TOPRAKTEPE-DOGANSEHIR (MALATYA) İlksel
2026.04.12,02:43:28,37.6828,36.0122,11.3,,1.3,,AKCALIUSAGI-KOZAN (ADANA) İlksel
2026.04.12,02:44:52,39.2112,25.4258,7.9,,2.8,,EGE DENIZI İlksel
2026.04.12,02:53:03,37.9977,36.5527,4.8,,1.0,,ASLANBEYCIFTLIGI-GOKSUN (KAHRAMANMARAS) İlksel
2026.04.12,03:03:46,39.2332,28.9267,12.1,,1.1,,YENILER-SIMAV (KUTAHYA) İlksel
2026.04.12,03:09:46,39.2568,28.9755,13.2,,0.8,,YEMISLI-SIMAV (KUTAHYA) İlksel
2026.04.12,03:11:13,39.2340,28.9905,16.0,,0.9,,YEMISLI-SIMAV (KUTAHYA) İlksel
2026.04.12,03:24:46,39.2497,29.0182,6.4,,1.8,,YESILDERE-SIMAV (KUTAHYA) İlksel
2026.04.12,03:42:09,39.2567,28.9885,7.8,,1.6,,YEMISLI-SIMAV (KUTAHYA) İlksel
2026.04.12,03:45:04,39.2302,29.0133,4.9,,2.1,,YEMISLI-SIMAV (KUTAHYA) İlksel
2026.04.12,03:52:45,39.2422,28.9810,14.6,,0.9,,YEMISLI-SIMAV (KUTAHYA) İlksel
2026.04.12,03:56:20,37.8595,36.3748,19.6,,1.0,,KUCUKCAMURLU-GOKSUN (KAHRAMANMARAS) İlksel
2026.04.12,03:57:48,39.2287,28.9923,17.4,,1.2,,YEMISLI-SIMAV (KUTAHYA) İlksel
2026.04.12,03:58:15,39.2497,28.9780,11.1,,1.3,,YEMISLI-SIMAV (KUTAHYA) İlksel
2026.04.12,04:06:52,39.2600,28.9842,10.1,,1.1,,YEMISLI-SIMAV (KUTAHYA) İlksel
2026.04.12,04:10:56,39.2122,25.5428,9.8,,1.5,,EGE DENIZI İlksel
2026.04.12,04:16:02,39.1790,29.0352,11.4,,1.0,,KARACAOREN-SIMAV (KUTAHYA) İlksel
2026.04.12,04:22:09,39.1902,29.0695,15.9,,0.9,,KARACAOREN-SIMAV (KUTAHYA) İlksel
2026.04.12,04:27:09,39.3617,28.0237,6.8,,1.8,,ESMEDERE-SINDIRGI (BALIKESIR) İlksel
2026.04.12,04:40:07,39.2262,28.9967,5.4,,1.9,,YEMISLI-SIMAV (KUTAHYA) İlksel
2026.04.12,04:49:39,39.1117,28.3700,9.7,,1.4,,KOBAKLAR-GORDES (MANISA) İlksel
2026.04.12,04:53:52,39.3777,28.0043,7.1,,3.1,,HAMIDIYE-BIGADIC (BALIKESIR) İlksel
2026.04.12,04:54:55,39.3768,27.9815,12.9,,2.5,,HAMIDIYE-BIGADIC (BALIKESIR) İlksel
2026.04.12,05:00:43,39.3675,27.9990,14.3,,1.5,,HAMIDIYE-BIGADIC (BALIKESIR) İlksel
2026.04.12,05:14:46,39.2222,28.9992,7.2,,1.7,,EGIRLER-SIMAV (KUTAHYA) İlksel
2026.04.12,05:24:46,39.2068,29.0642,11.7,,1.2,,KARACAOREN-SIMAV (KUTAHYA) İlksel
2026.04.12,05:34:31,39.3762,28.0130,7.1,,2.0,,HAMIDIYE-BIGADIC (BALIKESIR) İlksel
2026.04.12,05:36:41,37.2697,27.7937,12.5,,1.1,,BECIN-MILAS (MUGLA) İlksel
2026.04.12,05:41:37,39.3843,28.0590,7.5,,1.6,,CEKIRDEKLI-BIGADIC (BALIKESIR) İlksel
2026.04.12,05:49:03,39.2315,28.9973,5.4,,2.6,,YEMISLI-SIMAV (KUTAHYA) İlksel
2026.04.12,05:52:34,39.2343,29.0245,8.8,,1.3,,YEMISLI-SIMAV (KUTAHYA) İlksel
2026.04.12,06:03:28,39.4008,28.1305,22.2,,1.4,,BIGADIC (BALIKESIR) İlksel
2026.04.12,06:03:58,36.9487,26.8458,20.3,,1.5,,ONIKI ADALAR (EGE DENIZI) İlksel
2026.04.12,06:05:17,36.3603,29.6277,12.9,,1.3,,SINNELI-KAS (ANTALYA) İlksel
2026.04.12,06:06:29,37.9208,36.1882,17.6,,1.1,,AKSAAGAC-SAIMBEYLI (ADANA) İlksel
2026.04.12,06:09:54,39.3795,27.9807,12.9,,1.9,,HAMIDIYE-BIGADIC (BALIKESIR) İlksel
2026.04.12,06:13:31,38.4153,37.4955,8.4,,1.3,,SUGUL-DARENDE (MALATYA) İlksel
2026.04.12,06:14:24,40.3417,24.1057,5.3,,2.0,,YUNANISTAN İlksel
2026.04.12,06:17:10,39.3883,28.0105,9.9,,1.6,,HAMIDIYE-BIGADIC (BALIKESIR) İlksel
2026.04.12,06:20:49,40.8280,29.2770,11.4,,1.5,,TUZLA (ISTANBUL) İlksel
2026.04.12,06:23:32,40.8160,28.1280,13.0,,2.3,,MARMARA DENIZI İlksel
2026.04.12,06:24:48,38.6482,39.6228,5.3,,1.8,,KONAKALMAZ (ELAZIG) İlksel
2026.04.12,06:26:44,39.3792,28.0265,14.1,,1.5,,CEKIRDEKLI-BIGADIC (BALIKESIR) İlksel
2026.04.12,06:37:33,38.1558,38.5793,2.5,,2.0,,ARIKONAK-SINCIK (ADIYAMAN) İlksel
2026.04.12,06:38:41,39.5115,28.1447,9.1,,1.4,,YENIKOY-BIGADIC (BALIKESIR) İlksel
2026.04.12,06:41:58,38.3027,38.1660,14.0,,1.4,,DURULDU (MALATYA) İlksel
2026.04.12,06:55:09,39.2565,28.9563,14.0,,1.3,,KARAKOCA-SIMAV (KUTAHYA) İlksel
2026.04.12,06:56:41,39.4880,28.0550,8.7,,1.5,,COMLEKCI-BIGADIC (BALIKESIR) İlksel
2026.04.12,07:17:40,37.3918,37.0792,4.2,,1.4,,MAKSUTUSAGI-PAZARCIK (KAHRAMANMARAS) İlksel
2026.04.12,07:29:27,37.3485,30.4188,87.9,,1.4,,YUVA-BUCAK (BURDUR) İlksel
2026.04.12,07:35:20,37.0848,28.2453,14.2,,1.2,,DERINKUYU (MUGLA) İlksel
2026.04.12,07:36:50,39.2303,29.0285,9.4,,1.0,,KATRANDAGI-EMET (KUTAHYA) İlksel
2026.04.12,07:37:12,39.2175,28.9958,25.6,,0.8,,EGIRLER-SIMAV (KUTAHYA) İlksel
2026.04.12,07:39:54,39.2273,29.0150,11.0,,1.8,,YEMISLI-SIMAV (KUTAHYA) İlksel
2026.04.12,07:43:56,37.2548,28.1432,2.2,,1.6,,CAYBUKU (MUGLA) İlksel
2026.04.12,07:48:20,39.1520,29.4437,7.9,,2.0,,DOGANCILAR-CAVDARHISAR (KUTAHYA) İlksel
2026.04.12,08:13:47,39.2235,28.9787,9.4,,1.5,,YEMISLI-SIMAV (KUTAHYA) İlksel
2026.04.12,08:14:44,39.1725,28.2883,8.3,,2.8,,ISIKLAR-SINDIRGI (BALIKESIR) İlksel
2026.04.12,08:40:28,39.4187,28.0268,1.1,,2.3,,BABAKOY-BIGADIC (BALIKESIR) İlksel
2026.04.12,08:41:12,39.3717,28.0045,5.0,,2.4,,HAMIDIYE-BIGADIC (BALIKESIR) İlksel
2026.04.12,08:49:45,39.2615,29.0178,5.3,,1.6,,YESILDERE-SIMAV (KUTAHYA) İlksel
2026.04.12,08:57:39,39.2488,29.0065,7.2,,2.3,,YEMISLI-SIMAV (KUTAHYA) İlksel
2026.04.12,09:02:16,37.9480,38.1563,4.7,,1.2,,SARIKAYA (ADIYAMAN) İlksel
2026.04.12,09:12:20,39.2433,29.0388,2.8,,1.4,,KATRANDAGI-EMET (KUTAHYA) İlksel
2026.04.12,09:14:14,39.2372,29.0197,12.9,,2.6,,YEMISLI-SIMAV (KUTAHYA) İlksel
2026.04.12,09:16:11,39.3767,28.0207,5.3,,2.4,,CEKIRDEKLI-BIGADIC (BALIKESIR) İlksel
2026.04.12,09:17:58,36.9348,33.6642,19.3,,2.1,,OZBOYNUINCELI-SILIFKE (MERSIN) İlksel
2026.04.12,09:25:07,39.2543,29.0052,4.2,,2.2,,YESILDERE-SIMAV (KUTAHYA) İlksel
2026.04.12,09:28:23,39.2230,29.0102,13.9,,1.9,,EGIRLER-SIMAV (KUTAHYA) İlksel
2026.04.12,09:29:51,39.2287,29.0412,5.0,,1.6,,KATRANDAGI-EMET (KUTAHYA) İlksel
2026.04.12,09:30:57,39.2293,29.0127,13.1,,1.4,,YEMISLI-SIMAV (KUTAHYA) İlksel
2026.04.12,09:37:12,39.3647,27.9893,2.0,,2.1,,HAMIDIYE-BIGADIC (BALIKESIR) İlksel
2026.04.12,09:41:54,40.2020,31.7637,11.3,,2.2,,HIRKATEPE-BEYPAZARI (ANKARA) İlksel
2026.04.12,10:26:36,39.2437,29.0060,15.6,,1.6,,YEMISLI-SIMAV (KUTAHYA) İlksel
2026.04.12,10:36:49,39.2543,28.9988,11.1,,2.3,,YEMISLI-SIMAV (KUTAHYA) İlksel
2026.04.12,10:59:59,36.6973,25.6480,5.1,,2.0,,EGE DENIZI İlksel
2026.04.12,11:07:01,39.2375,29.0328,3.1,,1.1,,KATRANDAGI-EMET (KUTAHYA) İlksel
2026.04.12,11:19:10,39.2262,29.0202,6.5,,2.4,,EGIRLER-SIMAV (KUTAHYA) İlksel
2026.04.12,11:22:11,39.2293,29.0040,4.9,,0.9,,YEMISLI-SIMAV (KUTAHYA) İlksel
2026.04.12,11:22:20,39.2182,28.9813,18.5,,1.0,,YEMISLI-SIMAV (KUTAHYA) İlksel
2026.04.12,11:23:30,39.2223,29.0240,9.4,,2.1,,EGIRLER-SIMAV (KUTAHYA) İlksel
2026.04.12,11:24:52,39.1295,28.3433,16.3,,1.5,,YAYLABAYIR-SINDIRGI (BALIKESIR) İlksel
2026.04.12,11:31:34,36.9167,29.0837,5.0,,1.7,,GURLEYIK-DALAMAN (MUGLA) İlksel
2026.04.12,11:33:04,39.1168,29.1313,2.0,,1.0,,SENKOY-SIMAV (KUTAHYA) İlksel
2026.04.12,11:35:02,40.4495,29.1685,0.0,,1.8,,GEMLIK (BURSA) İlksel
2026.04.12,11:40:53,39.2408,29.0345,9.1,,1.7,,KATRANDAGI-EMET (KUTAHYA) İlksel
2026.04.12,11:40:54,39.2292,29.0203,11.2,,1.7,,YEMISLI-SIMAV (KUTAHYA) İlksel
2026.04.12,12:20:13,39.2293,29.0097,12.0,,1.2,,YEMISLI-SIMAV (KUTAHYA) İlksel
2026.04.12,12:23:36,39.2417,29.0177,11.9,,1.6,,YEMISLI-SIMAV (KUTAHYA) İlksel
2026.04.12,12:24:18,39.0152,28.8585,17.2,,1.5,,KUPELER-DEMIRCI (MANISA) İlksel
2026.04.12,12:25:46,38.9082,31.4248,5.6,,1.6,,AVDAN-EMIRDAG (AFYONKARAHISAR) İlksel
2026.04.12,12:43:08,37.8818,36.5045,5.9,,1.9,,KUMARLI (KAHRAMANMARAS) İlksel
2026.04.12,12:44:16,39.1175,29.1490,12.3,,1.1,,INLICE-SIMAV (KUTAHYA) İlksel
2026.04.12,12:45:35,39.1578,28.2197,16.6,,1.7,,BAYRAKLI-SINDIRGI (BALIKESIR) İlksel
2026.04.12,13:01:23,39.4560,28.1262,5.0,,1.8,,KADIKOY-BIGADIC (BALIKESIR) İlksel
2026.04.12,13:14:20,35.8360,26.5807,5.6,,1.7,,EGE DENIZI İlksel
2026.04.12,13:14:32,37.1422,34.9692,5.2,,1.0,,DURAK-KARAISALI (ADANA) İlksel
2026.04.12,14:06:56,34.7192,23.8292,5.0,,4.0,4.0,GIRIT ADASI (AKDENIZ) İlksel
2026.04.12,14:11:31,37.0683,28.3192,4.4,,2.1,,AKYAKA-ULA (MUGLA) İlksel
2026.04.12,14:26:17,39.1618,29.3995,6.6,,1.9,,YESILOVA-GEDIZ (KUTAHYA) İlksel
2026.04.12,14:27:45,39.2320,29.0082,5.0,,1.6,,YEMISLI-SIMAV (KUTAHYA) İlksel
2026.04.12,14:29:36,36.0240,28.0798,5.0,,2.8,,AKDENIZ İlksel
2026.04.12,14:37:17,39.1950,29.0620,4.8,,1.2,,KARACAOREN-SIMAV (KUTAHYA) İlksel
2026.04.12,14:40:45,39.2432,29.0062,12.6,,1.6,,YEMISLI-SIMAV (KUTAHYA) İlksel
2026.04.12,14:48:56,39.1220,28.3413,9.1,,2.0,,YAYLABAYIR-SINDIRGI (BALIKESIR) İlksel
2026.04.12,15:06:29,38.6953,39.9243,5.0,,2.3,,PALU (ELAZIG) İlksel
2026.04.12,15:14:12,39.2580,28.9712,12.9,,1.1,,YEMISLI-SIMAV (KUTAHYA) İlksel
2026.04.12,15:19:05,39.2397,29.0288,5.3,,1.7,,KATRANDAGI-EMET (KUTAHYA) İlksel
2026.04.12,15:27:40,39.2000,28.9658,15.7,,0.8,,EGIRLER-SIMAV (KUTAHYA) İlksel
2026.04.12,15:33:12,38.2312,37.8002,27.6,,1.8,,DEDEYAZI-DOGANSEHIR (MALATYA) İlksel
2026.04.12,15:44:31,39.2292,29.0272,11.5,,2.0,,EGIRLER-SIMAV (KUTAHYA) İlksel
2026.04.12,15:45:17,39.3647,27.9713,5.3,,2.1,,AKCAKISRAK-SINDIRGI (BALIKESIR) İlksel
2026.04.12,15:48:05,40.3980,23.9165,5.0,,1.8,,YUNANISTAN İlksel
2026.04.12,15:49:50,39.2512,29.0087,5.3,,1.5,,YEMISLI-SIMAV (KUTAHYA) İlksel
2026.04.12,15:50:22,39.2407,29.0252,4.8,,1.5,,KATRANDAGI-EMET (KUTAHYA) İlksel
2026.04.12,16:00:55,39.2275,29.0370,3.5,,1.1,,KATRANDAGI-EMET (KUTAHYA) İlksel
2026.04.12,16:07:06,39.2410,28.9743,11.7,,1.5,,YEMISLI-SIMAV (KUTAHYA) İlksel
2026.04.12,16:32:00,39.2470,29.0582,3.9,,1.4,,KATRANDAGI-EMET (KUTAHYA) İlksel
2026.04.12,16:38:34,39.2367,29.0090,9.6,,1.4,,YEMISLI-SIMAV (KUTAHYA) İlksel
2026.04.12,16:47:23,39.2307,28.9473,10.8,,1.6,,YENILER-SIMAV (KUTAHYA) İlksel
2026.04.12,16:54:12,37.0163,27.6182,3.1,,2.0,,GOKOVA KORFEZI (EGE DENIZI) İlksel
2026.04.12,17:09:34,39.2110,29.0388,9.9,,0.8,,EGIRLER-SIMAV (KUTAHYA) İlksel
2026.04.12,17:22:36,40.7803,27.4688,18.3,,2.0,,YENIKOY-(TEKIRDAG) İlksel
2026.04.12,17:57:14,39.1980,29.0810,10.0,,1.5,,TOKAT-HISARCIK (KUTAHYA) İlksel
2026.04.12,18:12:15,39.2290,28.9947,4.6,,2.2,,YEMISLI-SIMAV (KUTAHYA) İlksel
2026.04.12,18:38:27,38.0168,37.6818,8.1,,2.0,,KUCUKLU-DOGANSEHIR (MALATYA) İlksel
2026.04.12,18:41:13,39.2423,28.9465,11.6,,2.1,,YENILER-SIMAV (KUTAHYA) İlksel
2026.04.12,19:02:11,36.9540,27.5113,13.8,,1.5,,GOKOVA KORFEZI (EGE DENIZI) İlksel
2026.04.12,19:10:48,39.1812,29.0108,10.6,,1.7,,KARACAOREN-SIMAV (KUTAHYA) İlksel
2026.04.12,19:14:57,39.2203,29.0173,12.8,,2.0,,EGIRLER-SIMAV (KUTAHYA) İlksel
2026.04.12,19:15:43,38.9550,28.9080,11.2,,1.1,,GURCESME-DEMIRCI (MANISA) İlksel
2026.04.12,19:22:37,38.4708,37.3010,7.5,,2.1,,AKARCA-ELBISTAN (KAHRAMANMARAS) İlksel
2026.04.12,19:35:01,39.2468,28.1362,10.7,,1.6,,MANDIRA-SINDIRGI (BALIKESIR) İlksel
2026.04.12,19:56:03,39.1880,28.9952,14.0,,1.4,,EGIRLER-SIMAV (KUTAHYA) İlksel
2026.04.12,20:26:20,37.8852,36.4638,8.5,,1.9,,DEGIRMENDERE-GOKSUN (KAHRAMANMARAS) İlksel
2026.04.12,20:52:19,41.3102,28.2277,0.0,,1.3,,DANAMANDIRA-SILIVRI (ISTANBUL) İlksel
2026.04.12,21:27:50,40.7547,27.6837,5.0,,0.3,,MARMARA DENIZI İlksel
2026.04.12,21:51:48,39.2435,28.9842,15.0,,1.6,,YEMISLI-SIMAV (KUTAHYA) İlksel
2026.04.12,22:42:15,39.2118,28.9857,16.5,,0.9,,EGIRLER-SIMAV (KUTAHYA) İlksel
2026.04.12,22:55:12,39.2022,28.0295,19.6,,1.1,,SAHINKAYA-SINDIRGI (BALIKESIR) İlksel
2026.04.12,23:15:08,39.2282,29.0162,13.6,,1.6,,YEMISLI-SIMAV (KUTAHYA) İlksel
2026.04.12,23:28:21,39.2358,29.0373,4.0,,1.1,,KATRANDAGI-EMET (KUTAHYA) İlksel
2026.04.13,00:02:46,37.1467,27.9372,3.7,,1.7,,SEKKOY-MILAS (MUGLA) İlksel
2026.04.13,00:04:00,38.1017,38.4368,7.5,,1.1,,KARAGOL-CELIKHAN (ADIYAMAN) İlksel
