Date,Time,Latitude,Longitude,Depth,MD,ML,Mw,Location
2026.04.01,00:09:24,38.9663,26.0212,8.3,,2.4,,MIDILLI ADASI GUNEYI (EGE DENIZI) İlksel
2026.04.01,01:33:35,38.0933,38.4075,5.8,,3.0,,KARAGOL-CELIKHAN (ADIYAMAN) İlksel
2026.04.01,02:05:14,39.8725,41.7543,9.9,,2.0,,TASLIYURT-PASINLER (ERZURUM) İlksel
2026.04.01,02:22:51,38.4705,37.7448,7.0,,1.1,,ESENBEY-AKCADAG (MALATYA) İlksel
2026.04.01,02:28:52,40.8202,36.0888,17.7,,1.1,,AKTAS-(AMASYA) İlksel
2026.04.01,02:50:14,37.8953,36.4115,5.4,,1.5,,BUYUKCAMURLU-GOKSUN (KAHRAMANMARAS) İlksel
