Date,Time,Latitude,Longitude,Depth,MD,ML,Mw,Location
2026.05.01,00:57:46,39.4085,40.6403,4.7,,3.4,3.3,ELMALI-YEDISU (BINGOL) İlksel
2026.05.01,01:05:04,39.2142,28.1080,13.3,,1.2,,KERTIL-SINDIRGI (BALIKESIR) İlksel
2026.05.01,01:08:40,39.1110,28.2327,14.5,,2.3,,KINIK-SINDIRGI (BALIKESIR) İlksel
2026.05.01,02:02:17,38.2528,42.4323,3.9,,2.5,,SUTTASI-HIZAN (BITLIS) İlksel
2026.05.01,02:13:01,38.2725,38.1090,17.8,,1.0,,GORGU-YESILYURT (MALATYA) İlksel
2026.05.01,02:15:19,37.7657,26.4113,13.3,,1.6,,ONIKI ADALAR (EGE DENIZI) İlksel
2026.05.01,02:20:50,36.0580,29.0192,19.0,,1.5,,AKDENIZ İlksel
2026.05.01,02:41:11,38.3663,37.2837,13.7,,1.7,,GOKCEK-ELBISTAN (KAHRAMANMARAS) İlksel
2026.05.01,02:51:50,39.1405,25.8223,16.5,,2.4,,EGE DENIZI İlksel
2026.05.01,03:03:34,38.1042,38.4497,6.8,,1.2,,KARAGOL-CELIKHAN (ADIYAMAN) İlksel
2026.05.01,03:07:11,40.3792,24.0247,10.7,,1.2,,YUNANISTAN İlksel
2026.05.01,03:13:37,40.8758,31.6342,8.3,,1.5,,CUKUROREN-(BOLU) İlksel
2026.05.01,03:20:43,38.7788,26.3940,6.9,,2.1,,EGE DENIZI İlksel
2026.05.01,03:24:31,39.0798,28.2500,4.7,,0.9,,CICEKLI-GORDES (MANISA) İlksel
2026.05.01,03:39:16,39.1812,28.1805,13.8,,2.4,,AKTAS-SINDIRGI (BALIKESIR) İlksel
2026.05.01,03:53:43,39.1820,28.0440,12.9,,0.9,,SAHINKAYA-SINDIRGI (BALIKESIR) İlksel
2026.05.01,04:08:36,38.7652,26.4225,7.6,,1.8,,EGE DENIZI İlksel
2026.05.01,04:40:49,39.0823,28.3500,9.7,,1.6,,KOBAKLAR-GORDES (MANISA) İlksel
2026.05.01,05:03:24,39.1475,28.2718,12.4,,2.2,,YUREGIL-SINDIRGI (BALIKESIR) İlksel
2026.05.01,05:23:46,36.9500,29.0292,18.2,,0.8,,GURLEYIK-DALAMAN (MUGLA) İlksel
2026.05.01,05:26:31,38.3122,38.2818,12.4,,1.5,,BOSTANBASI-YESILYURT (MALATYA) İlksel
2026.05.01,05:38:47,37.9025,27.6482,1.1,,1.6,,KIZILCAGEDIK-GERMENCIK (AYDIN) İlksel
2026.05.01,05:49:44,39.2472,28.0857,8.7,,1.8,,KOZLU-SINDIRGI (BALIKESIR) İlksel
2026.05.01,05:59:13,39.1620,28.2960,4.9,,1.2,,ISIKLAR-SINDIRGI (BALIKESIR) İlksel
2026.05.01,06:14:11,37.9333,36.5492,5.0,,3.0,3.1,KURUCAOVA-(KAHRAMANMARAS) İlksel
2026.05.01,06:28:00,36.6442,26.8557,111.1,,2.4,,KOS ADASI (EGE DENIZI) İlksel
2026.05.01,06:41:19,38.3038,37.5258,16.0,,1.6,,YAPILIPINAR-ELBISTAN (KAHRAMANMARAS) İlksel
2026.05.01,06:42:58,35.8542,32.7022,14.9,,1.5,,ANAMUR ACIKLARI-MERSIN (AKDENIZ) İlksel
2026.05.01,06:52:37,40.0333,28.6455,3.2,,1.6,,AGACLI-MUSTAFAKEMALPASA (BURSA) İlksel
2026.05.01,07:20:47,36.8953,29.0843,1.8,,1.9,,GURLEYIK-DALAMAN (MUGLA) İlksel
2026.05.01,07:40:21,37.3825,26.7765,9.5,,2.0,,ONIKI ADALAR (EGE DENIZI) İlksel
2026.05.01,08:20:08,37.0343,24.1973,11.8,,2.5,,YUNANISTAN İlksel
2026.05.01,09:11:57,38.8622,43.4808,9.0,,2.8,,KARAAGAC-(VAN) İlksel
2026.05.01,10:01:24,36.6845,25.7028,17.5,,2.6,,EGE DENIZI İlksel
2026.05.01,10:36:52,39.2015,28.9270,12.9,,1.9,,HAMZABEY-SIMAV (KUTAHYA) İlksel
2026.05.01,10:38:29,36.6892,25.7643,9.4,,2.7,,EGE DENIZI İlksel
2026.05.01,10:55:10,37.9532,36.1102,19.1,,1.7,,SAIMBEYLI (ADANA) İlksel
2026.05.01,11:04:25,38.7435,26.5652,7.5,,1.6,,EGE DENIZI İlksel
2026.05.01,11:06:47,36.6658,25.6493,9.5,,2.1,,EGE DENIZI İlksel
2026.05.01,12:08:56,39.1703,28.1320,5.4,,1.5,,SINANDEDE-SINDIRGI (BALIKESIR) İlksel
2026.05.01,12:19:36,39.2340,28.0932,9.5,,1.7,,KOZLU-SINDIRGI (BALIKESIR) İlksel
2026.05.01,12:35:42,39.4227,28.4677,11.8,,1.3,,YUKARIGOCEK-BIGADIC (BALIKESIR) İlksel
2026.05.01,12:40:49,35.7023,26.5580,12.7,,2.4,,EGE DENIZI İlksel
2026.05.01,12:40:55,36.9063,29.1295,20.1,,1.7,,KARABAYIR-CAMELI (DENIZLI) İlksel
2026.05.01,12:46:03,35.0318,26.2168,19.7,,2.2,,GIRIT ADASI (AKDENIZ) İlksel
2026.05.01,12:59:13,39.2295,28.0340,20.9,,1.3,,ALAKIR-SINDIRGI (BALIKESIR) İlksel
2026.05.01,13:26:48,36.3883,33.4440,2.8,,1.2,,CUKURASMA-GULNAR (MERSIN) İlksel
2026.05.01,13:46:10,37.9863,27.1125,5.4,,2.2,,KUSADASI KORFEZI (EGE DENIZI) İlksel
2026.05.01,14:07:13,37.5615,29.6967,5.0,,2.4,,ISIKLAR-YESILOVA (BURDUR) İlksel
2026.05.01,14:24:38,38.1782,37.3012,6.4,,2.0,,AKBAYIR-ELBISTAN (KAHRAMANMARAS) İlksel
2026.05.01,14:33:47,39.6490,33.3090,13.9,,1.1,,SARIKAYALAR-BAHSILI (KIRIKKALE) İlksel
2026.05.01,14:50:24,39.9555,39.6163,21.7,,2.0,,ESKIYOL-KELKIT (GUMUSHANE) İlksel
2026.05.01,15:03:31,40.5593,27.3735,14.9,,1.1,,MUREFTE ACIKLARI-TEKIRDAG (MARMARA DENIZI) İlksel
2026.05.01,15:21:21,39.1422,28.3580,9.6,,1.9,,YAYLABAYIR-SINDIRGI (BALIKESIR) İlksel
2026.05.01,15:53:01,37.8247,35.3587,5.0,,2.2,,ULUPINAR-YAHYALI (KAYSERI) İlksel
2026.05.01,16:21:25,37.8923,36.4775,3.2,,1.7,,DEGIRMENDERE-GOKSUN (KAHRAMANMARAS) İlksel
2026.05.01,16:38:58,38.4930,40.1885,6.5,,2.0,,YOGUNBILEK-ARICAK (ELAZIG) İlksel
2026.05.01,17:27:38,40.6977,28.6607,5.0,,1.7,,MARMARA DENIZI İlksel
2026.05.01,18:03:41,37.9307,38.3837,12.6,,1.8,,KOZAN-(ADIYAMAN) İlksel
2026.05.01,18:52:26,39.4917,38.4462,24.4,,1.7,,DOSTAL-ILIC (ERZINCAN) İlksel
2026.05.01,19:10:49,39.2180,28.0873,5.4,,2.1,,KERTIL-SINDIRGI (BALIKESIR) İlksel
2026.05.01,19:28:07,39.1298,28.2813,14.0,,1.4,,YUREGIL-SINDIRGI (BALIKESIR) REVIZE01 (2026.05.01 19:28:09)
2026.05.01,19:48:01,38.1140,27.2185,5.8,,1.8,,KARAKUYU-MENDERES (IZMIR) İlksel
2026.05.01,19:56:13,36.3445,28.6770,10.3,,2.1,,AKDENIZ İlksel
2026.05.01,20:04:16,37.3715,26.7328,7.4,,1.8,,ONIKI ADALAR (EGE DENIZI) İlksel
2026.05.01,21:29:37,37.9627,38.1773,13.9,,1.7,,SARIKAYA-(ADIYAMAN) İlksel
2026.05.01,21:33:41,36.0638,30.9573,50.1,,2.4,,AKDENIZ İlksel
2026.05.01,21:49:39,38.2198,37.7587,17.7,,1.1,,CAVUSLU-DOGANSEHIR (MALATYA) İlksel
2026.05.01,22:24:40,38.4230,37.2298,19.7,,1.9,,SARIYATAK-ELBISTAN (KAHRAMANMARAS) İlksel
2026.05.01,22:34:31,39.2288,28.2112,15.9,,1.4,,PURSUNLER-SINDIRGI (BALIKESIR) İlksel
2026.05.01,22:52:41,39.2207,41.6535,13.5,,1.8,,ELMADALI-HINIS (ERZURUM) İlksel
2026.05.01,22:54:22,36.9812,30.6852,1.3,,1.6,,DUACI-KEPEZ (ANTALYA) İlksel
2026.05.01,23:03:17,37.8208,36.5112,17.8,,2.4,,KUMARLI-(KAHRAMANMARAS) İlksel
2026.05.01,23:29:38,40.2940,24.1192,7.4,,1.9,,YUNANISTAN İlksel
2026.05.01,23:41:27,39.1812,28.1192,5.2,,1.3,,ORMANICI-SINDIRGI (BALIKESIR) İlksel
2026.05.01,23:49:53,39.0450,28.2905,4.4,,1.3,,MALAZ-GORDES (MANISA) İlksel
2026.05.02,00:07:46,36.8305,29.1522,18.2,,1.2,,ARPACIK-FETHIYE (MUGLA) İlksel
2026.05.02,01:26:55,38.0690,36.5158,5.0,,2.0,,ORTATEPE-GOKSUN (KAHRAMANMARAS) İlksel
2026.05.02,01:41:43,38.1167,38.4522,7.4,,1.6,,KARAGOL-CELIKHAN (ADIYAMAN) İlksel
2026.05.02,01:45:20,39.3397,40.6227,1.9,,1.6,,ELMALI-YEDISU (BINGOL) İlksel
2026.05.02,02:04:28,37.7137,27.1665,2.5,,1.7,,GUZELCAMLI-KUSADASI (AYDIN) İlksel
2026.05.02,03:13:23,36.0717,30.1877,10.8,,1.6,,FINIKE ACIKLARI-ANTALYA (AKDENIZ) İlksel
2026.05.02,03:23:22,36.9037,29.1027,5.1,,1.7,,KARABAYIR-CAMELI (DENIZLI) İlksel
2026.05.02,03:24:26,36.9072,29.1093,5.0,,1.7,,KARABAYIR-CAMELI (DENIZLI) İlksel
2026.05.02,03:33:54,35.9510,30.2682,7.5,,2.6,,AKDENIZ İlksel
2026.05.02,03:37:44,37.1638,28.7305,9.2,,1.8,,TURGUT-ULA (MUGLA) İlksel
2026.05.02,03:44:49,37.8425,36.4387,8.8,,2.1,,GEBEN-ANDIRIN (KAHRAMANMARAS) İlksel
2026.05.02,04:30:31,38.0818,37.6210,5.0,,1.7,,TAPKIRANKALE-ELBISTAN (KAHRAMANMARAS) İlksel
2026.05.02,05:08:12,39.2070,28.9852,11.1,,1.4,,EGIRLER-SIMAV (KUTAHYA) İlksel
2026.05.02,06:43:31,41.2837,43.9255,5.4,,2.7,,GURCISTAN İlksel
2026.05.02,06:50:10,36.9067,29.0887,5.0,,1.4,,GURLEYIK-DALAMAN (MUGLA) İlksel
2026.05.02,07:52:46,39.6058,25.9982,5.4,,2.2,,TAVAKLI ACIKLARI-CANAKKALE (EGE DENIZI) İlksel
2026.05.02,07:59:07,34.8535,26.1245,7.7,,2.4,,GIRIT ADASI ACIKLARI (AKDENIZ) İlksel
2026.05.02,08:37:43,34.8367,26.2187,7.6,,2.6,,GIRIT ADASI ACIKLARI (AKDENIZ) İlksel
2026.05.02,08:48:14,38.1168,32.7347,5.5,,1.2,,EGRIBAYAT-SELCUKLU (KONYA) İlksel
2026.05.02,08:53:21,37.1405,28.5375,6.7,,3.1,3.1,GOLCUK-ULA (MUGLA) İlksel
2026.05.02,09:25:24,40.1968,25.1653,10.3,,3.0,3.0,EGE DENIZI İlksel
2026.05.02,09:51:20,37.1292,28.5095,5.0,,1.7,,ARMUTCUK-ULA (MUGLA) İlksel
2026.05.02,09:55:25,40.2023,31.8097,7.6,,1.9,,SARIAGIL-BEYPAZARI (ANKARA) İlksel
2026.05.02,10:18:05,39.0457,28.9785,7.6,,1.4,,SAMAT-SIMAV (KUTAHYA) İlksel
2026.05.02,10:19:07,34.9588,26.1850,9.0,,2.5,,GIRIT ADASI ACIKLARI (AKDENIZ) İlksel
2026.05.02,10:29:28,38.0325,28.9717,5.7,,1.6,,MAHMUTLU-BULDAN (DENIZLI) İlksel
2026.05.02,10:55:53,37.1620,28.6712,10.9,,2.3,,TURGUT-ULA (MUGLA) İlksel
2026.05.02,11:00:19,34.9392,26.1785,8.5,,3.6,,GIRIT ADASI ACIKLARI (AKDENIZ) İlksel
2026.05.02,11:03:14,39.5927,33.5953,12.7,,1.3,,CERITKALE-KESKIN (KIRIKKALE) İlksel
2026.05.02,11:30:13,35.8998,28.1197,9.2,,3.6,3.6,AKDENIZ İlksel
2026.05.02,11:32:25,39.1817,28.1892,13.2,,2.3,,AKTAS-SINDIRGI (BALIKESIR) İlksel
2026.05.02,12:35:10,39.1335,29.0253,11.8,,1.1,,KAPIKAYA-SIMAV (KUTAHYA) İlksel
2026.05.02,12:46:50,36.2495,33.7535,9.8,,1.3,,AKDERE-SILIFKE (MERSIN) İlksel
2026.05.02,13:15:18,41.1738,34.9647,5.0,,3.7,3.7,DARICAY-VEZIRKOPRU (SAMSUN) İlksel
2026.05.02,13:29:48,41.1797,34.9637,5.0,,2.8,,DARICAY-VEZIRKOPRU (SAMSUN) İlksel
2026.05.02,13:34:27,38.5102,39.5022,5.8,,1.8,,PLAJKOY-MADEN (ELAZIG) İlksel
2026.05.02,14:14:47,36.8940,29.1097,5.0,,2.3,,KARABAYIR-CAMELI (DENIZLI) İlksel
2026.05.02,14:34:26,39.0753,25.7297,7.8,,2.6,,EGE DENIZI İlksel
2026.05.02,15:26:28,35.7935,25.6988,8.5,,2.5,,EGE DENIZI İlksel
2026.05.02,15:30:20,35.6193,25.7140,10.9,,2.7,,GIRIT ADASI (AKDENIZ) İlksel
2026.05.02,18:59:15,40.4327,28.9175,5.8,,1.5,,GEMLIK KORFEZI (MARMARA DENIZI) İlksel
2026.05.02,19:08:49,39.0890,33.2293,6.7,,1.9,,AKIN-SEREFLIKOCHISAR (ANKARA) İlksel
2026.05.02,20:28:26,39.1680,28.2340,10.0,,1.8,,BAYRAKLI-SINDIRGI (BALIKESIR) İlksel
2026.05.02,21:10:39,38.0373,36.6727,11.4,,2.0,,AHMETCIK-GOKSUN (KAHRAMANMARAS) İlksel
2026.05.02,21:33:43,39.2280,28.0835,10.9,,1.3,,KOZLU-SINDIRGI (BALIKESIR) İlksel
2026.05.02,22:47:48,40.8093,31.6797,12.4,,1.4,,GOLCUK-(BOLU) İlksel
2026.05.02,22:59:57,37.1563,28.5097,4.0,,1.7,,YARAS-(MUGLA) İlksel
2026.05.02,23:05:04,39.5158,37.5437,2.7,,3.2,3.2,IGDELI-ZARA (SIVAS) İlksel
2026.05.02,23:29:31,37.8447,37.7185,10.4,,1.4,,AKTOPRAK-GOLBASI (ADIYAMAN) İlksel
2026.05.02,23:45:29,38.5725,42.4687,19.1,,1.7,,SARIKUM-TATVAN (BITLIS) İlksel
2026.05.03,00:07:05,38.2840,38.2280,10.9,,1.6,,YESILYURT (MALATYA) İlksel
2026.05.03,00:15:21,39.0772,28.2410,15.4,,0.9,,CICEKLI-GORDES (MANISA) İlksel
2026.05.03,00:16:46,41.6857,43.0327,21.5,,1.6,,TURKGOZU-POSOF (ARDAHAN) İlksel
2026.05.03,00:34:05,38.2323,37.7617,19.9,,1.1,,CEVIRME-AKCADAG (MALATYA) İlksel
2026.05.03,00:36:20,39.2245,29.0462,5.2,,1.8,,KATRANDAGI-EMET (KUTAHYA) İlksel
2026.05.03,00:38:37,39.2408,29.0237,6.3,,1.7,,KATRANDAGI-EMET (KUTAHYA) İlksel
2026.05.03,00:38:38,36.6590,25.6750,4.7,,2.3,,EGE DENIZI İlksel
2026.05.03,00:54:44,39.1945,28.1822,13.3,,1.6,,YAYLACIK-SINDIRGI (BALIKESIR) İlksel
2026.05.03,01:11:47,39.2392,29.0360,6.1,,1.6,,KATRANDAGI-EMET (KUTAHYA) İlksel
2026.05.03,01:29:28,40.2380,34.8652,4.0,,1.5,,KUCUKCAMILI-ALACA (CORUM) İlksel
2026.05.03,01:39:43,39.2498,29.0065,5.0,,1.8,,YEMISLI-SIMAV (KUTAHYA) İlksel
2026.05.03,01:43:23,39.1198,27.7918,8.1,,1.9,,KARAKURT-KIRKAGAC (MANISA) İlksel
2026.05.03,01:44:18,40.9043,31.6252,5.3,,1.8,,YOGUNPELIT-YIGILCA (DUZCE) İlksel
2026.05.03,01:54:01,38.8377,38.2675,18.8,,1.0,,YENIKOY-ARGUVAN (MALATYA) İlksel
2026.05.03,01:54:59,38.8858,38.1575,9.4,,1.3,,KURUTTAS-ARGUVAN (MALATYA) İlksel
2026.05.03,02:16:14,38.9090,30.2393,4.3,,1.8,,OLUCAK-(AFYONKARAHISAR) İlksel
2026.05.03,02:56:16,39.2202,28.1753,14.1,,1.6,,YAYLACIK-SINDIRGI (BALIKESIR) İlksel
2026.05.03,02:56:46,39.8925,41.7878,13.9,,1.5,,UZUNARK-PASINLER (ERZURUM) İlksel
2026.05.03,03:08:28,39.6505,25.9393,5.5,,1.4,,TAVAKLI ACIKLARI-CANAKKALE (EGE DENIZI) İlksel
2026.05.03,03:12:19,34.9250,25.9317,5.1,,2.7,,GIRIT ADASI ACIKLARI (AKDENIZ) İlksel
2026.05.03,03:14:04,36.8902,29.0983,4.9,,2.0,,DARIYERI-DALAMAN (MUGLA) İlksel
2026.05.03,03:26:15,39.1178,27.5730,5.0,,1.3,,DEREKOY-SOMA (MANISA) İlksel
2026.05.03,03:38:43,36.9583,28.5668,3.3,,2.0,,DOGUSBELEN-KOYCEGIZ (MUGLA) İlksel
2026.05.03,03:41:41,35.1170,27.1927,5.9,,2.9,,AKDENIZ İlksel
2026.05.03,04:06:05,38.3735,37.4315,5.1,,1.4,,YALINTAS-ELBISTAN (KAHRAMANMARAS) İlksel
2026.05.03,04:10:32,39.1793,28.2108,15.3,,3.1,,AKTAS-SINDIRGI (BALIKESIR) İlksel
2026.05.03,04:14:11,38.2840,38.2895,4.5,,1.9,,GUNDUZBEY-YESILYURT (MALATYA) İlksel
2026.05.03,04:31:50,39.1793,28.1272,13.4,,1.7,,ORMANICI-SINDIRGI (BALIKESIR) İlksel
2026.05.03,04:43:43,38.2447,38.1667,9.1,,1.5,,SEYITUSAGI-YESILYURT (MALATYA) İlksel
2026.05.03,04:45:28,36.3667,34.8150,21.2,,2.0,,AKDENIZ İlksel
2026.05.03,04:59:49,38.0718,28.9740,10.6,,1.9,,YENICEKENT-BULDAN (DENIZLI) İlksel
2026.05.03,05:04:18,39.2418,28.9988,7.0,,1.7,,YEMISLI-SIMAV (KUTAHYA) İlksel
2026.05.03,05:14:35,39.1282,29.9427,5.5,,1.8,,GOKCELER-ALTINTAS (KUTAHYA) İlksel
2026.05.03,05:17:03,36.8890,29.1297,1.4,,1.4,,KARABAYIR-CAMELI (DENIZLI) İlksel
2026.05.03,05:54:21,39.3013,25.6848,8.0,,1.6,,EGE DENIZI İlksel
2026.05.03,06:05:37,38.0408,28.9507,14.9,,1.3,,YENICEKENT-BULDAN (DENIZLI) İlksel
2026.05.03,06:20:00,38.8285,26.8458,3.4,,2.1,,CANDARLI KORFEZI (EGE DENIZI) İlksel
2026.05.03,06:21:37,37.9837,36.5065,5.0,,2.1,,KIRECKOY-GOKSUN (KAHRAMANMARAS) İlksel
2026.05.03,06:36:08,39.2510,29.0535,8.1,,1.7,,KATRANDAGI-EMET (KUTAHYA) İlksel
2026.05.03,07:00:06,37.9395,36.2982,9.0,,1.7,,HACIKODAL-GOKSUN (KAHRAMANMARAS) İlksel
2026.05.03,07:10:17,34.9417,25.9997,5.0,,2.6,,GIRIT ADASI ACIKLARI (AKDENIZ) İlksel
2026.05.03,07:20:21,39.2802,28.0810,18.8,,2.3,,KUCUKBUKU-SINDIRGI (BALIKESIR) İlksel
2026.05.03,07:25:57,34.7250,23.9387,69.0,,2.9,,GIRIT ADASI (AKDENIZ) İlksel
2026.05.03,07:29:18,40.1605,31.6983,1.5,,2.1,,ULUKOY-NALLIHAN (ANKARA) İlksel
2026.05.03,07:32:04,39.3582,38.5362,5.0,,3.3,3.3,CALDERE-KEMALIYE (ERZINCAN) İlksel
2026.05.03,07:53:52,39.2610,28.1113,13.2,,2.1,,KARAGUR-SINDIRGI (BALIKESIR) İlksel
2026.05.03,08:01:20,36.8755,29.1215,11.2,,2.0,,DARIYERI-DALAMAN (MUGLA) İlksel
2026.05.03,09:00:15,34.8880,25.9727,7.3,,2.4,,GIRIT ADASI ACIKLARI (AKDENIZ) İlksel
2026.05.03,09:42:11,39.3620,38.4858,5.0,,2.2,,SALIHLI-KEMALIYE (ERZINCAN) İlksel
2026.05.03,10:08:27,39.1697,28.1943,17.2,,1.4,,AKTAS-SINDIRGI (BALIKESIR) İlksel
2026.05.03,10:14:34,38.1103,38.3915,15.9,,1.2,,KARAGOL-CELIKHAN (ADIYAMAN) İlksel
2026.05.03,10:53:32,38.2708,37.7730,6.7,,2.1,,CEVIRME-AKCADAG (MALATYA) İlksel
2026.05.03,10:57:42,38.3337,37.7862,4.9,,1.5,,KAHYALI-AKCADAG (MALATYA) İlksel
2026.05.03,10:59:50,36.1583,36.0308,16.6,,2.5,,FIDANLI-SAMANDAG (HATAY) İlksel
2026.05.03,11:34:16,38.2862,37.7660,7.3,,2.0,,CEVIRME-AKCADAG (MALATYA) İlksel
2026.05.03,11:35:32,37.9223,36.8055,12.0,,1.7,,HACIIBRAHIMUSAGI-(KAHRAMANMARAS) İlksel
2026.05.03,11:47:17,38.5808,28.0992,7.2,,1.4,,PAZARKOY-SALIHLI (MANISA) İlksel
2026.05.03,11:50:43,38.2975,37.6973,6.7,,1.5,,HARUNUSAGI-AKCADAG (MALATYA) İlksel
2026.05.03,11:59:07,37.8527,36.1660,6.9,,2.1,,DEGIRMENCIUSAGI-SAIMBEYLI (ADANA) İlksel
2026.05.03,12:07:13,40.6253,33.0148,16.8,,1.6,,YUVA-ORTA (CANKIRI) İlksel
2026.05.03,12:18:05,38.8660,38.0025,5.0,,1.1,,CANAKPINAR-HEKIMHAN (MALATYA) İlksel
2026.05.03,12:20:34,39.2342,28.9920,6.9,,2.0,,YEMISLI-SIMAV (KUTAHYA) İlksel
2026.05.03,13:10:55,38.2867,37.7785,5.3,,2.6,,DUTLU-AKCADAG (MALATYA) İlksel
2026.05.03,13:11:09,38.2827,37.7353,5.2,,2.6,,CEVIRME-AKCADAG (MALATYA) İlksel
2026.05.03,13:15:37,38.2588,37.7517,11.0,,1.9,,CEVIRME-AKCADAG (MALATYA) İlksel
2026.05.03,13:19:19,38.2798,37.5107,2.2,,1.6,,YALAKKOY-ELBISTAN (KAHRAMANMARAS) İlksel
2026.05.03,13:21:10,38.2743,37.7435,7.4,,2.0,,CEVIRME-AKCADAG (MALATYA) İlksel
2026.05.03,13:22:39,39.2627,28.0193,14.3,,1.4,,KIZILGUR-SINDIRGI (BALIKESIR) İlksel
2026.05.03,13:53:44,38.2845,37.7698,7.5,,1.9,,CEVIRME-AKCADAG (MALATYA) İlksel
2026.05.03,13:57:38,38.3147,37.7735,7.9,,2.0,,DUTLU-AKCADAG (MALATYA) İlksel
2026.05.03,14:14:48,38.3067,37.7727,15.4,,1.8,,DUTLU-AKCADAG (MALATYA) İlksel
2026.05.03,14:48:35,38.3125,37.7760,3.7,,2.0,,DUTLU-AKCADAG (MALATYA) İlksel
2026.05.03,14:51:42,38.2633,37.7260,8.4,,1.6,,CEVIRME-AKCADAG (MALATYA) İlksel
2026.05.03,14:59:56,38.2955,37.7405,3.8,,1.7,,CEVIRME-AKCADAG (MALATYA) İlksel
2026.05.03,16:32:15,39.1243,28.3395,5.4,,1.5,,YUREGIL-SINDIRGI (BALIKESIR) İlksel
2026.05.03,19:22:31,39.1597,28.1198,9.4,,1.7,,SINANDEDE-SINDIRGI (BALIKESIR) İlksel
2026.05.03,19:31:01,38.2907,37.7690,10.8,,1.4,,CEVIRME-AKCADAG (MALATYA) İlksel
2026.05.03,19:37:31,35.9362,29.8232,13.5,,3.1,3.2,AKDENIZ İlksel
2026.05.03,20:00:53,39.1117,28.3278,11.2,,1.5,,YUREGIL-SINDIRGI (BALIKESIR) İlksel
2026.05.03,20:05:05,39.1618,28.0595,5.2,,1.6,,SOGUTLU-AKHISAR (MANISA) İlksel
2026.05.03,20:25:38,39.2285,38.0887,5.0,,1.9,,OLUKMAN-DIVRIGI (SIVAS) İlksel
2026.05.03,20:42:21,40.3272,27.1055,20.3,,1.3,,KARACAALI-BIGA (CANAKKALE) İlksel
2026.05.03,21:03:01,40.6345,36.8138,5.0,,2.1,,BUZKOY-NIKSAR (TOKAT) İlksel
2026.05.03,22:05:31,38.2333,38.1400,13.1,,1.3,,GORGU-YESILYURT (MALATYA) İlksel
2026.05.03,23:07:40,40.2323,31.7350,7.6,,2.2,,HIRKATEPE-BEYPAZARI (ANKARA) İlksel
2026.05.03,23:25:47,40.2688,31.6980,14.6,,2.3,,DUDAS-BEYPAZARI (ANKARA) İlksel
2026.05.03,23:45:02,40.2288,24.1007,6.8,,2.2,,YUNANISTAN İlksel
2026.05.03,23:57:39,37.4737,37.1837,4.6,,3.0,3.0,DOGANLIKARAHASAN-PAZARCIK (KAHRAMANMARAS) İlksel
2026.05.04,00:21:39,39.1605,28.9252,16.7,,1.5,,GUNEY-SIMAV (KUTAHYA) İlksel
2026.05.04,00:34:03,38.4612,37.2937,8.0,,1.7,,AKARCA-ELBISTAN (KAHRAMANMARAS) İlksel
2026.05.04,00:35:16,38.8092,37.4663,8.0,,1.4,,BAGLICAY-GURUN (SIVAS) İlksel
2026.05.04,00:35:54,34.8507,25.0322,22.1,,2.5,,GIRIT ADASI ACIKLARI (AKDENIZ) İlksel
2026.05.04,02:48:31,36.8900,29.1093,8.2,,1.5,,DARIYERI-DALAMAN (MUGLA) İlksel
2026.05.04,02:50:54,38.2842,38.2735,7.8,,1.5,,GUNDUZBEY-YESILYURT (MALATYA) İlksel
2026.05.04,03:48:19,36.9868,29.3383,5.5,,1.2,,SOFULAR-CAMELI (DENIZLI) İlksel
2026.05.04,03:52:12,40.8065,31.9735,13.2,,1.6,,OREN-YENICAGA (BOLU) İlksel
2026.05.04,03:57:40,38.2647,37.7642,11.7,,1.5,,CEVIRME-AKCADAG (MALATYA) İlksel
2026.05.04,04:27:13,39.1687,28.2567,8.0,,1.5,,BAYRAKLI-SINDIRGI (BALIKESIR) İlksel
2026.05.04,04:46:45,39.1855,28.2883,11.4,,1.4,,ISIKLAR-SINDIRGI (BALIKESIR) İlksel
2026.05.04,04:52:25,38.8157,30.4142,5.1,,1.6,,DEMIRCEVRE-(AFYONKARAHISAR) İlksel
2026.05.04,05:04:47,39.1877,28.2482,8.2,,1.8,,ILICA-SINDIRGI (BALIKESIR) İlksel
2026.05.04,05:36:34,38.6860,37.3263,13.4,,1.4,,KARAHISAR-GURUN (SIVAS) İlksel
2026.05.04,06:19:37,36.9115,29.1082,11.0,,1.7,,KARABAYIR-CAMELI (DENIZLI) İlksel
2026.05.04,06:29:05,38.8398,43.5703,5.0,,2.6,,AKCIFT-(VAN) İlksel
2026.05.04,07:22:32,40.3657,28.9328,8.2,,2.1,,ALTINTAS-MUDANYA (BURSA) İlksel
2026.05.04,07:36:55,40.0585,34.6493,9.7,,1.9,,EMIRLER-BOGAZKALE (CORUM) İlksel
2026.05.04,08:17:39,38.2912,27.4832,16.8,,1.3,,CINARDIBI-BAYINDIR (IZMIR) İlksel
2026.05.04,08:54:17,37.2540,36.3320,11.0,,1.6,,ATALAN-DUZICI (OSMANIYE) İlksel
2026.05.04,09:17:23,35.7870,27.1142,9.7,,2.2,,EGE DENIZI İlksel
2026.05.04,11:21:54,38.7237,27.9750,11.9,,1.3,,BEYLER-GOLMARMARA (MANISA) İlksel
2026.05.04,11:59:15,36.8905,29.0977,5.0,,2.1,,DARIYERI-DALAMAN (MUGLA) İlksel
2026.05.04,12:06:24,37.4442,43.2495,28.8,,2.2,,OYMAKAYA-BEYTUSSEBAP (SIRNAK) İlksel
2026.05.04,12:27:24,37.8322,29.4588,12.0,,1.6,,ALIKURT-BOZKURT (DENIZLI) İlksel
2026.05.04,12:29:43,39.1760,28.2160,11.1,,1.8,,AKTAS-SINDIRGI (BALIKESIR) İlksel
2026.05.04,12:54:25,38.1542,36.4435,9.2,,2.3,,MURSEL-GOKSUN (KAHRAMANMARAS) İlksel
2026.05.04,12:59:43,37.9690,36.6467,11.7,,1.8,,ELMALI-GOKSUN (KAHRAMANMARAS) İlksel
2026.05.04,13:07:15,38.2668,37.7673,10.0,,2.2,,CEVIRME-AKCADAG (MALATYA) İlksel
2026.05.04,13:14:18,36.8473,29.1392,4.6,,1.9,,ARPACIK-FETHIYE (MUGLA) İlksel
2026.05.04,13:22:28,38.0205,36.4240,7.5,,2.0,,ACIELMA-GOKSUN (KAHRAMANMARAS) İlksel
2026.05.04,13:49:18,38.0960,31.7267,6.7,,1.7,,AYASLAR-DOGANHISAR (KONYA) İlksel
2026.05.04,13:53:06,37.7418,35.8063,5.0,,2.1,,KOCYAZI-FEKE (ADANA) İlksel
2026.05.04,14:03:27,35.6793,25.4257,3.7,,2.2,,GIRIT ADASI (AKDENIZ) İlksel
2026.05.04,14:16:52,37.9603,36.1242,10.5,,1.5,,SAIMBEYLI (ADANA) İlksel
2026.05.04,14:25:37,34.8163,26.0748,6.7,,2.9,,GIRIT ADASI ACIKLARI (AKDENIZ) REVIZE02 (2026.05.04 14:25:37)
2026.05.04,14:27:10,39.1947,28.0487,7.3,,1.7,,SAHINKAYA-SINDIRGI (BALIKESIR) İlksel
2026.05.04,14:51:03,34.9410,26.0570,7.7,,2.7,,GIRIT ADASI ACIKLARI (AKDENIZ) İlksel
2026.05.04,14:58:24,39.1875,28.2073,11.1,,1.4,,AKTAS-SINDIRGI (BALIKESIR) İlksel
2026.05.04,15:35:25,38.3383,27.8602,15.9,,1.4,,KARAKOY-TURGUTLU (MANISA) REVIZE01 (2026.05.04 15:35:26)
2026.05.04,15:58:03,38.2998,27.8805,3.8,,2.2,,SUCIKTI-ODEMIS (IZMIR) İlksel
2026.05.04,15:58:38,38.2807,27.9003,5.4,,1.9,,TOSUNLAR-ODEMIS (IZMIR) İlksel
2026.05.04,16:06:28,35.7150,25.4347,7.3,,2.4,,EGE DENIZI İlksel
2026.05.04,16:29:44,39.4173,25.8767,11.2,,1.9,,BADEMLI ACIKLARI-CANAKKALE (EGE DENIZI) İlksel
2026.05.04,17:04:54,38.2402,37.7533,16.0,,1.3,,CEVIRME-AKCADAG (MALATYA) İlksel
2026.05.04,17:25:08,37.2287,27.3140,25.2,,1.7,,GULLUK KORFEZI (EGE DENIZI) İlksel
2026.05.04,17:58:13,37.9278,28.7812,5.4,,2.4,,KABAAGAC-SARAYKOY (DENIZLI) İlksel
2026.05.04,18:09:34,39.2698,28.0800,14.9,,1.7,,KUCUKBUKU-SINDIRGI (BALIKESIR) İlksel
2026.05.04,18:37:47,37.9073,36.5333,16.7,,1.7,,DEGIRMENDERE-GOKSUN (KAHRAMANMARAS) İlksel
2026.05.04,18:46:38,39.2758,28.1572,13.4,,1.5,,KARAAGAC-SINDIRGI (BALIKESIR) İlksel
2026.05.04,19:09:58,35.3225,27.3338,18.2,,2.8,,AKDENIZ İlksel
2026.05.04,19:16:39,38.3070,38.8215,14.0,,1.6,,BOLUKKAYA-PUTURGE (MALATYA) İlksel
2026.05.04,19:19:21,37.6728,36.4407,11.9,,1.6,,KALEBOYNU-ANDIRIN (KAHRAMANMARAS) İlksel
2026.05.04,19:29:26,38.4528,38.0063,9.8,,1.8,,KARAMAGARA-AKCADAG (MALATYA) İlksel
2026.05.04,19:57:55,38.0013,36.5768,8.4,,1.7,,KARAAHMET-GOKSUN (KAHRAMANMARAS) İlksel
2026.05.04,20:07:48,39.0818,39.0125,16.2,,1.8,,TORATLI-CEMISGEZEK (TUNCELI) İlksel
2026.05.04,20:15:59,38.1458,36.7005,27.9,,1.2,,KARAOMER-GOKSUN (KAHRAMANMARAS) İlksel
2026.05.04,20:35:10,39.2338,29.0167,7.3,,2.1,,YEMISLI-SIMAV (KUTAHYA) İlksel
2026.05.04,20:40:24,38.2518,37.7205,12.1,,1.5,,HARUNUSAGI-AKCADAG (MALATYA) İlksel
2026.05.04,20:58:52,38.2420,37.7185,12.5,,1.5,,HARUNUSAGI-AKCADAG (MALATYA) İlksel
2026.05.04,21:07:33,38.2072,37.7567,9.2,,1.2,,CAVUSLU-DOGANSEHIR (MALATYA) İlksel
2026.05.04,21:42:47,40.2187,31.9042,6.7,,2.0,,GEYIKPINARI-BEYPAZARI (ANKARA) İlksel
2026.05.04,21:43:26,37.9610,36.3020,8.3,,1.4,,KAZANDERE-GOKSUN (KAHRAMANMARAS) İlksel
2026.05.04,21:46:22,37.8897,36.5075,7.0,,1.8,,DEGIRMENDERE-GOKSUN (KAHRAMANMARAS) İlksel
2026.05.04,22:11:19,39.3310,42.2232,5.0,,2.3,,KARAGOZ-KARACOBAN (ERZURUM) İlksel
2026.05.04,22:30:58,38.4573,37.9925,11.4,,1.5,,KARAMAGARA-AKCADAG (MALATYA) İlksel
2026.05.04,22:34:33,38.2743,37.7447,3.8,,1.5,,CEVIRME-AKCADAG (MALATYA) İlksel
2026.05.04,22:35:46,38.4435,37.9893,13.3,,1.4,,YALINBUDAK-AKCADAG (MALATYA) İlksel
2026.05.04,22:37:44,39.3327,28.1082,18.5,,1.1,,ARMUTLU-SINDIRGI (BALIKESIR) İlksel
2026.05.04,22:38:17,41.1402,24.2427,5.3,,1.8,,YUNANISTAN İlksel
2026.05.04,23:03:59,37.8257,35.2750,5.9,,1.5,,ULUPINAR-YAHYALI (KAYSERI) İlksel
2026.05.04,23:14:16,37.3477,28.1525,11.1,,1.2,,MADENLER-YATAGAN (MUGLA) İlksel
2026.05.04,23:44:37,37.9018,36.5062,1.2,,2.0,,DEGIRMENDERE-GOKSUN (KAHRAMANMARAS) İlksel
2026.05.04,23:46:45,38.1272,37.2145,3.3,,1.6,,AKPINAR-EKINOZU (KAHRAMANMARAS) İlksel
2026.05.05,00:29:49,39.1918,28.1487,13.8,,1.6,,ORMANICI-SINDIRGI (BALIKESIR) İlksel
2026.05.05,00:32:50,39.1118,28.2892,15.4,,1.4,,YUREGIL-SINDIRGI (BALIKESIR) İlksel
2026.05.05,00:36:37,38.1650,27.4623,15.6,,1.3,,HAVUZBASI-BAYINDIR (IZMIR) İlksel
2026.05.05,00:40:59,38.3018,38.2232,7.6,,1.6,,YAKINCA-YESILYURT (MALATYA) İlksel
2026.05.05,00:46:12,39.1760,28.2618,10.6,,2.0,,ISIKLAR-SINDIRGI (BALIKESIR) İlksel
2026.05.05,00:52:11,38.0315,36.5878,9.1,,1.4,,SARAYCIK-GOKSUN (KAHRAMANMARAS) İlksel
2026.05.05,02:07:24,37.7557,36.4472,11.5,,1.4,,GEBEN-ANDIRIN (KAHRAMANMARAS) İlksel
2026.05.05,02:09:36,36.8953,29.1037,8.8,,1.8,,KARABAYIR-CAMELI (DENIZLI) İlksel
2026.05.05,02:15:34,36.8467,29.0983,5.0,,1.6,,DARIYERI-DALAMAN (MUGLA) İlksel
2026.05.05,02:23:17,39.1425,26.6580,10.3,,2.0,,ALTINOVA ACIKLARI-BALIKESIR (EGE DENIZI) İlksel
2026.05.05,02:27:38,40.8040,25.4618,13.4,,2.0,,EGE DENIZI İlksel
2026.05.05,02:33:18,37.9738,36.5460,5.8,,1.8,,KURUCAOVA-(KAHRAMANMARAS) İlksel
2026.05.05,02:48:03,39.3363,42.2418,6.3,,2.3,,ERENCE-MALAZGIRT (MUS) İlksel
2026.05.05,02:53:38,40.1850,31.7482,5.0,,2.1,,HIRKATEPE-BEYPAZARI (ANKARA) İlksel
2026.05.05,03:56:39,39.1662,28.2733,9.9,,1.3,,ISIKLAR-SINDIRGI (BALIKESIR) İlksel
2026.05.05,04:17:06,36.8522,28.0490,18.8,,1.2,,GOKOVA KORFEZI (EGE DENIZI) İlksel
2026.05.05,04:20:16,36.8150,29.1362,9.6,,1.4,,ARPACIK-FETHIYE (MUGLA) İlksel
2026.05.05,04:36:01,39.0598,41.5090,14.9,,1.5,,TEPEKOY-VARTO (MUS) İlksel
2026.05.05,04:38:09,38.2672,37.7448,11.3,,2.0,,CEVIRME-AKCADAG (MALATYA) İlksel
2026.05.05,04:44:25,38.2903,37.6063,15.4,,1.3,,TOPALLI-ELBISTAN (KAHRAMANMARAS) İlksel
2026.05.05,04:50:55,39.2387,27.7580,7.7,,2.3,,TEKELI ISIKLAR-SOMA (MANISA) İlksel
2026.05.05,04:55:08,38.0085,36.6237,15.8,,1.4,,ELMALI-GOKSUN (KAHRAMANMARAS) İlksel
2026.05.05,04:59:05,40.3705,28.9268,7.8,,2.2,,MUDANYA (BURSA) İlksel
2026.05.05,05:01:26,40.7672,31.9808,14.6,,1.1,,ASAGIKULDAN-YENICAGA (BOLU) İlksel
2026.05.05,05:17:36,37.1523,27.9425,12.8,,1.3,,YOGUNOLUK-MILAS (MUGLA) İlksel
2026.05.05,05:30:23,38.2223,38.2060,7.1,,1.1,,ATALAR-YESILYURT (MALATYA) İlksel
2026.05.05,06:09:16,39.2020,28.1698,10.8,,1.7,,YAYLACIK-SINDIRGI (BALIKESIR) İlksel
2026.05.05,06:23:06,37.4908,37.2633,8.1,,1.5,,ARMUTLU-PAZARCIK (KAHRAMANMARAS) İlksel
2026.05.05,06:25:28,39.2202,29.0133,14.6,,1.5,,EGIRLER-SIMAV (KUTAHYA) İlksel
2026.05.05,06:37:37,39.2417,28.9847,5.0,,3.2,3.1,YEMISLI-SIMAV (KUTAHYA) İlksel
2026.05.05,06:38:31,39.2163,29.0472,16.4,,1.4,,EGIRLER-SIMAV (KUTAHYA) İlksel
2026.05.05,06:43:17,39.2455,28.9858,5.2,,2.0,,YEMISLI-SIMAV (KUTAHYA) İlksel
2026.05.05,07:16:08,39.2217,28.9980,10.0,,1.8,,EGIRLER-SIMAV (KUTAHYA) İlksel
2026.05.05,07:48:53,40.0382,33.3382,5.2,,1.5,,KALECIK (ANKARA) İlksel
2026.05.05,08:40:59,39.2310,28.1430,9.3,,2.0,,MANDIRA-SINDIRGI (BALIKESIR) İlksel
2026.05.05,08:49:56,40.6562,29.8243,0.0,,2.0,,HAMIDIYE-GOLCUK (KOCAELI) İlksel
2026.05.05,08:57:40,38.0895,37.1947,16.7,,1.6,,AKPINAR-EKINOZU (KAHRAMANMARAS) İlksel
2026.05.05,09:13:10,39.2128,28.1437,10.2,,2.2,,MANDIRA-SINDIRGI (BALIKESIR) İlksel
2026.05.05,09:22:44,36.5715,26.7458,140.2,,2.6,,EGE DENIZI İlksel
2026.05.05,09:52:22,38.4522,37.9830,14.4,,2.1,,YALINBUDAK-AKCADAG (MALATYA) İlksel
2026.05.05,09:56:39,37.1195,27.8882,0.0,,1.7,,SEKKOY-MILAS (MUGLA) İlksel
2026.05.05,09:59:37,38.0020,36.4257,17.3,,1.4,,ACIELMA-GOKSUN (KAHRAMANMARAS) İlksel
2026.05.05,10:21:10,34.8482,25.9643,5.4,,4.2,,GIRIT ADASI ACIKLARI (AKDENIZ) İlksel
2026.05.05,10:37:28,36.2085,35.7393,11.6,,1.3,,ARSUZ-HATAY AÇIKLARI (AKDENIZ) İlksel
2026.05.05,11:06:41,40.1988,31.7277,0.0,,2.1,,SEKLI-BEYPAZARI (ANKARA) İlksel
2026.05.05,11:09:26,39.3492,25.4872,10.0,,1.8,,EGE DENIZI İlksel
2026.05.05,11:15:50,39.1038,28.3530,16.4,,1.3,,KOBAKLAR-GORDES (MANISA) İlksel
2026.05.05,11:19:51,38.3830,38.9037,22.4,,1.6,,KAYABAGLARI-SIVRICE (ELAZIG) İlksel
2026.05.05,11:25:09,38.6167,27.2957,7.5,,1.4,,GURLE-(MANISA) İlksel
2026.05.05,11:46:33,39.2425,29.0035,9.7,,2.0,,YEMISLI-SIMAV (KUTAHYA) İlksel
2026.05.05,11:55:18,40.2593,27.4292,20.1,,1.5,,KURUOBA-BIGA (CANAKKALE) İlksel
2026.05.05,11:58:53,37.9747,36.5775,13.2,,2.3,,KURUCAOVA-(KAHRAMANMARAS) İlksel
2026.05.05,12:03:30,34.9547,25.9652,5.5,,3.8,,GIRIT ADASI (AKDENIZ) İlksel
2026.05.05,12:36:18,38.1265,36.8977,5.5,,1.6,,KEMALPASA-GOKSUN (KAHRAMANMARAS) İlksel
2026.05.05,12:48:08,38.1297,37.8012,13.0,,1.8,,FINDIKKOY-DOGANSEHIR (MALATYA) İlksel
2026.05.05,13:03:54,39.7253,38.7505,27.8,,2.2,,DISTAS-REFAHIYE (ERZINCAN) İlksel
2026.05.05,13:03:54,38.2093,37.8393,24.3,,1.3,,DEDEYAZI-DOGANSEHIR (MALATYA) İlksel
2026.05.05,13:15:40,39.2350,29.0097,7.4,,2.4,,YEMISLI-SIMAV (KUTAHYA) İlksel
2026.05.05,13:21:30,34.9065,25.9917,5.0,,2.4,,GIRIT ADASI ACIKLARI (AKDENIZ) İlksel
2026.05.05,13:32:58,40.3837,26.2868,5.0,,1.7,,SAROS KORFEZI (EGE DENIZI) İlksel
2026.05.05,14:20:30,37.8203,36.1462,6.6,,2.3,,AYVACIK-SAIMBEYLI (ADANA) İlksel
2026.05.05,14:33:28,38.0263,28.9275,2.0,,1.4,,YENICEKENT-BULDAN (DENIZLI) İlksel
2026.05.05,15:36:05,39.1443,28.1053,9.6,,1.5,,SINANDEDE-SINDIRGI (BALIKESIR) İlksel
2026.05.05,15:54:07,38.3143,39.1185,19.2,,1.7,,YALINCA-DOGANYOL (MALATYA) İlksel
2026.05.05,16:09:39,36.0282,29.0688,25.1,,1.7,,AKDENIZ İlksel
2026.05.05,17:38:36,37.9115,36.4958,5.1,,2.0,,DEGIRMENDERE-GOKSUN (KAHRAMANMARAS) İlksel
2026.05.05,17:45:58,38.1843,36.5743,9.2,,1.5,,KAVSUT-GOKSUN (KAHRAMANMARAS) İlksel
2026.05.05,17:49:17,36.9058,29.1243,11.4,,1.8,,KARABAYIR-CAMELI (DENIZLI) İlksel
2026.05.05,17:56:15,40.3300,27.3100,4.2,,1.7,,CESMEALTI-BIGA (CANAKKALE) İlksel
2026.05.05,18:17:45,37.9673,36.5832,9.0,,1.5,,KURUCAOVA-(KAHRAMANMARAS) İlksel
2026.05.05,18:33:05,38.0837,28.9420,5.8,,1.8,,YENICEKENT-BULDAN (DENIZLI) İlksel
2026.05.05,18:53:11,37.0415,28.4812,10.5,,1.9,,ORNEKKOY-ULA (MUGLA) İlksel
2026.05.05,18:59:54,34.7275,24.7777,11.3,,2.6,,GIRIT ADASI ACIKLARI (AKDENIZ) İlksel
2026.05.05,19:09:07,37.8788,36.6100,10.9,,1.6,,TEKIR-(KAHRAMANMARAS) İlksel
2026.05.05,19:18:32,37.0782,28.5103,9.4,,1.6,,CICEKLI-ULA (MUGLA) İlksel
2026.05.05,19:24:51,38.1577,36.6512,13.1,,1.7,,YENIYAPAN-GOKSUN (KAHRAMANMARAS) İlksel
2026.05.05,19:56:17,34.9170,26.0315,5.0,,2.8,,GIRIT ADASI ACIKLARI (AKDENIZ) İlksel
2026.05.05,20:10:41,38.2985,38.5548,22.3,,1.5,,TANISIK-(MALATYA) İlksel
2026.05.05,20:12:46,39.2242,28.1082,9.3,,1.5,,BAYIRLI-SINDIRGI (BALIKESIR) İlksel
2026.05.05,20:19:26,34.9143,26.0032,8.7,,3.2,3.2,GIRIT ADASI ACIKLARI (AKDENIZ) İlksel
2026.05.05,21:00:08,39.1173,33.2585,4.1,,1.3,,AKIN-SEREFLIKOCHISAR (ANKARA) İlksel
2026.05.05,21:03:23,39.2200,28.2362,13.4,,1.5,,ILICA-SINDIRGI (BALIKESIR) İlksel
2026.05.05,21:22:26,38.2718,37.7545,4.4,,1.2,,CEVIRME-AKCADAG (MALATYA) İlksel
2026.05.05,21:26:17,40.2145,31.7620,8.0,,1.9,,HIRKATEPE-BEYPAZARI (ANKARA) İlksel
2026.05.05,21:26:45,37.9098,36.5148,6.5,,1.2,,DEGIRMENDERE-GOKSUN (KAHRAMANMARAS) İlksel
2026.05.05,22:12:29,38.3180,27.8243,5.4,,1.4,,KERPICLIK-ODEMIS (IZMIR) İlksel
2026.05.05,22:25:21,37.7715,35.3740,15.2,,1.4,,KAPUZBASI-YAHYALI (KAYSERI) İlksel
2026.05.05,22:28:55,38.1763,37.8008,10.1,,1.3,,CAVUSLU-DOGANSEHIR (MALATYA) İlksel
2026.05.05,22:36:57,36.8933,29.1093,15.8,,1.3,,KARABAYIR-CAMELI (DENIZLI) İlksel
2026.05.05,22:38:40,34.8812,26.1037,4.1,,3.7,3.9,GIRIT ADASI ACIKLARI (AKDENIZ) İlksel
2026.05.05,23:08:47,39.1460,28.2960,3.2,,0.9,,YUREGIL-SINDIRGI (BALIKESIR) İlksel
2026.05.05,23:16:41,34.8935,25.9757,8.4,,2.8,,GIRIT ADASI ACIKLARI (AKDENIZ) İlksel
2026.05.05,23:37:37,38.2203,37.6907,17.8,,1.4,,ATMALIKASANLI-ELBISTAN (KAHRAMANMARAS) İlksel
2026.05.06,00:06:43,36.1205,29.0737,12.1,,1.8,,AKDENIZ İlksel
2026.05.06,00:23:23,37.9010,36.4750,5.0,,2.2,,DEGIRMENDERE-GOKSUN (KAHRAMANMARAS) İlksel
2026.05.06,00:35:19,34.8435,26.1153,7.1,,3.9,4.1,GIRIT ADASI ACIKLARI (AKDENIZ) İlksel
2026.05.06,01:12:16,34.9343,25.9927,8.2,,2.4,,GIRIT ADASI ACIKLARI (AKDENIZ) İlksel
2026.05.06,01:18:51,37.0852,28.6113,13.0,,1.7,,BALCILAR-KOYCEGIZ (MUGLA) İlksel
2026.05.06,01:42:18,39.1263,27.9760,14.3,,1.0,,KAYGANLI-AKHISAR (MANISA) İlksel
2026.05.06,01:42:36,37.6915,31.1677,11.5,,2.4,,KARACAHISAR-AKSU (ISPARTA) İlksel
2026.05.06,01:45:39,38.2732,37.7563,10.7,,1.5,,CEVIRME-AKCADAG (MALATYA) İlksel
2026.05.06,01:46:57,39.1338,36.0583,3.8,,1.4,,BESTEPE-GEMEREK (SIVAS) İlksel
2026.05.06,01:59:36,39.1727,28.2747,7.6,,1.1,,ISIKLAR-SINDIRGI (BALIKESIR) İlksel
2026.05.06,02:15:29,39.3807,26.2123,4.2,,1.4,,MIDILLI ADASI (EGE DENIZI) İlksel
2026.05.06,02:24:31,39.1348,28.3022,22.4,,0.6,,YUREGIL-SINDIRGI (BALIKESIR) İlksel
2026.05.06,02:25:33,38.3962,37.5005,4.5,,1.7,,SUGUL-DARENDE (MALATYA) İlksel
2026.05.06,02:34:48,39.1120,28.2977,13.1,,1.5,,YUREGIL-SINDIRGI (BALIKESIR) İlksel
2026.05.06,02:37:20,39.3693,26.2115,13.9,,1.0,,MIDILLI ADASI (EGE DENIZI) İlksel
2026.05.06,02:46:40,38.4197,37.4783,20.9,,1.0,,SUGUL-DARENDE (MALATYA) İlksel
2026.05.06,02:58:40,38.4060,37.5137,5.0,,0.9,,SUGUL-DARENDE (MALATYA) İlksel
2026.05.06,03:11:34,40.4510,24.0087,11.3,,1.1,,YUNANISTAN İlksel
2026.05.06,03:12:58,38.4022,37.4697,14.3,,1.4,,YALINTAS-ELBISTAN (KAHRAMANMARAS) İlksel
2026.05.06,03:18:27,37.7705,37.6965,10.2,,1.3,,YUKARICOPLU-GOLBASI (ADIYAMAN) İlksel
2026.05.06,03:52:18,37.4967,28.6587,9.9,,1.4,,YENIDERE-KALE (DENIZLI) İlksel
2026.05.06,03:53:45,37.4173,36.5937,5.0,,2.3,,SADIKLI-(KAHRAMANMARAS) İlksel
2026.05.06,03:59:27,39.9407,32.7215,5.0,,1.9,,ETIMESGUT (ANKARA) İlksel
2026.05.06,04:19:31,39.1648,27.9472,9.6,,1.3,,YAYKIN-AKHISAR (MANISA) İlksel
2026.05.06,04:33:43,39.0295,26.0852,12.7,,1.3,,MIDILLI ADASI GUNEYI (EGE DENIZI) İlksel
2026.05.06,05:21:39,38.9918,26.0573,15.6,,1.4,,MIDILLI ADASI GUNEYI (EGE DENIZI) İlksel
2026.05.06,05:22:21,37.8393,36.3003,5.0,,3.5,3.6,PAYAMBURNU-GOKSUN (KAHRAMANMARAS) İlksel
2026.05.06,05:34:14,35.8985,28.1352,9.4,,2.3,,AKDENIZ İlksel
2026.05.06,05:41:40,38.9823,42.8307,5.0,,2.5,,DIZGINKALE-PATNOS (AGRI) İlksel
2026.05.06,05:58:39,38.0082,36.6048,2.0,,1.8,,SARAYCIK-GOKSUN (KAHRAMANMARAS) İlksel
2026.05.06,06:02:51,36.9378,29.0580,10.3,,1.2,,GURLEYIK-DALAMAN (MUGLA) İlksel
2026.05.06,06:19:56,39.3907,42.2892,19.3,,1.3,,KARINCALI-MALAZGIRT (MUS) İlksel
2026.05.06,06:25:19,40.8023,27.4638,13.8,,1.4,,YENIKOY-(TEKIRDAG) İlksel
2026.05.06,06:30:09,38.0510,28.9813,18.0,,1.6,,MAHMUTLU-BULDAN (DENIZLI) İlksel
2026.05.06,06:36:09,39.2252,28.0872,9.7,,1.3,,KOZLU-SINDIRGI (BALIKESIR) İlksel
2026.05.06,06:40:09,36.9035,29.1260,8.8,,2.1,,KARABAYIR-CAMELI (DENIZLI) İlksel
2026.05.06,06:45:48,36.9613,29.0695,5.0,,1.1,,NARLI-DALAMAN (MUGLA) İlksel
2026.05.06,06:47:23,36.9250,28.0023,12.7,,2.3,,GOKOVA KORFEZI (EGE DENIZI) İlksel
2026.05.06,07:03:59,36.2375,37.5210,6.4,,2.3,,SURIYE İlksel
2026.05.06,07:31:13,38.9992,42.8472,5.0,,2.3,,KUCAK-PATNOS (AGRI) İlksel
2026.05.06,07:41:45,36.9442,29.1202,16.7,,1.4,,KARABAYIR-CAMELI (DENIZLI) İlksel
2026.05.06,09:23:25,35.0603,27.7520,18.1,,3.5,3.7,AKDENIZ İlksel
2026.05.06,09:31:44,36.9652,28.0345,4.4,,2.2,,GOKOVA KORFEZI (EGE DENIZI) İlksel
2026.05.06,09:32:44,36.8648,29.1395,2.5,,2.4,,ARPACIK-FETHIYE (MUGLA) İlksel
2026.05.06,09:34:58,36.9417,28.0412,12.4,,1.5,,GOKOVA KORFEZI (EGE DENIZI) İlksel
2026.05.06,09:57:30,36.8283,29.2272,11.6,,1.8,,SOGUTLU-FETHIYE (MUGLA) İlksel
2026.05.06,10:30:45,39.1942,29.3732,21.2,,0.8,,KARBASAN-HISARCIK (KUTAHYA) İlksel
2026.05.06,12:46:01,39.2390,28.9998,10.0,,1.2,,YEMISLI-SIMAV (KUTAHYA) İlksel
2026.05.06,12:49:07,39.1418,41.9192,9.2,,2.1,,MESEICI-BULANIK (MUS) İlksel
2026.05.06,12:49:49,36.6887,28.0847,8.1,,1.9,,SELIMIYE-MARMARIS (MUGLA) İlksel
2026.05.06,12:52:25,39.4883,28.2492,6.6,,1.6,,KAYIRLAR-BIGADIC (BALIKESIR) İlksel
2026.05.06,12:54:02,37.2643,28.5187,5.3,,1.6,,OZLUCE-(MUGLA) İlksel
2026.05.06,13:03:00,38.4857,39.4375,10.0,,1.5,,YONCAPINAR-MADEN (ELAZIG) İlksel
2026.05.06,13:04:54,38.4795,39.1530,17.7,,1.1,,KAVALLI-SIVRICE (ELAZIG) İlksel
2026.05.06,13:31:46,38.9733,37.8793,7.7,,1.9,,HASANCELEBI-HEKIMHAN (MALATYA) İlksel
2026.05.06,13:36:25,38.8357,28.1433,5.0,,1.1,,BOYALI-GORDES (MANISA) İlksel
2026.05.06,13:51:26,40.0150,35.5218,5.0,,2.2,,KAHYALI-CEKEREK (YOZGAT) İlksel
2026.05.06,15:02:43,39.2558,28.9908,8.0,,1.3,,YEMISLI-SIMAV (KUTAHYA) İlksel
2026.05.06,15:02:52,40.8758,25.6147,25.3,,1.1,,EGE DENIZI İlksel
2026.05.06,15:46:57,37.8137,29.3508,8.4,,1.9,,DERECIFTLIK-HONAZ (DENIZLI) İlksel
2026.05.06,15:48:38,38.2453,37.7682,6.7,,1.8,,CEVIRME-AKCADAG (MALATYA) İlksel
2026.05.06,16:36:19,36.8935,29.1142,2.7,,3.2,3.3,KARABAYIR-CAMELI (DENIZLI) İlksel
2026.05.06,16:41:51,36.8922,29.1305,4.3,,2.2,,KARABAYIR-CAMELI (DENIZLI) İlksel
2026.05.06,17:34:00,38.7302,39.1468,5.2,,1.2,,NURALI-(ELAZIG) İlksel
2026.05.06,17:46:10,37.0037,31.0318,28.9,,1.7,,PINARCIK-SERIK (ANTALYA) İlksel
2026.05.06,17:54:55,36.7147,33.9845,10.0,,1.2,,ELBEYLI-ERDEMLI (MERSIN) İlksel
2026.05.06,18:21:47,39.2360,28.1240,7.5,,1.6,,BAYIRLI-SINDIRGI (BALIKESIR) İlksel
2026.05.06,18:23:23,40.5802,36.9173,6.0,,2.1,,SAHINLI-NIKSAR (TOKAT) İlksel
2026.05.06,18:36:03,40.7717,28.0000,15.1,,1.5,,MARMARA DENIZI İlksel
2026.05.06,18:48:14,36.9200,29.1090,15.2,,1.4,,KARABAYIR-CAMELI (DENIZLI) İlksel
2026.05.06,18:48:28,36.8832,29.1153,11.0,,1.4,,DARIYERI-DALAMAN (MUGLA) İlksel
2026.05.06,18:59:55,36.9383,29.0665,13.6,,1.6,,GURLEYIK-DALAMAN (MUGLA) İlksel
2026.05.06,19:05:00,40.5882,36.9160,8.2,,1.6,,SAHINLI-NIKSAR (TOKAT) İlksel
2026.05.06,19:15:18,38.9698,41.0150,6.7,,1.8,,ELBASI-SOLHAN (BINGOL) İlksel
2026.05.06,19:17:39,38.1400,38.1527,5.4,,1.6,,YALINKAYA-YESILYURT (MALATYA) İlksel
2026.05.06,19:19:48,40.7698,28.6232,10.4,,1.7,,MARMARA DENIZI İlksel
2026.05.06,19:21:04,39.2372,28.9753,6.7,,2.2,,YEMISLI-SIMAV (KUTAHYA) İlksel
2026.05.06,19:49:46,37.6930,35.4575,5.0,,1.7,,KUP-ALADAG (ADANA) İlksel
2026.05.06,19:50:27,36.9038,29.0968,13.5,,1.4,,KARABAYIR-CAMELI (DENIZLI) İlksel
2026.05.06,19:52:46,36.2767,29.7877,9.8,,1.5,,CERLER-KAS (ANTALYA) İlksel
2026.05.06,20:07:45,38.4800,37.3350,2.8,,1.7,,YARIMCA-DARENDE (MALATYA) İlksel
2026.05.06,20:16:41,36.8753,29.1578,2.0,,1.5,,ARPACIK-FETHIYE (MUGLA) İlksel
2026.05.06,20:18:12,38.2268,38.2667,5.3,,1.2,,KADIRUSAGI-YESILYURT (MALATYA) İlksel
2026.05.06,20:45:03,39.2108,28.0687,11.4,,1.5,,KERTIL-SINDIRGI (BALIKESIR) İlksel
2026.05.06,21:26:10,39.5527,26.4100,8.0,,1.7,,KOZLU-AYVACIK (CANAKKALE) İlksel
2026.05.06,21:38:19,40.1762,31.7537,2.8,,2.1,,HIRKATEPE-BEYPAZARI (ANKARA) İlksel
2026.05.06,22:12:54,38.3040,27.5827,5.3,,1.4,,OSMANLAR-BAYINDIR (IZMIR) İlksel
2026.05.06,22:31:06,34.4898,26.6490,6.7,,3.4,3.6,GIRIT ADASI ACIKLARI (AKDENIZ) REVIZE01 (2026.05.06 22:31:06)
2026.05.06,23:01:34,36.7740,29.2722,11.0,,1.4,,KIZILBEL-FETHIYE (MUGLA) İlksel
2026.05.06,23:15:07,37.9497,37.9403,5.0,,2.3,,ERKENEK-DOGANSEHIR (MALATYA) İlksel
2026.05.06,23:55:53,39.6837,38.7747,5.9,,1.9,,KARACA-KEMAH (ERZINCAN) İlksel
2026.05.07,00:03:21,37.7725,37.2908,5.7,,1.8,,CAGLAYANCERIT (KAHRAMANMARAS) İlksel
2026.05.07,00:35:24,38.1075,37.7848,5.0,,3.1,3.0,FINDIKKOY-DOGANSEHIR (MALATYA) İlksel
2026.05.07,01:09:48,40.8635,31.7943,4.0,,1.4,,MERKESLER-(BOLU) İlksel
2026.05.07,01:15:20,38.4993,26.5207,3.6,,2.1,,KOSEDERE-KARABURUN (IZMIR) İlksel
2026.05.07,02:00:38,38.2987,38.2212,8.2,,1.8,,YAKINCA-YESILYURT (MALATYA) İlksel
2026.05.07,02:15:32,39.2185,28.0840,8.0,,2.6,,KERTIL-SINDIRGI (BALIKESIR) İlksel
2026.05.07,02:30:10,36.8790,29.1343,3.1,,1.7,,DARIYERI-DALAMAN (MUGLA) İlksel
2026.05.07,02:30:33,36.8563,29.4650,1.9,,1.9,,BALLIK-ALTINYAYLA (BURDUR) İlksel
2026.05.07,02:30:46,36.8828,29.1045,5.0,,1.7,,DARIYERI-DALAMAN (MUGLA) İlksel
2026.05.07,02:34:46,38.8733,26.6355,8.1,,1.4,,MIDILLI ADASI GUNEYI (EGE DENIZI) İlksel
2026.05.07,02:37:22,36.9493,29.0998,12.2,,1.3,,KARABAYIR-CAMELI (DENIZLI) İlksel
2026.05.07,02:42:14,35.5028,25.4415,25.7,,2.5,,GIRIT ADASI (AKDENIZ) İlksel
2026.05.07,02:44:13,36.9103,29.0807,5.0,,1.5,,GURLEYIK-DALAMAN (MUGLA) İlksel
2026.05.07,02:46:01,36.9058,29.1095,3.9,,1.6,,KARABAYIR-CAMELI (DENIZLI) İlksel
2026.05.07,03:27:07,38.3760,38.7820,16.9,,1.6,,KOZLUK-KALE (MALATYA) İlksel
2026.05.07,04:04:47,36.8785,29.1165,7.7,,1.5,,DARIYERI-DALAMAN (MUGLA) İlksel
2026.05.07,04:38:54,39.3953,37.3038,5.0,,2.3,,KERTMEKARACAOREN-ULAS (SIVAS) İlksel
2026.05.07,05:34:08,35.4243,26.3983,6.5,,1.7,,GIRIT ADASI (AKDENIZ) İlksel
2026.05.07,05:38:43,40.7928,42.5007,4.2,,1.5,,DOLUNAY-SENKAYA (ERZURUM) İlksel
2026.05.07,05:40:48,40.8172,42.4890,5.4,,2.2,,DOLUNAY-SENKAYA (ERZURUM) İlksel
2026.05.07,05:50:50,34.8695,25.9353,2.3,,1.6,,GIRIT ADASI ACIKLARI (AKDENIZ) İlksel
2026.05.07,06:06:29,36.5187,25.6532,11.9,,1.7,,EGE DENIZI İlksel
2026.05.07,06:31:00,38.1352,37.0213,6.1,,2.1,,CALIS-ELBISTAN (KAHRAMANMARAS) İlksel
2026.05.07,06:45:04,36.9133,29.1125,10.9,,1.8,,KARABAYIR-CAMELI (DENIZLI) İlksel
2026.05.07,07:01:30,38.2760,37.7490,16.8,,1.3,,CEVIRME-AKCADAG (MALATYA) İlksel
2026.05.07,07:31:26,39.1783,28.2127,9.6,,1.9,,AKTAS-SINDIRGI (BALIKESIR) İlksel
2026.05.07,08:31:46,37.3700,36.9315,14.7,,2.3,,COBANTEPE-TURKOGLU (KAHRAMANMARAS) İlksel
2026.05.07,08:35:31,38.0792,27.2583,5.0,,3.4,3.3,CAKALTEPE-MENDERES (IZMIR) İlksel
2026.05.07,08:55:25,40.1080,40.9778,14.7,,1.7,,EGERTI-AZIZIYE (ERZURUM) İlksel
2026.05.07,09:13:45,36.8885,29.0927,2.5,,1.6,,DARIYERI-DALAMAN (MUGLA) İlksel
2026.05.07,10:11:29,40.9317,35.7617,0.0,,1.4,,ULUCAL-HAVZA (SAMSUN) İlksel
2026.05.07,10:21:51,39.1815,27.8335,17.4,,1.1,,GELENBE-KIRKAGAC (MANISA) İlksel
2026.05.07,10:25:11,40.4255,28.4578,5.0,,3.2,,BOGAZ-KARACABEY (BURSA) İlksel
2026.05.07,10:40:32,38.7718,26.8673,11.2,,2.3,,CANDARLI KORFEZI (EGE DENIZI) İlksel
2026.05.07,10:47:17,39.2272,38.6288,17.3,,1.8,,TUGLU-KEMALIYE (ERZINCAN) İlksel
2026.05.07,10:53:07,36.8885,29.1455,7.8,,2.2,,KARABAYIR-CAMELI (DENIZLI) İlksel
2026.05.07,11:03:46,39.1280,28.3230,12.6,,1.4,,YUREGIL-SINDIRGI (BALIKESIR) İlksel
2026.05.07,11:57:20,37.1485,27.8960,0.0,,1.7,,KARACAAGAC-MILAS (MUGLA) İlksel
2026.05.07,12:17:39,35.1888,33.6255,5.0,,1.8,,KIBRIS-DEGIRMENLIK İlksel
2026.05.07,12:18:30,38.2673,37.7810,17.4,,2.0,,CEVIRME-AKCADAG (MALATYA) İlksel
2026.05.07,12:36:30,38.3483,38.8188,4.8,,1.6,,AKUSAGI-KALE (MALATYA) İlksel
2026.05.07,12:45:24,36.0038,35.8597,9.4,,2.0,,DENIZGOREN-YAYLADAGI (HATAY) İlksel
2026.05.07,13:13:44,39.5517,33.1365,22.8,,0.9,,BALA (ANKARA) İlksel
2026.05.07,13:14:44,38.2447,37.6883,4.0,,1.6,,HARUNUSAGI-AKCADAG (MALATYA) İlksel
2026.05.07,13:29:54,36.8633,29.1382,8.2,,1.9,,ARPACIK-FETHIYE (MUGLA) İlksel
2026.05.07,13:39:11,36.1875,33.5312,0.0,,1.0,,KOCASLI-GULNAR (MERSIN) İlksel
2026.05.07,13:58:15,40.2520,24.3983,5.0,,2.0,,YUNANISTAN İlksel
2026.05.07,14:21:00,37.0467,28.4388,10.9,,1.3,,ELMALI-ULA (MUGLA) İlksel
2026.05.07,14:23:59,40.3643,28.7652,13.3,,2.6,,KAYMAKOBA-MUDANYA (BURSA) İlksel
2026.05.07,14:28:12,36.7563,33.6440,20.7,,1.8,,COMELEK-MUT (MERSIN) İlksel
2026.05.07,14:53:24,37.9722,36.4895,5.0,,2.2,,GOLPINAR-GOKSUN (KAHRAMANMARAS) İlksel
2026.05.07,15:30:22,36.8977,29.1238,6.4,,1.9,,KARABAYIR-CAMELI (DENIZLI) İlksel
2026.05.07,16:11:17,38.3952,37.5118,5.4,,1.5,,SUGUL-DARENDE (MALATYA) İlksel
2026.05.07,16:16:16,40.2277,31.7308,8.8,,2.1,,HIRKATEPE-BEYPAZARI (ANKARA) İlksel
2026.05.07,16:35:36,38.1230,37.7485,3.9,,2.2,,CAVUSLU-DOGANSEHIR (MALATYA) İlksel
2026.05.07,16:55:21,37.5882,37.3485,14.8,,1.6,,KARAAGAC-PAZARCIK (KAHRAMANMARAS) İlksel
2026.05.07,17:07:46,35.6763,25.4682,16.4,,2.1,,GIRIT ADASI (AKDENIZ) İlksel
2026.05.07,17:17:13,36.9695,29.0953,7.6,,1.7,,NARLI-DALAMAN (MUGLA) İlksel
2026.05.07,17:20:26,40.1163,23.2830,5.4,,1.7,,YUNANISTAN İlksel
2026.05.07,17:23:08,38.1235,36.5962,5.9,,2.1,,KANLIKAVAK-GOKSUN (KAHRAMANMARAS) İlksel
2026.05.07,17:28:45,38.1748,41.4113,5.1,,1.8,,GUNDUZLU-KOZLUK (BATMAN) İlksel
2026.05.07,17:42:24,37.7983,26.9182,13.9,,1.8,,SISAM ADASI (EGE DENIZI) İlksel
2026.05.07,17:55:54,40.2235,29.4628,9.0,,1.4,,MARMARACIK-YENISEHIR (BURSA) İlksel
2026.05.07,18:02:25,38.1423,36.6253,10.4,,1.8,,YENIYAPAN-GOKSUN (KAHRAMANMARAS) İlksel
2026.05.07,18:22:42,38.0018,36.5727,5.4,,1.2,,KARAAHMET-GOKSUN (KAHRAMANMARAS) İlksel
2026.05.07,18:29:11,35.4197,23.4897,5.0,,2.7,,GIRIT ADASI (AKDENIZ) İlksel
2026.05.07,18:32:57,37.9665,36.5153,5.9,,2.7,,KIRECKOY-GOKSUN (KAHRAMANMARAS) İlksel
2026.05.07,18:47:58,36.9157,29.0985,12.2,,1.7,,KARABAYIR-CAMELI (DENIZLI) İlksel
2026.05.07,18:49:15,39.1795,28.1572,9.6,,2.1,,SINANDEDE-SINDIRGI (BALIKESIR) İlksel
2026.05.07,18:52:05,37.9023,36.5165,9.4,,2.1,,DEGIRMENDERE-GOKSUN (KAHRAMANMARAS) İlksel
2026.05.07,19:05:42,35.6823,25.4567,7.2,,1.9,,GIRIT ADASI (AKDENIZ) İlksel
2026.05.07,19:25:15,39.1873,28.2290,11.8,,1.8,,ILICA-SINDIRGI (BALIKESIR) İlksel
2026.05.07,19:26:24,37.9887,36.2237,5.0,,1.7,,KALEBOYNU-GOKSUN (KAHRAMANMARAS) İlksel
2026.05.07,19:35:40,37.9732,36.2267,13.5,,1.4,,KALEBOYNU-GOKSUN (KAHRAMANMARAS) İlksel
2026.05.07,19:46:08,39.1702,27.9813,5.2,,1.4,,AKKOCALI-AKHISAR (MANISA) İlksel
2026.05.07,20:25:10,39.2533,28.9930,11.3,,1.3,,YEMISLI-SIMAV (KUTAHYA) İlksel
2026.05.07,20:26:28,37.5272,37.2842,12.1,,1.4,,TETIRLIK-PAZARCIK (KAHRAMANMARAS) İlksel
2026.05.07,20:52:25,39.0060,33.2310,24.3,,1.1,,KIRKKUYU-KULU (KONYA) İlksel
2026.05.07,21:02:58,34.7270,32.5697,16.1,,2.0,,AKDENIZ İlksel
2026.05.07,21:28:40,34.9503,26.0783,5.0,,2.2,,GIRIT ADASI ACIKLARI (AKDENIZ) İlksel
2026.05.07,21:30:18,39.2193,28.0848,9.1,,2.4,,KERTIL-SINDIRGI (BALIKESIR) İlksel
2026.05.07,21:30:39,38.2987,37.7747,15.8,,1.4,,DUTLU-AKCADAG (MALATYA) İlksel
2026.05.07,21:37:12,37.8810,36.4660,5.8,,1.6,,DEGIRMENDERE-GOKSUN (KAHRAMANMARAS) İlksel
2026.05.07,21:39:18,38.2165,38.0443,12.5,,1.6,,ISIKLI-YESILYURT (MALATYA) İlksel
2026.05.07,21:45:04,35.7118,25.4738,12.5,,1.9,,EGE DENIZI İlksel
2026.05.07,21:45:51,36.9382,29.1075,10.3,,1.4,,KARABAYIR-CAMELI (DENIZLI) İlksel
2026.05.07,21:55:59,40.0047,35.5308,5.1,,2.0,,KAHYALI-CEKEREK (YOZGAT) İlksel
2026.05.07,22:03:35,37.9378,28.8538,5.3,,1.4,,KARAKIRAN-SARAYKOY (DENIZLI) İlksel
2026.05.07,22:05:53,39.2550,28.0628,11.6,,1.3,,ALACAATLI-SINDIRGI (BALIKESIR) İlksel
2026.05.07,22:18:32,36.9020,29.0995,5.0,,2.6,,KARABAYIR-CAMELI (DENIZLI) İlksel
2026.05.07,22:23:05,40.1535,23.2977,9.5,,1.7,,YUNANISTAN İlksel
2026.05.07,22:40:51,38.5932,31.3512,24.1,,1.0,,TASKOPRU-SULTANDAGI (AFYONKARAHISAR) İlksel
2026.05.07,22:43:06,39.4997,33.2385,8.9,,1.4,,SIRAPINAR-BALA (ANKARA) İlksel
2026.05.07,22:49:46,35.3583,27.2045,16.5,,1.8,,AKDENIZ İlksel
2026.05.07,23:22:48,39.2157,28.9775,18.0,,1.2,,EGIRLER-SIMAV (KUTAHYA) İlksel
2026.05.07,23:27:22,39.1565,28.2928,13.5,,1.2,,ISIKLAR-SINDIRGI (BALIKESIR) İlksel
2026.05.07,23:41:09,39.1983,28.1028,12.6,,1.7,,KERTIL-SINDIRGI (BALIKESIR) İlksel
2026.05.07,23:42:55,38.0392,28.9700,13.0,,1.7,,MAHMUTLU-BULDAN (DENIZLI) İlksel
2026.05.07,23:49:33,34.8555,26.0253,10.7,,2.1,,GIRIT ADASI ACIKLARI (AKDENIZ) İlksel
2026.05.07,23:58:34,37.9997,36.1558,5.0,,1.8,,YENIKOY-SAIMBEYLI (ADANA) İlksel
2026.05.07,23:59:30,38.9263,38.3153,13.8,,1.4,,GOKAGAC-ARGUVAN (MALATYA) İlksel
2026.05.08,00:03:19,38.0448,28.9740,18.2,,1.3,,MAHMUTLU-BULDAN (DENIZLI) İlksel
2026.05.08,00:12:25,37.2455,37.0935,7.9,,2.5,,EVRI-PAZARCIK (KAHRAMANMARAS) İlksel
2026.05.08,00:13:18,39.0568,33.2607,5.3,,1.0,,KIRKKUYU-KULU (KONYA) İlksel
2026.05.08,00:21:39,39.2585,28.9885,9.1,,1.0,,YEMISLI-SIMAV (KUTAHYA) İlksel
2026.05.08,00:28:58,35.2488,28.0070,25.5,,2.4,,AKDENIZ İlksel
2026.05.08,00:35:10,39.2345,28.9653,5.1,,1.5,,YEMISLI-SIMAV (KUTAHYA) İlksel
2026.05.08,00:42:46,39.5127,26.0680,7.7,,2.2,,BABAKALE-AYVACIK (CANAKKALE) İlksel
2026.05.08,01:23:50,36.9130,29.1160,4.9,,1.4,,KARABAYIR-CAMELI (DENIZLI) İlksel
2026.05.08,01:30:13,36.8968,29.1052,1.4,,1.5,,KARABAYIR-CAMELI (DENIZLI) İlksel
2026.05.08,01:35:22,36.9410,28.5442,3.6,,2.4,,DOGUSBELEN-KOYCEGIZ (MUGLA) İlksel
2026.05.08,01:37:49,38.2753,27.9113,14.8,,1.1,,UZUMLU-ODEMIS (IZMIR) İlksel
2026.05.08,01:56:12,39.0695,33.2493,6.0,,1.5,,KIRKKUYU-KULU (KONYA) İlksel
2026.05.08,02:05:48,38.0892,28.9975,18.3,,1.5,,HAMDIYE-GUNEY (DENIZLI) İlksel
2026.05.08,02:12:30,36.9047,29.0825,1.5,,1.4,,GURLEYIK-DALAMAN (MUGLA) İlksel
2026.05.08,02:23:27,40.7800,27.5165,6.9,,1.1,,YENIKOY ACIKLARI-TEKIRDAG (MARMARA DENIZI) İlksel
2026.05.08,02:37:12,39.1453,28.0192,11.9,,1.4,,ISACA-AKHISAR (MANISA) İlksel
2026.05.08,02:40:10,39.6652,38.3368,13.0,,1.4,,DARISEKI-IMRANLI (SIVAS) İlksel
2026.05.08,03:03:50,38.1435,36.5973,5.0,,1.4,,YENIYAPAN-GOKSUN (KAHRAMANMARAS) İlksel
2026.05.08,03:07:42,40.1750,31.7408,1.7,,2.2,,HIRKATEPE-BEYPAZARI (ANKARA) İlksel
2026.05.08,03:09:43,36.9033,29.1037,1.7,,1.5,,KARABAYIR-CAMELI (DENIZLI) İlksel
2026.05.08,03:18:05,35.7075,25.4283,6.8,,2.3,,EGE DENIZI İlksel
2026.05.08,03:51:52,39.9152,40.7662,19.1,,1.1,,KUCUKGECIT-ASKALE (ERZURUM) İlksel
2026.05.08,03:55:18,35.2648,29.6570,14.2,,2.1,,AKDENIZ İlksel
2026.05.08,04:05:53,34.9098,26.2202,1.7,,2.2,,GIRIT ADASI ACIKLARI (AKDENIZ) İlksel
2026.05.08,04:11:42,36.8982,29.1163,1.1,,1.3,,KARABAYIR-CAMELI (DENIZLI) İlksel
2026.05.08,04:24:54,35.3687,27.4542,5.0,,3.0,2.9,AKDENIZ İlksel
2026.05.08,04:41:57,39.0067,36.2672,5.0,,1.5,,GANISEYH-AKKISLA (KAYSERI) İlksel
2026.05.08,05:04:54,37.2705,36.8540,5.0,,2.3,,MINEHUYUK-TURKOGLU (KAHRAMANMARAS) İlksel
2026.05.08,06:08:37,36.9678,28.9947,12.6,,1.7,,BOZBEL-DALAMAN (MUGLA) İlksel
2026.05.08,06:15:24,40.7918,27.4885,13.5,,1.4,,YENIKOY ACIKLARI-TEKIRDAG (MARMARA DENIZI) İlksel
2026.05.08,06:18:03,37.2277,36.2525,8.4,,1.6,,KARAGEDIK-DUZICI (OSMANIYE) İlksel
2026.05.08,06:20:25,38.3715,38.7760,4.9,,1.6,,TEPEKOY-KALE (MALATYA) İlksel
2026.05.08,06:23:01,40.7948,27.4942,12.9,,1.4,,YENIKOY ACIKLARI-TEKIRDAG (MARMARA DENIZI) İlksel
2026.05.08,06:47:19,38.1475,45.6092,5.8,,4.2,,IRAN İlksel
2026.05.08,06:48:32,36.9825,28.9822,12.9,,1.7,,AKKOPRU-KOYCEGIZ (MUGLA) İlksel
2026.05.08,06:51:54,36.8915,29.1122,1.3,,1.7,,KARABAYIR-CAMELI (DENIZLI) İlksel
2026.05.08,06:53:33,40.7705,32.9838,2.0,,1.4,,YALIOZU-CERKES (CANKIRI) İlksel
2026.05.08,06:54:18,36.7610,31.2275,16.9,,1.6,,SIDE ACIKLARI-ANTALYA (AKDENIZ) İlksel
2026.05.08,07:03:37,35.6925,25.4083,9.7,,2.8,,GIRIT ADASI (AKDENIZ) İlksel
2026.05.08,07:44:06,40.7542,28.7038,12.2,,1.4,,MARMARA DENIZI İlksel
2026.05.08,08:27:26,36.4907,28.5238,25.6,,1.5,,AKDENIZ İlksel
2026.05.08,08:42:31,38.2957,38.7978,5.0,,2.0,,BOLUKKAYA-PUTURGE (MALATYA) İlksel
2026.05.08,08:49:01,40.2842,31.2642,5.3,,1.3,,DOGANDERE-NALLIHAN (ANKARA) İlksel
2026.05.08,08:54:33,36.9065,29.0985,4.2,,1.3,,KARABAYIR-CAMELI (DENIZLI) İlksel
2026.05.08,08:57:29,36.9108,29.0757,5.0,,2.1,,GURLEYIK-DALAMAN (MUGLA) İlksel
2026.05.08,09:06:20,40.6998,30.6642,2.6,,1.5,,YUVALIK-AKYAZI (SAKARYA) İlksel
2026.05.08,09:12:30,39.3295,24.9802,15.9,,1.9,,EGE DENIZI İlksel
2026.05.08,09:21:28,38.2405,36.8852,4.2,,1.5,,EMIRLI-AFSIN (KAHRAMANMARAS) İlksel
2026.05.08,09:33:06,36.7168,29.5105,21.5,,1.1,,BAYIRKOY-FETHIYE (MUGLA) İlksel
2026.05.08,09:36:44,36.9017,29.1305,14.4,,2.0,,KARABAYIR-CAMELI (DENIZLI) İlksel
2026.05.08,09:42:36,38.1817,38.4432,4.1,,2.8,,AKSU-SINCIK (ADIYAMAN) İlksel
2026.05.08,10:15:40,39.8753,24.2193,18.7,,1.9,,YUNANISTAN İlksel
2026.05.08,10:22:19,36.8952,29.1838,17.1,,1.4,,KARABAYIR-CAMELI (DENIZLI) İlksel
2026.05.08,10:29:40,36.9038,29.1305,12.4,,2.3,,KARABAYIR-CAMELI (DENIZLI) İlksel
2026.05.08,10:47:49,38.0962,38.4345,12.2,,2.5,,KARAGOL-CELIKHAN (ADIYAMAN) İlksel
2026.05.08,10:48:44,39.1442,28.1190,15.3,,1.2,,SINANDEDE-SINDIRGI (BALIKESIR) İlksel
2026.05.08,11:17:15,41.9068,43.4790,31.1,,2.6,,GURCISTAN İlksel
2026.05.08,11:19:00,38.4148,44.7200,3.6,,2.5,,TURKIYE-IRAN SINIR BOLGESI İlksel
2026.05.08,11:48:27,35.7222,25.5448,9.8,,2.2,,EGE DENIZI İlksel
2026.05.08,11:50:01,36.1200,33.5612,0.0,,0.9,,BUYUKECELI-GULNAR (MERSIN) İlksel
2026.05.08,11:54:09,40.5672,27.4010,10.1,,1.3,,MUREFTE ACIKLARI-TEKIRDAG (MARMARA DENIZI) İlksel
2026.05.08,12:00:08,38.9358,37.9238,6.6,,1.7,,CULHALI-HEKIMHAN (MALATYA) İlksel
2026.05.08,12:03:56,35.6740,25.4372,5.3,,1.7,,GIRIT ADASI (AKDENIZ) İlksel
2026.05.08,12:51:02,36.2595,33.7748,0.0,,1.3,,AKDERE-SILIFKE (MERSIN) İlksel
2026.05.08,13:41:03,38.7943,27.9655,11.9,,1.0,,KARAYAGCI-AKHISAR (MANISA) İlksel
2026.05.08,13:42:35,36.9283,29.0430,23.8,,1.7,,GURLEYIK-DALAMAN (MUGLA) İlksel
2026.05.08,13:59:02,36.9077,29.0837,2.3,,2.7,,GURLEYIK-DALAMAN (MUGLA) İlksel
2026.05.08,14:25:24,37.1055,30.5607,12.3,,2.1,,BIYIKLI-DOSEMEALTI (ANTALYA) İlksel
2026.05.08,14:46:23,36.9040,29.1268,8.4,,2.3,,KARABAYIR-CAMELI (DENIZLI) İlksel
2026.05.08,14:47:52,37.1187,30.5905,5.9,,2.2,,BIYIKLI-DOSEMEALTI (ANTALYA) İlksel
2026.05.08,14:57:18,39.2463,28.0505,10.4,,2.5,,ALAKIR-SINDIRGI (BALIKESIR) İlksel
2026.05.08,14:58:20,36.3612,29.7817,49.2,,1.9,,DIRGENLER-KAS (ANTALYA) İlksel
2026.05.08,15:09:46,39.1368,27.9873,4.9,,1.2,,KAYGANLI-AKHISAR (MANISA) İlksel
2026.05.08,15:19:22,36.3672,33.4965,0.0,,1.1,,KAYRAK-GULNAR (MERSIN) İlksel
2026.05.08,15:22:05,36.5028,25.7738,11.9,,1.7,,EGE DENIZI İlksel
2026.05.08,16:05:36,37.0768,30.5335,24.8,,1.8,,YAGCA-DOSEMEALTI (ANTALYA) İlksel
2026.05.08,16:07:28,41.0962,30.2393,0.0,,1.5,,OZBEY-KANDIRA (KOCAELI) İlksel
2026.05.08,17:11:27,34.6213,32.3768,4.2,,3.3,3.2,AKDENIZ İlksel
2026.05.08,17:14:18,36.9780,28.9895,4.8,,1.7,,AKKOPRU-KOYCEGIZ (MUGLA) İlksel
2026.05.08,17:19:33,40.8462,28.0362,8.5,,1.7,,MARMARA DENIZI İlksel
2026.05.08,17:26:14,37.8443,36.4198,5.0,,2.1,,KUCUKCAMURLU-GOKSUN (KAHRAMANMARAS) İlksel
2026.05.08,17:26:42,36.8930,29.0618,5.0,,1.4,,GURLEYIK-DALAMAN (MUGLA) İlksel
2026.05.08,17:34:18,40.4680,26.2550,11.3,,2.1,,SAROS KORFEZI (EGE DENIZI) İlksel
2026.05.08,18:05:02,37.6477,36.4503,6.4,,2.3,,EMIRLER-ANDIRIN (KAHRAMANMARAS) İlksel
2026.05.08,18:48:05,35.8145,33.8318,9.8,,2.5,,AKDENIZ İlksel
2026.05.08,18:52:19,37.6537,36.4102,15.3,,1.7,,YESILTEPE-ANDIRIN (KAHRAMANMARAS) İlksel
2026.05.08,18:55:13,36.8960,29.0797,5.0,,2.0,,GURLEYIK-DALAMAN (MUGLA) İlksel
2026.05.08,18:57:59,36.9032,29.1418,13.4,,1.3,,KARABAYIR-CAMELI (DENIZLI) İlksel
2026.05.08,19:33:24,36.8367,30.9877,104.6,,1.9,,KADRIYE-SERIK (ANTALYA) İlksel
2026.05.08,20:40:14,38.1008,38.4000,5.9,,1.4,,KARAGOL-CELIKHAN (ADIYAMAN) İlksel
2026.05.08,20:41:48,34.8970,26.0065,6.3,,2.2,,GIRIT ADASI ACIKLARI (AKDENIZ) İlksel
2026.05.08,20:42:39,35.9823,32.1335,5.4,,1.6,,AKDENIZ İlksel
2026.05.08,21:04:34,39.4085,40.4518,5.2,,2.3,,GUZGULU-YEDISU (BINGOL) İlksel
2026.05.08,22:25:13,40.2958,37.9010,11.5,,1.6,,KAYAOREN-KOYULHISAR (SIVAS) İlksel
2026.05.08,22:50:45,37.7380,35.3417,5.4,,1.7,,KAPUZBASI-YAHYALI (KAYSERI) İlksel
2026.05.08,23:00:37,40.7373,32.9733,2.1,,1.7,,YALIOZU-CERKES (CANKIRI) İlksel
2026.05.08,23:28:43,39.1182,28.3780,14.3,,1.8,,YAYLABAYIR-SINDIRGI (BALIKESIR) İlksel
2026.05.09,00:22:02,37.2812,31.0303,124.0,,2.4,,HASKIZILOREN-SERIK (ANTALYA) İlksel
2026.05.09,00:29:33,38.1648,38.6183,11.4,,1.6,,BASMEZRA-PUTURGE (MALATYA) İlksel
2026.05.09,00:35:17,37.8988,36.4662,5.4,,1.6,,DEGIRMENDERE-GOKSUN (KAHRAMANMARAS) İlksel
2026.05.09,00:42:51,39.8207,30.5005,4.3,,2.1,,TEPEBASI (ESKISEHIR) İlksel
2026.05.09,00:43:45,36.1727,28.9465,8.6,,1.6,,AKDENIZ İlksel
2026.05.09,00:53:18,39.1545,28.3460,10.8,,1.4,,YAYLABAYIR-SINDIRGI (BALIKESIR) İlksel
2026.05.09,01:08:16,38.1248,36.5990,1.0,,1.4,,KANLIKAVAK-GOKSUN (KAHRAMANMARAS) İlksel
2026.05.09,01:44:08,36.3778,31.2732,10.2,,1.4,,ANTALYA KORFEZI (AKDENIZ) İlksel
2026.05.09,01:51:12,36.6633,28.3608,58.6,,1.3,,GUNLUCE ACIKLARI-MUGLA (AKDENIZ) İlksel
2026.05.09,02:01:26,37.3238,36.7510,16.4,,1.3,,IMALI-TURKOGLU (KAHRAMANMARAS) İlksel
2026.05.09,02:11:19,40.0047,35.5090,6.4,,2.8,,KAHYALI-CEKEREK (YOZGAT) İlksel
2026.05.09,02:15:32,37.2285,28.1190,2.3,,1.2,,CUKUROZ-YATAGAN (MUGLA) İlksel
2026.05.09,02:31:36,40.6265,23.7117,3.1,,1.2,,YUNANISTAN İlksel
2026.05.09,02:39:59,39.2010,28.0910,8.0,,1.3,,KERTIL-SINDIRGI (BALIKESIR) İlksel
2026.05.09,03:00:20,36.9092,29.1505,12.0,,1.0,,KARABAYIR-CAMELI (DENIZLI) İlksel
2026.05.09,03:00:44,38.0035,37.5627,5.3,,1.6,,TATLAR-NURHAK (KAHRAMANMARAS) İlksel
2026.05.09,03:04:51,37.3697,36.9335,8.3,,1.5,,COBANTEPE-TURKOGLU (KAHRAMANMARAS) İlksel
2026.05.09,03:11:49,39.1450,25.8200,5.4,,2.5,,EGE DENIZI İlksel
2026.05.09,03:22:40,40.7223,30.5893,31.3,,1.3,,TOPAGAC-AKYAZI (SAKARYA) İlksel
2026.05.09,03:32:59,35.7402,27.0732,12.5,,2.1,,EGE DENIZI İlksel
2026.05.09,03:38:24,39.1428,28.1052,11.1,,1.2,,SINANDEDE-SINDIRGI (BALIKESIR) İlksel
2026.05.09,03:58:21,36.1332,28.2583,27.1,,1.4,,AKDENIZ İlksel
2026.05.09,04:10:12,38.5120,31.9337,8.2,,1.3,,TEKELER-ILGIN (KONYA) İlksel
2026.05.09,04:30:45,38.0642,37.7713,5.4,,0.8,,SOGUT-DOGANSEHIR (MALATYA) İlksel
2026.05.09,04:31:48,36.9177,29.0907,9.8,,1.3,,KARABAYIR-CAMELI (DENIZLI) İlksel
2026.05.09,04:44:57,38.6847,27.9973,5.4,,1.1,,KILCANLAR-GOLMARMARA (MANISA) İlksel
2026.05.09,04:58:03,39.1857,27.9408,9.4,,1.8,,AKKOCALI-AKHISAR (MANISA) İlksel
2026.05.09,05:31:55,39.0030,25.8853,9.8,,1.8,,MIDILLI ADASI GUNEYI (EGE DENIZI) İlksel
2026.05.09,05:50:49,36.9940,28.9857,13.1,,1.4,,KARACAM-KOYCEGIZ (MUGLA) İlksel
2026.05.09,06:01:20,39.1888,28.1168,13.8,,1.5,,ORMANICI-SINDIRGI (BALIKESIR) İlksel
2026.05.09,06:16:51,38.3357,38.7713,5.0,,2.2,,CANAKCI-KALE (MALATYA) İlksel
2026.05.09,06:30:13,39.7598,26.6103,16.6,,1.7,,ORENLI-BAYRAMIC (CANAKKALE) İlksel
2026.05.09,06:36:19,37.4673,33.7605,5.7,,1.5,,BOGECIK-AYRANCI (KARAMAN) İlksel
2026.05.09,06:38:38,38.1297,36.5935,7.5,,1.6,,KANLIKAVAK-GOKSUN (KAHRAMANMARAS) İlksel
2026.05.09,06:55:22,38.3162,38.2458,7.1,,1.3,,BOSTANBASI-YESILYURT (MALATYA) İlksel
2026.05.09,07:38:43,38.6620,42.9790,8.0,,1.8,,VAN GOLU İlksel
2026.05.09,08:28:01,38.1395,38.5835,6.2,,2.2,,ARIKONAK-SINCIK (ADIYAMAN) İlksel
2026.05.09,08:49:48,37.7060,30.7402,5.8,,1.8,,DARIOREN-(ISPARTA) İlksel
2026.05.09,08:57:44,36.8890,29.1242,2.3,,2.5,,KARABAYIR-CAMELI (DENIZLI) İlksel
2026.05.09,09:08:18,35.9128,30.9398,12.8,,3.2,3.2,AKDENIZ İlksel
2026.05.09,09:39:33,38.2758,38.5958,14.3,,1.4,,PELITLI-(MALATYA) İlksel
2026.05.09,09:47:02,40.1688,31.8105,5.0,,2.3,,KUYUCAK-BEYPAZARI (ANKARA) İlksel
2026.05.09,10:26:56,41.1960,28.7290,0.0,,1.3,,ARNAVUTKOY (ISTANBUL) İlksel
2026.05.09,10:37:22,36.2008,28.8935,15.9,,2.0,,AKDENIZ İlksel
2026.05.09,10:58:43,38.9788,27.8942,2.5,,1.5,,CAMONU-AKHISAR (MANISA) İlksel
2026.05.09,11:13:48,39.6500,28.9727,0.0,,2.0,,ALUTCA-HARMANCIK (BURSA) İlksel
2026.05.09,11:46:02,38.9235,37.9328,7.8,,1.7,,GUVENC-HEKIMHAN (MALATYA) İlksel
2026.05.09,12:09:11,39.8095,26.2517,0.0,,1.3,,GOKCEBAYIR-EZINE (CANAKKALE) İlksel
2026.05.09,12:33:38,36.6215,32.0802,5.0,,1.2,,BADEMAGACI-ALANYA (ANTALYA) İlksel
2026.05.09,12:35:07,39.3205,28.0583,12.3,,2.2,,CAKILLI-SINDIRGI (BALIKESIR) İlksel
2026.05.09,12:48:45,40.2993,40.1873,10.3,,1.9,,TASKESEN-(BAYBURT) İlksel
2026.05.09,12:53:43,39.2845,27.9843,8.6,,2.1,,GOLCUK-SINDIRGI (BALIKESIR) İlksel
2026.05.09,12:54:48,35.6972,25.4420,8.4,,1.5,,EGE DENIZI İlksel
2026.05.09,12:59:28,35.9287,30.2733,2.7,,3.7,3.7,AKDENIZ İlksel
2026.05.09,13:02:35,39.1178,28.1072,11.1,,1.7,,SAGRAKCI-AKHISAR (MANISA) İlksel
2026.05.09,13:46:48,38.1417,38.5997,5.1,,1.9,,TEKEDERESI-PUTURGE (MALATYA) İlksel
2026.05.09,14:07:16,36.6543,25.6877,14.9,,2.7,,EGE DENIZI İlksel
2026.05.09,14:08:06,37.7057,35.3820,4.6,,1.6,,BUYUKCAKIR-YAHYALI (KAYSERI) İlksel
2026.05.09,14:22:25,39.1210,28.9365,21.9,,1.2,,CITGOL-SIMAV (KUTAHYA) İlksel
2026.05.09,14:25:14,37.9738,36.5268,7.0,,2.1,,KIRECKOY-GOKSUN (KAHRAMANMARAS) İlksel
2026.05.09,14:36:56,38.2737,38.2470,26.8,,1.4,,GUNDUZBEY-YESILYURT (MALATYA) İlksel
2026.05.09,15:04:07,41.1660,35.0213,3.6,,2.1,,SOFULAR-VEZIRKOPRU (SAMSUN) İlksel
2026.05.09,15:18:43,39.1038,28.2503,19.7,,1.2,,KINIK-SINDIRGI (BALIKESIR) İlksel
2026.05.09,16:30:15,36.2030,29.8033,15.0,,2.1,,SAHILKILINCLI-KAS (ANTALYA) İlksel
2026.05.09,17:06:59,37.6253,35.8217,7.3,,1.8,,CAMDERE-KOZAN (ADANA) İlksel
2026.05.09,17:59:43,39.3592,26.1842,6.3,,1.8,,MIDILLI ADASI (EGE DENIZI) İlksel
2026.05.09,18:05:47,39.3655,26.1870,9.2,,1.5,,MIDILLI ADASI (EGE DENIZI) İlksel
2026.05.09,18:14:35,38.3672,27.1725,4.2,,1.6,,BUCA (IZMIR) İlksel
2026.05.09,18:22:52,37.3877,35.2040,9.0,,1.8,,MERKEZBOZTAHTA-KARAISALI (ADANA) İlksel
2026.05.09,19:05:42,39.1710,28.1247,8.8,,1.8,,ORMANICI-SINDIRGI (BALIKESIR) İlksel
2026.05.09,19:08:11,37.2153,34.4695,8.0,,1.6,,CAMLIYAYLA (MERSIN) İlksel
2026.05.09,19:27:41,37.9448,36.5263,4.0,,2.4,,GOLPINAR-GOKSUN (KAHRAMANMARAS) İlksel
2026.05.09,19:40:36,38.1233,36.9927,5.2,,1.8,,CALIS-ELBISTAN (KAHRAMANMARAS) İlksel
2026.05.09,19:42:01,39.1683,28.1447,11.4,,1.6,,SINANDEDE-SINDIRGI (BALIKESIR) İlksel
2026.05.09,20:04:56,37.7972,36.2378,4.2,,1.9,,HALILBEYLI-SAIMBEYLI (ADANA) İlksel
2026.05.09,21:07:14,36.0548,30.1715,4.6,,1.7,,FINIKE ACIKLARI-ANTALYA (AKDENIZ) İlksel
2026.05.09,21:14:50,40.6842,30.6832,5.0,,1.2,,HARUNUSTA-AKYAZI (SAKARYA) İlksel
2026.05.09,21:17:08,36.9108,29.0878,5.0,,2.0,,GURLEYIK-DALAMAN (MUGLA) İlksel
2026.05.09,21:25:16,34.8678,26.3637,15.7,,2.3,,GIRIT ADASI ACIKLARI (AKDENIZ) İlksel
2026.05.09,21:46:25,39.5445,25.0815,8.9,,1.5,,EGE DENIZI İlksel
2026.05.09,22:09:50,39.1323,28.1543,10.0,,1.4,,SINANDEDE-SINDIRGI (BALIKESIR) İlksel
2026.05.09,22:11:20,38.0803,35.2322,5.2,,2.0,,DUNDARLI-(NIGDE) İlksel
2026.05.09,22:15:18,38.0832,35.2003,6.3,,1.7,,DUNDARLI-(NIGDE) İlksel
2026.05.09,23:01:52,40.5463,25.6298,9.2,,2.6,,EGE DENIZI İlksel
2026.05.09,23:08:39,38.1028,36.6552,5.0,,2.6,,KARAOMER-GOKSUN (KAHRAMANMARAS) İlksel
2026.05.09,23:09:12,39.5038,27.8718,3.9,,2.1,,PAMUKCU-(BALIKESIR) İlksel
2026.05.09,23:09:43,39.4708,27.8573,5.3,,1.5,,TURKALI-(BALIKESIR) İlksel
2026.05.09,23:17:15,37.3617,35.0667,5.0,,1.6,,CEVLIK-KARAISALI (ADANA) İlksel
2026.05.09,23:21:53,39.1057,28.2625,5.0,,1.4,,YUREGIL-SINDIRGI (BALIKESIR) İlksel
2026.05.09,23:34:32,39.4037,28.0307,8.6,,2.3,,BABAKOY-BIGADIC (BALIKESIR) İlksel
2026.05.09,23:35:02,37.8405,36.2413,11.3,,1.9,,KARAKUYU-SAIMBEYLI (ADANA) İlksel
2026.05.10,00:00:06,37.3178,26.9502,19.3,,1.6,,EGE DENIZI İlksel
2026.05.10,00:43:35,38.0808,38.4720,5.4,,2.2,,KARAKOSE-SINCIK (ADIYAMAN) İlksel
2026.05.10,01:05:55,39.4117,38.5315,7.0,,1.8,,COPLER-ILIC (ERZINCAN) İlksel
2026.05.10,01:09:21,37.3117,26.9553,13.2,,1.4,,EGE DENIZI İlksel
2026.05.10,01:21:12,37.9802,36.5318,8.5,,1.7,,KIRECKOY-GOKSUN (KAHRAMANMARAS) İlksel
2026.05.10,01:25:51,36.8898,29.0970,4.6,,1.7,,DARIYERI-DALAMAN (MUGLA) İlksel
2026.05.10,01:31:43,38.3195,27.9223,18.1,,1.1,,CAMYAYLA-ODEMIS (IZMIR) İlksel
2026.05.10,01:32:36,36.8962,29.1215,12.1,,1.2,,KARABAYIR-CAMELI (DENIZLI) İlksel
2026.05.10,01:47:52,38.0918,37.8788,5.1,,1.4,,DOGANSEHIR (MALATYA) İlksel
2026.05.10,01:50:51,36.6073,25.6562,17.6,,3.2,3.0,EGE DENIZI İlksel
2026.05.10,02:10:09,37.0027,36.1548,6.4,,2.1,,GOKDERE-ERZIN (HATAY) İlksel
2026.05.10,02:56:51,39.3398,28.0593,8.6,,2.3,,ESMEDERE-SINDIRGI (BALIKESIR) İlksel
2026.05.10,03:05:23,36.9020,27.6310,3.1,,1.0,,GOKOVA KORFEZI (EGE DENIZI) İlksel
2026.05.10,03:10:31,36.6760,24.0717,20.6,,2.5,,YUNANISTAN İlksel
2026.05.10,03:23:19,39.3783,27.3932,13.7,,1.7,,TASDIBI-IVRINDI (BALIKESIR) İlksel
2026.05.10,03:32:55,39.4088,28.0485,5.4,,1.4,,BABAKOY-BIGADIC (BALIKESIR) İlksel
2026.05.10,03:33:16,38.9587,42.8845,19.1,,1.6,,ARMUTLU-PATNOS (AGRI) İlksel
2026.05.10,03:37:14,40.8933,35.9808,11.5,,1.8,,BOLAT-LADIK (SAMSUN) İlksel
2026.05.10,03:59:28,39.3782,27.3983,8.0,,1.9,,DUGLA-SOMA (MANISA) İlksel
2026.05.10,04:22:32,39.3590,27.4038,12.5,,1.4,,KIRAZ-SOMA (MANISA) İlksel
2026.05.10,04:30:00,39.1488,28.2600,13.7,,1.7,,BAYRAKLI-SINDIRGI (BALIKESIR) İlksel
2026.05.10,04:41:27,38.5897,40.9418,7.7,,1.5,,AKDORUK-KULP (DIYARBAKIR) İlksel
2026.05.10,05:57:13,39.3532,27.4183,2.8,,2.5,,KIRAZ-SOMA (MANISA) İlksel
2026.05.10,06:55:09,39.3627,27.3908,6.9,,1.6,,URKUTLER-BERGAMA (IZMIR) İlksel
2026.05.10,07:14:38,34.8977,24.3585,8.3,,3.4,3.4,GIRIT ADASI ACIKLARI (AKDENIZ) İlksel
2026.05.10,07:19:26,39.2055,28.1023,7.6,,1.4,,KERTIL-SINDIRGI (BALIKESIR) İlksel
2026.05.10,07:39:43,38.4193,25.8598,11.0,,2.1,,SAKIZ ADASI (EGE DENIZI) İlksel
2026.05.10,08:06:26,39.1923,38.9828,5.3,,1.9,,GOZLUCAYIR-CEMISGEZEK (TUNCELI) İlksel
2026.05.10,08:09:55,39.3698,27.4080,8.8,,2.5,,DUGLA-SOMA (MANISA) İlksel
2026.05.10,08:27:42,40.2760,27.1520,10.7,,0.4,,AGAKOY-BIGA (CANAKKALE) İlksel
2026.05.10,10:40:51,38.4443,37.3367,7.3,,1.7,,GAZIKOY-DARENDE (MALATYA) İlksel
2026.05.10,11:17:13,40.8757,28.7463,15.8,,1.0,,AVCILAR ACIKLARI-ISTANBUL (MARMARA DENIZI) İlksel
2026.05.10,11:44:37,38.3650,38.7538,3.9,,2.4,,TEPEKOY-KALE (MALATYA) İlksel
2026.05.10,11:48:09,38.1238,32.0930,5.6,,1.8,,BARAKMUSLU-ILGIN (KONYA) İlksel
2026.05.10,12:08:03,36.6700,25.8082,13.3,,2.0,,EGE DENIZI İlksel
2026.05.10,12:33:57,37.9540,26.7280,10.1,,1.8,,EGE DENIZI İlksel
2026.05.10,13:02:09,40.0687,30.1618,9.8,,2.9,,KURE-SOGUT (BILECIK) İlksel
2026.05.10,13:09:46,39.1285,28.1045,13.7,,1.7,,ISACA-AKHISAR (MANISA) İlksel
2026.05.10,13:33:47,39.3675,27.4032,11.7,,2.5,,DUGLA-SOMA (MANISA) İlksel
2026.05.10,13:39:03,35.1517,33.8483,65.7,,2.5,,KIBRIS-TUZLA İlksel
2026.05.10,13:58:56,37.4845,35.6555,7.2,,2.2,,POSTKABASAKAL-KOZAN (ADANA) İlksel
2026.05.10,14:02:36,39.2117,28.1342,18.6,,1.7,,MANDIRA-SINDIRGI (BALIKESIR) İlksel
2026.05.10,14:10:50,40.2963,23.9303,6.5,,2.3,,YUNANISTAN İlksel
2026.05.10,14:46:45,41.6388,45.3268,3.5,,2.4,,GURCISTAN İlksel
2026.05.10,15:14:30,35.2513,32.0088,24.0,,3.0,2.9,AKDENIZ İlksel
2026.05.10,16:16:22,40.7677,27.4642,10.5,,2.2,,GUZELKOY ACIKLARI-TEKIRDAG (MARMARA DENIZI) İlksel
2026.05.10,16:21:35,40.7787,27.4565,14.0,,2.3,,YENIKOY-(TEKIRDAG) İlksel
2026.05.10,16:59:40,37.8497,35.2995,5.0,,3.5,3.5,ULUPINAR-YAHYALI (KAYSERI) İlksel
2026.05.10,17:16:08,38.4553,37.3205,2.0,,2.4,,AKARCA-ELBISTAN (KAHRAMANMARAS) İlksel
2026.05.10,17:19:59,37.4882,35.6625,7.2,,1.9,,POSTKABASAKAL-KOZAN (ADANA) İlksel
2026.05.10,17:21:43,40.0817,24.7535,10.5,,1.7,,EGE DENIZI İlksel
2026.05.10,17:32:05,38.9970,25.9818,9.7,,2.0,,MIDILLI ADASI GUNEYI (EGE DENIZI) İlksel
2026.05.10,17:32:07,37.8667,36.4757,9.4,,2.3,,KUMARLI-(KAHRAMANMARAS) İlksel
2026.05.10,17:37:53,38.0543,28.9510,14.5,,2.1,,YENICEKENT-BULDAN (DENIZLI) İlksel
2026.05.10,17:55:07,39.4467,28.1492,15.5,,1.8,,SALMANLI-BIGADIC (BALIKESIR) İlksel
2026.05.10,17:55:58,39.5187,28.1165,13.5,,1.5,,YENIKOY-BIGADIC (BALIKESIR) İlksel
2026.05.10,17:57:34,35.1360,25.9838,5.0,,2.3,,GIRIT ADASI (AKDENIZ) İlksel
2026.05.10,18:06:23,38.4555,37.3080,5.3,,2.4,,AKARCA-ELBISTAN (KAHRAMANMARAS) İlksel
2026.05.10,18:18:43,38.2640,37.7770,11.7,,1.9,,CEVIRME-AKCADAG (MALATYA) İlksel
2026.05.10,18:30:54,39.2307,28.0973,9.6,,2.6,,KOZLU-SINDIRGI (BALIKESIR) İlksel
2026.05.10,18:32:07,39.2480,28.1207,7.5,,2.1,,KARAGUR-SINDIRGI (BALIKESIR) İlksel
2026.05.10,18:41:21,36.5873,25.6967,9.0,,1.8,,EGE DENIZI İlksel
2026.05.10,18:56:07,37.2182,28.0683,0.0,,1.5,,CUKUROZ-YATAGAN (MUGLA) İlksel
2026.05.10,18:57:55,39.0053,42.8735,5.0,,2.3,,KUCAK-PATNOS (AGRI) İlksel
2026.05.10,19:02:56,34.9142,26.1110,1.2,,2.6,,GIRIT ADASI ACIKLARI (AKDENIZ) İlksel
2026.05.10,19:05:02,40.3605,25.8052,7.7,,3.2,3.1,KALEKOY-GOKCEADA (CANAKKALE) İlksel
2026.05.10,19:07:49,40.3582,25.8738,10.1,,1.5,,KALEKOY-GOKCEADA (CANAKKALE) İlksel
2026.05.10,19:28:14,39.1848,29.0153,13.5,,1.0,,KARACAOREN-SIMAV (KUTAHYA) İlksel
2026.05.10,19:41:32,39.3528,27.3902,9.2,,2.5,,URKUTLER-BERGAMA (IZMIR) İlksel
2026.05.10,19:57:47,38.2517,38.1203,5.0,,1.2,,GORGU-YESILYURT (MALATYA) İlksel
2026.05.10,20:12:57,39.0057,42.8692,8.2,,2.4,,KUCAK-PATNOS (AGRI) İlksel
2026.05.10,21:20:22,40.8235,28.1448,14.6,,2.0,,MARMARA DENIZI İlksel
2026.05.10,21:25:30,39.0082,29.7748,10.2,,1.5,,SARAYCIK-ALTINTAS (KUTAHYA) İlksel
2026.05.10,21:26:37,38.2605,37.7602,10.3,,1.7,,CEVIRME-AKCADAG (MALATYA) İlksel
2026.05.10,21:52:25,39.1843,28.1745,11.6,,2.5,,SINANDEDE-SINDIRGI (BALIKESIR) İlksel
2026.05.10,22:02:43,38.9700,27.2563,9.1,,1.3,,OKSUZLER-BERGAMA (IZMIR) İlksel
2026.05.10,22:06:47,35.3223,25.3510,13.0,,1.6,,GIRIT ADASI (AKDENIZ) İlksel
2026.05.10,22:08:41,35.2163,26.3635,5.0,,1.7,,GIRIT ADASI (AKDENIZ) İlksel
2026.05.10,22:20:30,39.1858,28.2328,13.4,,1.5,,ILICA-SINDIRGI (BALIKESIR) İlksel
2026.05.10,22:29:09,38.2825,37.7737,15.1,,1.3,,CEVIRME-AKCADAG (MALATYA) İlksel
2026.05.10,22:44:04,35.3518,27.4555,5.0,,1.8,,AKDENIZ İlksel
2026.05.10,22:48:20,40.8072,31.0465,4.0,,3.1,3.1,KOPRUBASI OMEREFENDI-(DUZCE) İlksel
2026.05.10,23:04:33,38.9910,29.4610,3.1,,1.5,,GUMUSLU-GEDIZ (KUTAHYA) İlksel
2026.05.10,23:28:45,38.2427,38.1510,5.0,,3.3,3.3,SEYITUSAGI-YESILYURT (MALATYA) İlksel
2026.05.10,23:29:54,36.6758,26.6988,153.3,,4.2,4.0,EGE DENIZI İlksel
2026.05.11,00:23:22,37.5978,27.0603,5.0,,2.0,,DOGANBEY ACIKLARI-AYDIN (EGE DENIZI) İlksel
2026.05.11,00:52:44,40.1335,27.1870,8.1,,1.7,,KATRANCI-BIGA (CANAKKALE) İlksel
2026.05.11,01:37:20,38.4607,37.2760,11.0,,1.2,,AKARCA-ELBISTAN (KAHRAMANMARAS) İlksel
2026.05.11,01:40:32,37.2408,27.9587,5.4,,1.3,,CAMLICA-YATAGAN (MUGLA) İlksel
2026.05.11,01:41:42,37.9578,36.5423,2.8,,1.7,,KURUCAOVA-(KAHRAMANMARAS) İlksel
2026.05.11,01:44:56,37.1768,27.8668,7.9,,1.8,,IKIZKOY-MILAS (MUGLA) İlksel
2026.05.11,01:48:03,37.1510,27.8552,5.0,,1.1,,BAGDAMLARI-MILAS (MUGLA) İlksel
2026.05.11,01:53:09,37.5140,30.5947,7.7,,2.6,,BELOREN-BUCAK (BURDUR) İlksel
2026.05.11,02:12:14,37.1752,27.8487,10.4,,1.6,,IKIZKOY-MILAS (MUGLA) İlksel
2026.05.11,02:22:16,38.0970,37.8487,3.1,,2.2,,TOPRAKTEPE-DOGANSEHIR (MALATYA) İlksel
2026.05.11,02:46:18,39.2202,28.1110,7.8,,1.7,,BAYIRLI-SINDIRGI (BALIKESIR) İlksel
2026.05.11,02:57:15,40.3258,24.1368,4.6,,1.7,,YUNANISTAN İlksel
2026.05.11,03:33:20,37.9003,36.5255,6.0,,2.2,,DEGIRMENDERE-GOKSUN (KAHRAMANMARAS) İlksel
2026.05.11,03:42:43,38.6717,26.6070,10.9,,1.6,,IZMIR KORFEZI (EGE DENIZI) İlksel
2026.05.11,03:50:01,39.4938,39.2360,4.6,,1.5,,DERE-KEMAH (ERZINCAN) İlksel
2026.05.11,04:05:33,37.4332,29.5143,5.4,,1.5,,BADEMLI-ACIPAYAM (DENIZLI) İlksel
2026.05.11,04:10:27,37.9370,36.2073,5.4,,1.5,,KALEBOYNU-GOKSUN (KAHRAMANMARAS) İlksel
2026.05.11,04:13:53,38.0637,37.6867,5.4,,1.4,,BEGRE-DOGANSEHIR (MALATYA) İlksel
2026.05.11,04:17:01,38.4360,30.7912,3.5,,1.4,,BULANIK-CAY (AFYONKARAHISAR) İlksel
2026.05.11,04:25:52,37.1690,27.8558,11.8,,1.6,,IKIZKOY-MILAS (MUGLA) İlksel
2026.05.11,04:38:20,39.1330,28.2645,14.6,,2.2,,YUREGIL-SINDIRGI (BALIKESIR) İlksel
2026.05.11,04:56:38,38.0062,36.6725,8.8,,1.7,,KIZILOZ-GOKSUN (KAHRAMANMARAS) İlksel
2026.05.11,04:57:28,39.2012,28.1288,14.3,,1.4,,ORMANICI-SINDIRGI (BALIKESIR) İlksel
2026.05.11,05:06:07,37.1413,28.5455,10.5,,1.3,,GOLCUK-ULA (MUGLA) İlksel
2026.05.11,05:11:13,36.0757,27.5558,8.2,,2.7,,EGE DENIZI İlksel
2026.05.11,05:14:09,40.4010,28.8875,5.5,,2.5,,MUDANYA (BURSA) İlksel
2026.05.11,05:30:08,37.1823,27.8225,10.3,,1.5,,CAMKOY-MILAS (MUGLA) İlksel
2026.05.11,05:38:27,38.2645,38.1568,4.7,,1.4,,SEYITUSAGI-YESILYURT (MALATYA) İlksel
2026.05.11,05:53:12,36.5143,26.8352,122.7,,2.0,,EGE DENIZI İlksel
2026.05.11,06:04:58,37.1607,27.7983,12.5,,1.4,,KARACAHISAR-MILAS (MUGLA) İlksel
2026.05.11,07:00:21,39.1793,28.2675,11.8,,1.4,,ISIKLAR-SINDIRGI (BALIKESIR) İlksel
2026.05.11,07:28:44,37.7515,37.7033,5.0,,1.5,,YUKARICOPLU-GOLBASI (ADIYAMAN) İlksel
2026.05.11,07:32:00,39.2443,28.1425,10.9,,1.4,,MANDIRA-SINDIRGI (BALIKESIR) İlksel
2026.05.11,07:43:05,39.2292,28.1473,7.6,,1.5,,MANDIRA-SINDIRGI (BALIKESIR) İlksel
2026.05.11,08:27:58,40.3148,24.0803,9.7,,1.4,,YUNANISTAN İlksel
2026.05.11,08:34:29,39.1868,28.3315,9.5,,1.0,,BUYUKDAGDERE-SINDIRGI (BALIKESIR) İlksel
2026.05.11,09:45:10,36.6607,25.7768,9.0,,2.1,,EGE DENIZI İlksel
2026.05.11,10:00:19,37.7847,36.2415,2.6,,2.5,,HALILBEYLI-SAIMBEYLI (ADANA) İlksel
2026.05.11,10:36:16,34.7462,32.5220,14.7,,1.8,,AKDENIZ İlksel
2026.05.11,10:56:33,39.5412,26.0287,6.5,,1.3,,GULPINAR ACIKLARI-CANAKKALE (EGE DENIZI) İlksel
2026.05.11,10:56:50,39.2617,28.2237,5.3,,1.3,,CAYGOREN-SINDIRGI (BALIKESIR) İlksel
2026.05.11,11:05:33,39.0040,29.5410,6.7,,2.3,,GOKLER-GEDIZ (KUTAHYA) İlksel
2026.05.11,11:52:44,38.4928,31.9015,9.9,,1.8,,TEKELER-ILGIN (KONYA) İlksel
2026.05.11,11:57:18,40.2008,31.6947,6.5,,2.0,,SEKLI-BEYPAZARI (ANKARA) İlksel
2026.05.11,12:10:58,39.9058,28.0485,5.0,,1.2,,KIRAZKOY-SUSURLUK (BALIKESIR) İlksel
2026.05.11,12:17:46,38.9732,37.9255,7.0,,1.6,,BASKINIK-HEKIMHAN (MALATYA) İlksel
2026.05.11,12:20:27,37.8912,36.4920,7.7,,2.0,,DEGIRMENDERE-GOKSUN (KAHRAMANMARAS) İlksel
2026.05.11,12:28:43,39.2332,28.1200,7.4,,1.4,,BAYIRLI-SINDIRGI (BALIKESIR) İlksel
2026.05.11,12:30:35,39.2132,28.0310,5.3,,1.2,,SAHINKAYA-SINDIRGI (BALIKESIR) İlksel
2026.05.11,12:45:24,38.0527,37.5005,17.2,,1.4,,TATLAR-NURHAK (KAHRAMANMARAS) İlksel
2026.05.11,12:48:41,39.6040,33.6710,17.7,,0.9,,CINALI-KESKIN (KIRIKKALE) İlksel
2026.05.11,12:56:14,38.2847,37.7323,16.5,,1.0,,CEVIRME-AKCADAG (MALATYA) REVIZE01 (2026.05.11 12:56:22)
2026.05.11,12:56:22,40.5492,44.8953,8.5,,2.3,,ERMENISTAN İlksel
2026.05.11,12:56:46,39.1495,29.0175,12.8,,1.4,,HACIAHMETOGLU-SIMAV (KUTAHYA) İlksel
2026.05.11,13:04:58,38.4250,27.3167,4.2,,1.4,,KAVAKLIDERE-BORNOVA (IZMIR) İlksel
2026.05.11,13:25:15,40.1470,31.6535,7.3,,2.2,,ULUKOY-NALLIHAN (ANKARA) İlksel
2026.05.11,13:37:10,39.1577,29.0413,8.9,,1.0,,AHLATLICESME-SIMAV (KUTAHYA) İlksel
2026.05.11,14:03:31,38.4293,25.3612,7.9,,1.7,,EGE DENIZI İlksel
2026.05.11,14:20:09,37.8588,36.4458,8.7,,2.2,,BUYUKCAMURLU-GOKSUN (KAHRAMANMARAS) İlksel
2026.05.11,14:36:18,39.3835,32.9863,6.7,,1.9,,YENIYAPANCARSAK-BALA (ANKARA) İlksel
2026.05.11,14:48:29,39.1218,36.0835,2.5,,2.0,,BESTEPE-GEMEREK (SIVAS) İlksel
2026.05.11,15:11:32,38.4768,43.1212,7.8,,2.2,,VAN GOLU İlksel
2026.05.11,15:29:56,38.4140,29.1002,11.1,,1.7,,GEDIKLER-ULUBEY (USAK) İlksel
2026.05.11,15:31:12,34.8833,26.0878,13.9,,3.0,3.1,GIRIT ADASI ACIKLARI (AKDENIZ) İlksel
2026.05.11,16:08:18,40.7903,31.0375,7.6,,2.0,,ICMELER-GOLYAKA (DUZCE) İlksel
2026.05.11,16:19:09,36.5075,38.4870,12.5,,2.2,,SURIYE İlksel
2026.05.11,16:21:48,39.2688,25.9995,11.3,,1.8,,MIDILLI ADASI (EGE DENIZI) İlksel
2026.05.11,16:31:45,40.0455,35.5167,2.3,,2.6,,ISAKLI-CEKEREK (YOZGAT) İlksel
2026.05.11,16:56:47,40.0172,35.5293,8.6,,1.7,,KAHYALI-CEKEREK (YOZGAT) İlksel
2026.05.11,17:24:06,37.3427,35.0678,5.4,,1.6,,GILDIRLI-KARAISALI (ADANA) İlksel
2026.05.11,17:36:06,38.3757,38.9095,7.2,,2.6,,KAYABAGLARI-SIVRICE (ELAZIG) İlksel
2026.05.11,17:54:04,39.1373,28.3592,8.8,,1.4,,YAYLABAYIR-SINDIRGI (BALIKESIR) İlksel
2026.05.11,18:07:50,39.1563,41.9837,16.0,,2.4,,AKCAKAYNAK-BULANIK (MUS) İlksel
2026.05.11,18:38:21,39.9983,35.4963,6.7,,2.2,,CEMALOGLU-CEKEREK (YOZGAT) İlksel
2026.05.11,19:19:36,38.2757,37.6948,11.5,,1.3,,HARUNUSAGI-AKCADAG (MALATYA) İlksel
2026.05.11,19:27:03,38.8468,37.3925,5.0,,2.9,,KARADORUK-GURUN (SIVAS) İlksel
2026.05.11,19:35:03,38.2500,37.7528,11.0,,1.6,,CEVIRME-AKCADAG (MALATYA) İlksel
2026.05.11,20:02:46,35.5855,26.5282,9.0,,2.2,,EGE DENIZI İlksel
2026.05.11,20:14:24,37.0615,27.9252,5.2,,1.8,,CAMLICA-MILAS (MUGLA) İlksel
2026.05.11,20:20:41,39.1483,25.9922,6.6,,1.4,,MIDILLI ADASI (EGE DENIZI) İlksel
2026.05.11,20:31:17,39.9598,35.5925,10.7,,1.3,,CAKIRKOY-CEKEREK (YOZGAT) İlksel
2026.05.11,21:07:58,39.1263,28.9777,10.1,,0.9,,YESILOVA-SIMAV (KUTAHYA) İlksel
2026.05.11,22:15:29,37.8793,36.4363,8.4,,1.6,,BUYUKCAMURLU-GOKSUN (KAHRAMANMARAS) İlksel
2026.05.11,22:36:38,39.0810,28.3523,11.1,,1.8,,KOBAKLAR-GORDES (MANISA) İlksel
2026.05.11,22:53:35,38.2068,38.1687,7.9,,1.0,,ATALAR-YESILYURT (MALATYA) İlksel
2026.05.11,23:08:02,38.4065,38.8770,12.3,,1.2,,YAYLANLI-BASKIL (ELAZIG) İlksel
2026.05.11,23:13:11,38.1797,37.6680,10.7,,2.2,,ATMALIKASANLI-ELBISTAN (KAHRAMANMARAS) İlksel
2026.05.11,23:17:51,37.6718,35.4108,12.4,,1.2,,KUP-ALADAG (ADANA) İlksel
2026.05.11,23:59:12,37.6865,35.4007,7.2,,2.9,,KUP-ALADAG (ADANA) İlksel
2026.05.12,00:10:18,37.6882,35.3853,5.0,,2.4,,KUP-ALADAG (ADANA) İlksel
2026.05.12,00:16:09,37.6892,35.4032,5.0,,1.9,,KUP-ALADAG (ADANA) İlksel
2026.05.12,00:19:23,38.0805,38.3567,23.2,,1.3,,TASDAMLAR-CELIKHAN (ADIYAMAN) İlksel
2026.05.12,00:34:52,37.0675,27.8472,9.4,,2.1,,AKCAKAYA-MILAS (MUGLA) İlksel
2026.05.12,01:00:14,36.9383,29.0052,5.3,,0.9,,BOZBEL-DALAMAN (MUGLA) İlksel
2026.05.12,01:00:40,37.6985,35.4008,16.4,,1.3,,KUP-ALADAG (ADANA) İlksel
2026.05.12,01:09:48,38.2048,38.3440,17.9,,0.6,,UCGOZE-YESILYURT (MALATYA) İlksel
2026.05.12,02:05:11,38.8608,37.4192,5.0,,2.8,,KULAHLI-GURUN (SIVAS) İlksel
2026.05.12,02:20:19,38.1157,36.9022,5.0,,2.4,,KEMALPASA-GOKSUN (KAHRAMANMARAS) İlksel
2026.05.12,02:20:44,39.8935,42.3452,27.3,,1.5,,ASAGIAKTAS-HORASAN (ERZURUM) İlksel
2026.05.12,02:24:42,36.8713,29.1343,7.7,,1.1,,ARPACIK-FETHIYE (MUGLA) İlksel
2026.05.12,02:24:53,38.3463,38.7372,13.5,,1.6,,SARIOT-KALE (MALATYA) İlksel
2026.05.12,02:33:30,39.0652,28.2078,5.4,,1.5,,CICEKLI-GORDES (MANISA) İlksel
2026.05.12,02:59:06,39.0645,26.5455,9.4,,1.5,,MIDILLI ADASI (EGE DENIZI) İlksel
2026.05.12,03:04:09,37.7505,29.3135,16.0,,1.2,,MENTESE-HONAZ (DENIZLI) İlksel
2026.05.12,03:11:55,39.1758,28.0293,5.1,,1.0,,SOGUTLU-AKHISAR (MANISA) İlksel
2026.05.12,03:20:34,39.2582,25.9408,15.4,,1.0,,MIDILLI ADASI (EGE DENIZI) İlksel
2026.05.12,03:21:33,38.1458,36.8990,9.4,,1.7,,ESENCE-AFSIN (KAHRAMANMARAS) İlksel
2026.05.12,04:13:08,36.1323,31.5332,26.7,,1.7,,AKDENIZ İlksel
2026.05.12,04:40:45,35.8227,33.8758,11.1,,2.3,,AKDENIZ İlksel
2026.05.12,05:08:32,40.6402,36.8067,4.5,,1.4,,BUZKOY-NIKSAR (TOKAT) İlksel
2026.05.12,05:54:32,38.2687,38.7830,5.0,,2.6,,KARSIYAKA-PUTURGE (MALATYA) İlksel
2026.05.12,06:06:36,38.9885,28.3333,2.4,,1.2,,KUSLUK-GORDES (MANISA) İlksel
2026.05.12,06:07:41,39.9097,40.8922,22.5,,0.9,,ATLIKONAK-AZIZIYE (ERZURUM) İlksel
2026.05.12,06:25:00,38.5318,26.4057,15.3,,1.9,,KUCUKBAHCE-KARABURUN (IZMIR) İlksel
2026.05.12,07:24:38,37.8915,29.2623,9.1,,2.1,,IRLIGANLI-(DENIZLI) İlksel
2026.05.12,07:33:53,40.0660,35.5102,5.0,,2.1,,CEKEREK (YOZGAT) İlksel
2026.05.12,07:36:46,38.0982,37.4872,13.0,,1.8,,SUNNETKOY-ELBISTAN (KAHRAMANMARAS) İlksel
2026.05.12,07:43:42,39.1778,29.0137,11.7,,1.2,,KARACAOREN-SIMAV (KUTAHYA) İlksel
2026.05.12,07:54:53,39.1508,29.0108,10.7,,0.8,,HACIAHMETOGLU-SIMAV (KUTAHYA) İlksel
2026.05.12,09:03:10,37.1990,37.2567,0.0,,1.5,,BOYNO-SEHITKAMIL (GAZIANTEP) İlksel
2026.05.12,09:12:18,36.9172,29.1162,5.2,,1.4,,KARABAYIR-CAMELI (DENIZLI) İlksel
2026.05.12,09:46:23,36.9332,29.1033,4.6,,1.4,,KARABAYIR-CAMELI (DENIZLI) İlksel
2026.05.12,09:52:24,39.9232,41.6178,9.2,,1.8,,ALVAR-PASINLER (ERZURUM) İlksel
2026.05.12,10:08:24,37.8338,37.7275,11.2,,1.6,,HARMANLI-GOLBASI (ADIYAMAN) İlksel
2026.05.12,10:49:59,37.8880,36.2875,7.9,,1.6,,PAYAMBURNU-GOKSUN (KAHRAMANMARAS) İlksel
2026.05.12,11:39:35,39.2327,27.7230,0.0,,1.7,,DENIS-SOMA (MANISA) İlksel
2026.05.12,11:42:23,37.1290,27.9100,0.0,,1.4,,SEKKOY-MILAS (MUGLA) İlksel
2026.05.12,11:48:29,39.6838,29.4423,0.0,,1.6,,BOZBELEN-TAVSANLI (KUTAHYA) İlksel
2026.05.12,11:53:40,39.1683,28.0947,11.1,,1.3,,ORMANICI-SINDIRGI (BALIKESIR) İlksel
2026.05.12,11:55:21,35.1368,25.1820,5.4,,2.8,,GIRIT ADASI (AKDENIZ) İlksel
2026.05.12,11:56:02,37.1155,27.9240,0.0,,2.4,,SEKKOY-MILAS (MUGLA) İlksel
2026.05.12,12:01:03,37.1515,27.9268,0.0,,2.4,,KARACAAGAC-MILAS (MUGLA) İlksel
2026.05.12,12:11:51,38.7447,27.9413,10.1,,1.3,,HIROGLU-GOLMARMARA (MANISA) İlksel
2026.05.12,12:21:07,38.1807,38.2627,9.8,,1.3,,KADIRUSAGI-YESILYURT (MALATYA) İlksel
2026.05.12,12:33:11,39.3647,33.4018,0.0,,1.3,,BUGUZ-KAMAN (KIRSEHIR) İlksel
2026.05.12,12:38:50,39.0577,27.9748,10.0,,1.2,,BASLAMIS-AKHISAR (MANISA) İlksel
2026.05.12,12:46:40,37.8823,26.9462,5.3,,1.5,,KUSADASI KORFEZI (EGE DENIZI) İlksel
2026.05.12,12:47:09,39.1165,28.9240,15.4,,1.3,,DEMIRCI-SIMAV (KUTAHYA) İlksel
2026.05.12,12:51:22,39.6500,38.7387,8.0,,2.8,,SERINGOZE-KEMAH (ERZINCAN) İlksel
2026.05.12,13:02:31,36.2745,33.7158,0.0,,1.4,,KIRTIL-SILIFKE (MERSIN) İlksel
2026.05.12,13:27:07,39.3240,41.0853,7.8,,1.6,,KARGAPAZARI-KARLIOVA (BINGOL) İlksel
2026.05.12,13:49:54,39.0927,29.0958,3.9,,1.3,,SENKOY-SIMAV (KUTAHYA) İlksel
2026.05.12,13:54:14,38.0663,38.5277,9.9,,2.3,,YARPUZLU-SINCIK (ADIYAMAN) İlksel
2026.05.12,13:55:02,36.1423,33.5638,0.0,,0.9,,BUYUKECELI-GULNAR (MERSIN) İlksel
2026.05.12,14:01:40,37.0767,30.5773,14.9,,1.7,,YAGCA-DOSEMEALTI (ANTALYA) İlksel
2026.05.12,14:04:20,38.1830,38.6400,4.9,,1.7,,ARITOPRAK-PUTURGE (MALATYA) İlksel
2026.05.12,14:18:03,39.1582,28.9858,16.6,,1.8,,NASA-SIMAV (KUTAHYA) İlksel
2026.05.12,14:20:07,38.1860,38.6418,6.4,,2.1,,ARITOPRAK-PUTURGE (MALATYA) İlksel
2026.05.12,14:44:10,37.3538,31.0198,112.5,,1.8,,GUMU-SUTCULER (ISPARTA) İlksel
2026.05.12,14:50:32,36.6503,28.9280,25.0,,1.6,,FETHIYE KORFEZI (AKDENIZ) İlksel
2026.05.12,14:52:42,38.1655,26.8465,21.4,,1.4,,SEFERIHISAR (IZMIR) İlksel
2026.05.12,15:03:27,35.1115,27.2657,12.0,,2.3,,AKDENIZ İlksel
2026.05.12,15:07:31,36.1988,33.4398,0.0,,1.0,,SIPAHILI-GULNAR (MERSIN) İlksel
2026.05.12,15:13:38,40.7962,28.7112,15.2,,1.6,,AVCILAR ACIKLARI-ISTANBUL (MARMARA DENIZI) İlksel
2026.05.12,15:19:10,40.8307,29.3755,0.0,,1.6,,CAYIROVA (KOCAELI) İlksel
2026.05.12,16:43:37,38.3173,38.2538,4.9,,2.1,,BOSTANBASI-YESILYURT (MALATYA) İlksel
2026.05.12,16:45:46,38.2592,38.2625,5.4,,1.9,,GUNDUZBEY-YESILYURT (MALATYA) İlksel
2026.05.12,17:15:16,39.2047,28.9818,12.5,,1.8,,EGIRLER-SIMAV (KUTAHYA) İlksel
2026.05.12,17:20:22,38.9777,29.5575,1.8,,1.6,,SUMAKLI-GEDIZ (KUTAHYA) İlksel
2026.05.12,17:20:41,38.0692,38.4393,25.1,,1.3,,SAHINBEYLER-SINCIK (ADIYAMAN) İlksel
2026.05.12,17:29:46,38.1605,38.7780,5.0,,1.0,,GOKCELI-PUTURGE (MALATYA) İlksel
2026.05.12,17:34:21,38.9215,29.8300,28.4,,1.3,,YUYLUK-DUMLUPINAR (KUTAHYA) İlksel
2026.05.12,17:39:27,35.8645,25.6465,21.9,,1.7,,EGE DENIZI İlksel
2026.05.12,18:44:37,39.1360,28.2397,17.4,,1.4,,BAYRAKLI-SINDIRGI (BALIKESIR) İlksel
2026.05.12,19:13:22,38.0598,35.5403,5.7,,2.0,,SAZAK-YAHYALI (KAYSERI) İlksel
2026.05.12,19:36:42,37.8508,37.4823,4.8,,1.2,,DUZBAG-CAGLAYANCERIT (KAHRAMANMARAS) İlksel
2026.05.12,19:50:34,36.7092,33.8255,23.2,,1.7,,KAVAKKOY-SILIFKE (MERSIN) İlksel
2026.05.12,19:58:29,38.2215,38.6973,18.4,,1.6,,KOKPINAR-PUTURGE (MALATYA) İlksel
2026.05.12,20:19:57,36.7552,33.8887,17.8,,1.7,,AYASTURKMENLI-SILIFKE (MERSIN) İlksel
2026.05.12,21:03:24,37.9608,27.0888,9.4,,1.2,,KUSADASI KORFEZI (EGE DENIZI) İlksel
2026.05.12,21:08:00,38.3833,37.3107,22.1,,1.4,,INCECIK-ELBISTAN (KAHRAMANMARAS) İlksel
2026.05.12,21:12:06,38.2200,36.7527,4.9,,1.7,,AGCASAR-AFSIN (KAHRAMANMARAS) İlksel
2026.05.12,21:58:14,36.4492,33.3983,15.2,,0.8,,ORTULU-GULNAR (MERSIN) İlksel
2026.05.12,22:05:04,38.3042,38.2355,5.2,,1.2,,YAKINCA-YESILYURT (MALATYA) İlksel
2026.05.12,22:10:17,38.3938,28.3908,4.9,,0.5,,YENIKOY-ALASEHIR (MANISA) İlksel
2026.05.12,23:07:39,38.2740,37.7745,8.5,,1.8,,CEVIRME-AKCADAG (MALATYA) İlksel
2026.05.12,23:17:37,39.2390,28.1392,7.1,,1.4,,MANDIRA-SINDIRGI (BALIKESIR) İlksel
2026.05.12,23:38:15,38.8117,37.6510,8.6,,1.9,,ILISULUK-KULUNCAK (MALATYA) İlksel
2026.05.13,00:10:07,38.0473,37.4635,16.4,,1.5,,TATLAR-NURHAK (KAHRAMANMARAS) İlksel
2026.05.13,00:13:16,38.1173,36.1733,6.1,,1.4,,DOGANBEYLI-TUFANBEYLI (ADANA) İlksel
2026.05.13,00:19:47,37.9350,36.5303,7.6,,1.9,,DEGIRMENDERE-GOKSUN (KAHRAMANMARAS) İlksel
2026.05.13,00:47:16,39.1403,28.1693,12.8,,1.4,,AKTAS-SINDIRGI (BALIKESIR) İlksel
2026.05.13,00:52:33,38.2440,37.7842,15.6,,1.1,,CEVIRME-AKCADAG (MALATYA) İlksel
2026.05.13,01:06:03,36.3903,33.4147,5.0,,0.9,,UCOLUK-GULNAR (MERSIN) İlksel
2026.05.13,01:17:00,36.8997,29.1145,5.2,,1.6,,KARABAYIR-CAMELI (DENIZLI) İlksel
2026.05.13,01:44:06,38.8845,43.7930,5.0,,2.5,,BEYDAGI-MURADIYE (VAN) İlksel
2026.05.13,01:51:48,38.0652,28.9865,15.3,,1.2,,ERTUGRUL-GUNEY (DENIZLI) İlksel
2026.05.13,02:03:31,38.1628,38.8328,14.5,,1.6,,GUNDUZ-PUTURGE (MALATYA) İlksel
2026.05.13,02:14:31,38.3322,38.8238,17.3,,1.6,,UYANIK-KALE (MALATYA) İlksel
2026.05.13,02:38:50,38.3678,37.4535,16.4,,1.3,,YALINTAS-ELBISTAN (KAHRAMANMARAS) İlksel
2026.05.13,02:53:18,39.1213,28.2920,10.0,,1.4,,YUREGIL-SINDIRGI (BALIKESIR) İlksel
2026.05.13,02:59:36,39.0323,28.3152,13.0,,1.1,,SALUR-GORDES (MANISA) İlksel
2026.05.13,03:12:30,39.9212,39.4970,5.0,,2.1,,BINDAL-KELKIT (GUMUSHANE) İlksel
2026.05.13,03:38:29,38.2260,38.2622,5.0,,1.3,,KADIRUSAGI-YESILYURT (MALATYA) İlksel
2026.05.13,04:00:47,39.1902,28.2212,9.7,,2.7,,ILICA-SINDIRGI (BALIKESIR) İlksel
2026.05.13,04:06:15,37.2057,32.5800,21.9,,1.0,,KIZILCAKIR-BOZKIR (KONYA) İlksel
2026.05.13,04:10:30,39.3460,25.9590,5.2,,1.6,,BADEMLI ACIKLARI-CANAKKALE (EGE DENIZI) İlksel
2026.05.13,04:35:05,36.9212,29.0853,5.0,,1.5,,GURLEYIK-DALAMAN (MUGLA) İlksel
2026.05.13,04:41:09,37.2185,28.1250,7.6,,2.0,,CUKUROZ-YATAGAN (MUGLA) İlksel
2026.05.13,04:43:55,36.4443,33.3335,18.2,,1.1,,ORENPINAR-GULNAR (MERSIN) İlksel
2026.05.13,04:50:26,36.4542,33.3703,4.9,,0.6,,KURBAGAKOY-GULNAR (MERSIN) İlksel
2026.05.13,04:57:42,36.3720,33.3818,3.5,,0.8,,TOZKOVAN-GULNAR (MERSIN) İlksel
2026.05.13,04:59:45,36.5240,33.3377,13.3,,1.1,,YESILKOY-MUT (MERSIN) İlksel
2026.05.13,05:10:41,36.4433,33.3350,6.2,,0.9,,ORENPINAR-GULNAR (MERSIN) İlksel
2026.05.13,05:20:59,36.4950,33.3298,6.2,,1.2,,YESILKOY-MUT (MERSIN) İlksel
2026.05.13,05:29:01,39.1737,28.2247,12.6,,1.9,,BAYRAKLI-SINDIRGI (BALIKESIR) İlksel
2026.05.13,05:32:10,36.3813,33.3963,3.2,,0.7,,UCOLUK-GULNAR (MERSIN) İlksel
2026.05.13,05:36:40,37.9515,36.2978,5.0,,2.0,,KAZANDERE-GOKSUN (KAHRAMANMARAS) İlksel
2026.05.13,05:42:40,36.2622,34.1500,5.0,,1.8,,KURTULUS ACIKLARI-MERSIN (AKDENIZ) İlksel
2026.05.13,05:57:41,39.1392,28.0737,10.3,,1.7,,ISACA-AKHISAR (MANISA) İlksel
2026.05.13,06:07:01,40.4453,28.4182,5.4,,2.1,,BAYRAMDERE ACIKLARI-BURSA (MARMARA DENIZI) İlksel
2026.05.13,06:17:40,39.1385,28.2257,15.9,,1.5,,BAYRAKLI-SINDIRGI (BALIKESIR) İlksel
2026.05.13,06:24:37,39.3242,25.9465,4.2,,1.5,,BADEMLI ACIKLARI-CANAKKALE (EGE DENIZI) İlksel
2026.05.13,06:37:23,39.1490,28.3313,9.1,,1.4,,KUCUKDAGDERE-SINDIRGI (BALIKESIR) İlksel
2026.05.13,06:45:21,36.4258,33.3562,8.1,,1.4,,KURBAGAKOY-GULNAR (MERSIN) İlksel
2026.05.13,06:50:20,39.2808,40.6740,10.7,,1.6,,CEVRELI-ADAKLI (BINGOL) İlksel
2026.05.13,06:58:35,37.0595,31.8435,8.1,,2.1,,CIMIKOY-AKSEKI (ANTALYA) İlksel
2026.05.13,07:47:31,40.9753,23.4213,5.4,,1.5,,YUNANISTAN İlksel
2026.05.13,08:00:26,36.4787,33.3352,10.3,,1.7,,ORENPINAR-GULNAR (MERSIN) İlksel
2026.05.13,08:11:06,39.1772,27.8240,2.3,,1.4,,GEBELER-KIRKAGAC (MANISA) İlksel
2026.05.13,08:44:36,39.3743,40.3782,2.2,,2.1,,KIGI (BINGOL) İlksel
2026.05.13,08:53:36,38.0580,37.6435,6.1,,2.0,,BEGRE-DOGANSEHIR (MALATYA) İlksel
2026.05.13,09:07:02,40.3237,42.2112,7.5,,1.9,,PARMAKDERE-SARIKAMIS (KARS) İlksel
2026.05.13,10:20:49,39.3053,41.1275,13.5,,2.4,,ALABALIK-VARTO (MUS) İlksel
2026.05.13,10:22:43,40.3278,27.6902,16.4,,2.0,,MISAKCA-BANDIRMA (BALIKESIR) İlksel
2026.05.13,10:22:52,38.9600,29.9672,12.3,,1.5,,YESILYURT-ALTINTAS (KUTAHYA) İlksel
2026.05.13,10:26:22,36.9000,29.1177,3.5,,1.6,,KARABAYIR-CAMELI (DENIZLI) İlksel
2026.05.13,10:59:14,36.4805,33.3398,12.4,,1.7,,ORENPINAR-GULNAR (MERSIN) İlksel
2026.05.13,11:27:42,36.5195,33.3592,16.6,,1.2,,YESILKOY-MUT (MERSIN) İlksel
2026.05.13,12:16:52,38.9420,37.8410,11.1,,1.7,,DAVULKU-HEKIMHAN (MALATYA) İlksel
2026.05.13,12:18:35,39.4403,28.1032,0.0,,2.0,,KADIKOY-BIGADIC (BALIKESIR) İlksel
2026.05.13,13:03:21,39.1732,28.1553,15.9,,1.2,,SINANDEDE-SINDIRGI (BALIKESIR) İlksel
2026.05.13,13:13:30,37.8800,36.4688,9.7,,1.8,,DEGIRMENDERE-GOKSUN (KAHRAMANMARAS) İlksel
2026.05.13,13:32:15,37.1037,34.5432,6.8,,2.3,,KIZILKAYA-TOROSLAR (MERSIN) İlksel
2026.05.13,13:33:49,36.4913,33.3437,11.2,,1.8,,YESILKOY-MUT (MERSIN) İlksel
2026.05.13,13:43:19,37.8683,26.4787,19.6,,1.4,,EGE DENIZI İlksel
2026.05.13,13:47:16,38.1328,27.4147,6.1,,1.8,,ARSLANLAR-TORBALI (IZMIR) İlksel
2026.05.13,15:00:58,36.4873,33.3383,13.0,,1.7,,YESILKOY-MUT (MERSIN) İlksel
2026.05.13,15:12:34,36.9333,29.1188,15.0,,1.1,,KARABAYIR-CAMELI (DENIZLI) İlksel
2026.05.13,15:14:04,38.2712,38.1990,12.8,,1.8,,SEYITUSAGI-YESILYURT (MALATYA) İlksel
2026.05.13,15:14:33,40.0080,35.8072,12.1,,1.6,,KADISEHRI (YOZGAT) İlksel
2026.05.13,15:42:35,38.0518,28.9772,1.0,,2.3,,MAHMUTLU-BULDAN (DENIZLI) İlksel
2026.05.13,16:20:59,40.7805,27.7850,16.8,,1.8,,MARMARA DENIZI İlksel
2026.05.13,16:53:26,39.2320,28.0712,9.0,,1.5,,ALAKIR-SINDIRGI (BALIKESIR) İlksel
2026.05.13,17:05:48,37.1383,36.6447,8.1,,2.2,,KOZDERE-ISLAHIYE (GAZIANTEP) İlksel
2026.05.13,17:18:27,36.4248,33.4057,9.1,,1.2,,ORTULU-GULNAR (MERSIN) İlksel
2026.05.13,17:31:18,39.2317,28.2605,10.1,,1.4,,DANACAYIRI-SINDIRGI (BALIKESIR) İlksel
2026.05.13,17:32:01,39.1898,28.3280,16.3,,1.5,,BUYUKDAGDERE-SINDIRGI (BALIKESIR) İlksel
2026.05.13,17:42:54,41.1233,28.9882,4.3,,1.0,,KAGITHANE (ISTANBUL) İlksel
2026.05.13,17:45:45,36.5155,33.4023,5.0,,1.1,,GUZELKOY-MUT (MERSIN) İlksel
2026.05.13,18:30:09,39.1705,27.9717,4.4,,1.9,,AKKOCALI-AKHISAR (MANISA) İlksel
2026.05.13,18:38:59,38.1658,37.6612,4.7,,1.6,,ATMALIKASANLI-ELBISTAN (KAHRAMANMARAS) İlksel
2026.05.13,18:57:52,40.6717,32.6053,8.8,,2.2,,SULELER-KIZILCAHAMAM (ANKARA) İlksel
2026.05.13,19:08:12,36.4550,33.3438,8.5,,1.5,,ORENPINAR-GULNAR (MERSIN) İlksel
2026.05.13,19:36:58,39.6877,40.6023,16.5,,1.8,,KALECIK-TERCAN (ERZINCAN) İlksel
2026.05.13,19:54:14,35.3450,25.8648,14.5,,1.9,,GIRIT ADASI (AKDENIZ) İlksel
2026.05.13,20:00:44,38.9927,28.1287,6.6,,1.2,,DAGDERE-AKHISAR (MANISA) İlksel
2026.05.13,20:11:11,40.8938,31.7040,12.4,,1.9,,MESCICELE-(BOLU) İlksel
2026.05.13,20:15:54,39.1243,28.1095,11.4,,0.8,,SINANDEDE-SINDIRGI (BALIKESIR) İlksel
2026.05.13,20:23:31,36.4710,33.3395,1.3,,1.1,,ORENPINAR-GULNAR (MERSIN) İlksel
2026.05.13,21:17:11,36.4745,33.3340,9.5,,2.2,,ORENPINAR-GULNAR (MERSIN) İlksel
2026.05.13,21:38:09,36.4800,33.3285,9.1,,2.2,,ORENPINAR-GULNAR (MERSIN) İlksel
2026.05.13,22:29:23,38.0482,38.2050,14.5,,0.6,,PINARBASI-CELIKHAN (ADIYAMAN) İlksel
2026.05.13,23:01:21,36.4963,33.3047,3.7,,1.5,,KUSKAN-GULNAR (MERSIN) İlksel
2026.05.13,23:13:16,39.9972,35.5522,11.1,,1.8,,SARIKAYA-CEKEREK (YOZGAT) İlksel
2026.05.13,23:31:45,36.0552,30.0003,5.0,,1.7,,KALE ACIKLARI-ANTALYA (AKDENIZ) İlksel
2026.05.13,23:48:41,36.4795,33.3468,11.8,,1.4,,ORENPINAR-GULNAR (MERSIN) İlksel
2026.05.13,23:48:48,38.4067,25.9423,18.6,,1.7,,SAKIZ ADASI (EGE DENIZI) İlksel
2026.05.14,00:26:42,36.9342,29.0147,23.2,,1.0,,GURLEYIK-DALAMAN (MUGLA) İlksel
2026.05.14,00:53:05,39.9727,27.6353,14.8,,1.9,,SEBEPLI-GONEN (BALIKESIR) İlksel
2026.05.14,01:00:12,38.1753,38.4398,17.3,,1.1,,AKSU-SINCIK (ADIYAMAN) İlksel
2026.05.14,01:10:24,39.1615,28.9683,15.7,,1.6,,NASA-SIMAV (KUTAHYA) İlksel
2026.05.14,01:23:59,36.4758,33.3300,13.6,,2.6,,ORENPINAR-GULNAR (MERSIN) İlksel
2026.05.14,01:25:35,35.8898,27.4542,23.3,,1.5,,EGE DENIZI İlksel
2026.05.14,01:37:54,37.6603,36.5592,8.3,,1.6,,CINARPINAR-(KAHRAMANMARAS) İlksel
2026.05.14,02:47:24,39.8823,40.4457,13.0,,1.5,,KARACAKISLAK-TERCAN (ERZINCAN) İlksel
2026.05.14,02:48:08,38.8342,26.4978,12.7,,1.7,,EGE DENIZI İlksel
2026.05.14,02:54:34,36.9087,29.1207,2.4,,1.0,,KARABAYIR-CAMELI (DENIZLI) İlksel
2026.05.14,03:01:01,37.9727,36.3263,5.0,,1.8,,KAZANDERE-GOKSUN (KAHRAMANMARAS) İlksel
2026.05.14,03:15:30,37.0265,38.4397,5.0,,1.8,,ONBIRNISAN-SURUC (SANLIURFA) İlksel
2026.05.14,03:29:56,38.0948,36.6250,5.4,,1.8,,KANLIKAVAK-GOKSUN (KAHRAMANMARAS) İlksel
2026.05.14,03:36:06,37.8013,36.6025,10.1,,1.5,,KAYNAR-(KAHRAMANMARAS) İlksel
2026.05.14,04:08:48,38.1748,28.9018,4.1,,1.6,,TURLUBEY-BULDAN (DENIZLI) İlksel
2026.05.14,04:09:29,38.2072,38.4827,6.2,,1.9,,GULUMUSAGI-(MALATYA) İlksel
2026.05.14,04:25:27,39.1417,28.9813,8.0,,1.3,,HACIAHMETOGLU-SIMAV (KUTAHYA) İlksel
2026.05.14,04:54:24,38.3972,37.4335,2.8,,1.1,,YALINTAS-ELBISTAN (KAHRAMANMARAS) İlksel
2026.05.14,05:29:02,38.1773,36.5560,5.0,,1.9,,KAVSUT-GOKSUN (KAHRAMANMARAS) İlksel
2026.05.14,05:35:23,38.0975,27.3565,3.9,,1.3,,AHMETLI-TORBALI (IZMIR) İlksel
2026.05.14,05:39:25,38.9940,42.7988,25.1,,1.7,,DIZGINKALE-PATNOS (AGRI) İlksel
2026.05.14,06:13:38,37.7757,36.6442,10.0,,1.7,,SUCATI-(KAHRAMANMARAS) İlksel
2026.05.14,06:16:27,38.0307,36.2962,7.6,,1.6,,KAZANDERE-GOKSUN (KAHRAMANMARAS) İlksel
2026.05.14,07:01:48,39.5138,28.8158,7.8,,2.7,,POYRACIK-DURSUNBEY (BALIKESIR) İlksel
2026.05.14,07:12:27,37.4403,33.6435,8.7,,1.9,,KALEKOY-AYRANCI (KARAMAN) İlksel
2026.05.14,07:26:43,35.7973,29.3590,21.2,,2.0,,AKDENIZ İlksel
2026.05.14,07:37:13,39.2150,28.1080,12.8,,1.4,,KERTIL-SINDIRGI (BALIKESIR) İlksel
2026.05.14,08:01:50,39.1235,28.9707,23.2,,1.6,,CITGOL-SIMAV (KUTAHYA) İlksel
2026.05.14,08:21:32,40.2262,24.7592,12.1,,3.1,3.1,EGE DENIZI İlksel
2026.05.14,08:33:13,39.1950,28.2062,11.3,,2.6,,ILICA-SINDIRGI (BALIKESIR) İlksel
2026.05.14,08:50:09,37.6103,35.5643,5.0,,1.9,,KISLAK-ALADAG (ADANA) İlksel
2026.05.14,08:51:50,38.0167,36.5922,3.5,,2.9,,SARAYCIK-GOKSUN (KAHRAMANMARAS) İlksel
2026.05.14,08:53:33,37.4812,35.5515,7.8,,1.7,,DOGANALANI-KOZAN (ADANA) İlksel
2026.05.14,08:54:05,37.7755,35.6845,15.8,,1.5,,ORTAKOY-FEKE (ADANA) İlksel
2026.05.14,08:54:56,37.5930,35.6025,12.4,,1.1,,GOKGOZ-KOZAN (ADANA) İlksel
2026.05.14,08:56:28,38.2793,37.8078,18.9,,1.4,,ORTAKOY-AKCADAG (MALATYA) İlksel
2026.05.14,08:59:16,39.1893,28.1427,18.2,,1.5,,ORMANICI-SINDIRGI (BALIKESIR) İlksel
2026.05.14,09:04:18,39.0892,34.7325,9.1,,2.1,,CAGSAK-KOZAKLI (NEVSEHIR) İlksel
2026.05.14,10:37:13,37.8910,26.9373,5.3,,1.4,,KUSADASI KORFEZI (EGE DENIZI) İlksel
2026.05.14,12:00:27,37.9760,36.6227,5.0,,2.8,,KURUCAOVA-(KAHRAMANMARAS) İlksel
2026.05.14,12:16:01,39.2892,28.1435,9.7,,1.5,,KARAAGAC-SINDIRGI (BALIKESIR) İlksel
2026.05.14,12:24:29,38.2915,38.0892,0.0,,1.3,,GORGU-YESILYURT (MALATYA) İlksel
2026.05.14,12:44:26,38.2558,38.1878,4.6,,1.9,,SEYITUSAGI-YESILYURT (MALATYA) İlksel
2026.05.14,12:47:50,36.1565,33.9160,28.6,,1.5,,SILIFKE ACIKLARI-MERSIN (AKDENIZ) İlksel
2026.05.14,13:08:41,38.5525,41.5252,6.0,,2.8,,GOZTEPE-MUTKI (BITLIS) İlksel
2026.05.14,13:44:18,38.0780,36.6783,11.8,,1.6,,GUCUKSU-GOKSUN (KAHRAMANMARAS) İlksel
2026.05.14,13:49:05,36.0875,30.2527,5.0,,3.0,2.9,FINIKE ACIKLARI-ANTALYA (AKDENIZ) İlksel
2026.05.14,15:11:36,38.0930,32.6117,0.0,,1.6,,SARICALAR-SELCUKLU (KONYA) İlksel
2026.05.14,15:35:47,37.9462,36.2498,5.4,,1.8,,KALEBOYNU-GOKSUN (KAHRAMANMARAS) İlksel
2026.05.14,16:26:52,38.2720,38.1510,5.1,,2.6,,SEYITUSAGI-YESILYURT (MALATYA) İlksel
2026.05.14,18:36:33,38.6215,44.7078,3.1,,3.1,3.1,TURKIYE-IRAN SINIR BOLGESI İlksel
2026.05.14,19:35:28,39.1810,28.2253,4.4,,3.0,2.9,BAYRAKLI-SINDIRGI (BALIKESIR) İlksel
2026.05.14,19:41:07,39.1937,28.1907,8.2,,1.8,,YAYLACIK-SINDIRGI (BALIKESIR) İlksel
2026.05.14,19:45:48,39.1615,28.2680,8.9,,1.3,,ISIKLAR-SINDIRGI (BALIKESIR) İlksel
2026.05.14,19:59:34,39.1900,28.2310,8.6,,2.1,,ILICA-SINDIRGI (BALIKESIR) İlksel
2026.05.14,20:05:10,37.5102,36.1128,5.6,,2.1,,YESILYAYLA-SUMBAS (OSMANIYE) İlksel
2026.05.14,20:16:33,37.0707,28.4850,12.9,,1.6,,CICEKLI-ULA (MUGLA) İlksel
2026.05.14,20:18:27,40.7583,29.1803,5.0,,1.2,,YALOVA ACIKLARI (MARMARA DENIZI) İlksel
2026.05.14,21:04:28,37.2240,36.7237,2.4,,1.9,,BADEMLI-NURDAGI (GAZIANTEP) İlksel
2026.05.14,21:30:47,39.1575,27.8827,4.8,,1.4,,ISIKLAR-KIRKAGAC (MANISA) İlksel
2026.05.14,21:34:32,39.1513,28.1188,9.4,,1.5,,SINANDEDE-SINDIRGI (BALIKESIR) İlksel
2026.05.14,22:02:12,38.1538,37.0495,5.0,,2.3,,ORTAKLI-AFSIN (KAHRAMANMARAS) İlksel
2026.05.14,22:08:58,36.8788,27.7182,11.4,,1.5,,GOKOVA KORFEZI (EGE DENIZI) İlksel
2026.05.14,22:23:05,38.1835,37.6973,2.7,,2.1,,ATMALIKASANLI-ELBISTAN (KAHRAMANMARAS) İlksel
2026.05.14,22:44:56,38.3918,28.1323,2.1,,1.3,,BAHCECIK-SALIHLI (MANISA) İlksel
2026.05.14,22:53:10,39.1655,28.9972,17.0,,1.6,,KARACAOREN-SIMAV (KUTAHYA) İlksel
2026.05.14,22:53:55,38.1040,27.0995,5.3,,1.9,,CAMONU-MENDERES (IZMIR) İlksel
2026.05.14,23:22:39,39.1190,28.1975,12.2,,1.3,,KINIK-SINDIRGI (BALIKESIR) İlksel
2026.05.14,23:26:25,41.1680,23.2980,5.9,,1.0,,MAKEDONYA İlksel
2026.05.14,23:32:48,41.1612,23.3097,5.0,,1.2,,MAKEDONYA İlksel
2026.05.14,23:38:04,38.8210,37.3427,9.4,,1.9,,CAMLICA-GURUN (SIVAS) İlksel
2026.05.14,23:44:08,36.8988,29.1262,17.7,,1.5,,KARABAYIR-CAMELI (DENIZLI) İlksel
2026.05.15,00:00:52,40.5015,25.0210,7.9,,1.8,,EGE DENIZI İlksel
2026.05.15,01:20:07,37.2058,28.3248,11.1,,1.2,,MUGLA İlksel
2026.05.15,01:45:48,36.8822,29.0842,7.0,,1.8,,DARIYERI-DALAMAN (MUGLA) İlksel
2026.05.15,01:46:24,36.8852,29.1207,2.8,,1.3,,DARIYERI-DALAMAN (MUGLA) İlksel
2026.05.15,01:57:17,36.9493,27.6785,5.2,,1.2,,GOKOVA KORFEZI (EGE DENIZI) İlksel
2026.05.15,03:31:19,35.0840,25.1735,5.4,,2.7,,GIRIT ADASI (AKDENIZ) İlksel
2026.05.15,03:58:15,38.3973,27.9610,9.3,,1.6,,YENIKOY-SALIHLI (MANISA) İlksel
2026.05.15,04:03:55,37.1373,27.6268,3.7,,1.5,,KEMER-BODRUM (MUGLA) İlksel
2026.05.15,04:07:55,38.1853,36.7635,4.4,,1.4,,YAZIKOY-AFSIN (KAHRAMANMARAS) İlksel
2026.05.15,04:10:54,39.1735,28.2395,11.3,,1.4,,BAYRAKLI-SINDIRGI (BALIKESIR) İlksel
2026.05.15,04:12:13,38.2503,37.8223,7.0,,2.0,,DEDEYAZI-DOGANSEHIR (MALATYA) İlksel
2026.05.15,04:25:00,39.1743,28.2123,11.5,,1.5,,AKTAS-SINDIRGI (BALIKESIR) İlksel
2026.05.15,04:27:27,37.8523,36.2985,5.0,,1.9,,PAYAMBURNU-GOKSUN (KAHRAMANMARAS) İlksel
2026.05.15,04:33:45,39.1193,28.3488,10.8,,1.4,,YAYLABAYIR-SINDIRGI (BALIKESIR) İlksel
2026.05.15,04:42:18,36.9037,29.1163,5.0,,1.3,,KARABAYIR-CAMELI (DENIZLI) İlksel
2026.05.15,04:49:28,39.1773,28.2160,12.3,,1.6,,AKTAS-SINDIRGI (BALIKESIR) İlksel
2026.05.15,04:55:55,39.2270,28.0860,12.8,,1.4,,KOZLU-SINDIRGI (BALIKESIR) İlksel
2026.05.15,04:56:51,39.2083,28.1928,8.1,,1.3,,YAYLACIK-SINDIRGI (BALIKESIR) İlksel
2026.05.15,06:14:34,38.4152,37.4630,20.7,,1.3,,SUGUL-DARENDE (MALATYA) İlksel
2026.05.15,07:10:40,39.3178,25.9560,5.5,,2.9,,BADEMLI ACIKLARI-CANAKKALE (EGE DENIZI) İlksel
2026.05.15,07:11:19,39.3140,25.9527,6.9,,2.3,,BADEMLI ACIKLARI-CANAKKALE (EGE DENIZI) İlksel
2026.05.15,07:23:01,39.3173,25.9235,11.4,,1.6,,MIDILLI ADASI (EGE DENIZI) İlksel
2026.05.15,07:24:13,39.3117,25.9522,10.0,,1.6,,BADEMLI ACIKLARI-CANAKKALE (EGE DENIZI) İlksel
2026.05.15,07:35:33,40.3495,27.1587,9.3,,1.1,,KARAPURCEK-BIGA (CANAKKALE) İlksel
2026.05.15,07:42:50,40.1842,31.7752,14.3,,2.1,,HIRKATEPE-BEYPAZARI (ANKARA) İlksel
2026.05.15,08:21:04,38.2342,37.7378,8.2,,1.6,,HARUNUSAGI-AKCADAG (MALATYA) İlksel
2026.05.15,08:34:22,39.1175,28.0848,11.7,,1.7,,SAGRAKCI-AKHISAR (MANISA) İlksel
2026.05.15,08:42:48,39.1982,28.0795,10.2,,1.5,,KERTIL-SINDIRGI (BALIKESIR) İlksel
2026.05.15,08:43:54,39.1877,28.0935,11.5,,1.4,,KERTIL-SINDIRGI (BALIKESIR) İlksel
2026.05.15,09:15:46,39.5032,26.0882,14.0,,1.3,,BABAKALE-AYVACIK (CANAKKALE) İlksel
2026.05.15,09:53:25,36.9287,27.8062,10.4,,1.8,,GOKOVA KORFEZI (EGE DENIZI) İlksel
2026.05.15,10:02:25,36.8993,29.1297,6.2,,2.5,,KARABAYIR-CAMELI (DENIZLI) İlksel
2026.05.15,10:08:13,36.9147,29.1648,7.9,,1.9,,KARABAYIR-CAMELI (DENIZLI) İlksel
2026.05.15,10:20:27,39.4007,40.4263,6.9,,2.1,,GUZGULU-YEDISU (BINGOL) İlksel
2026.05.15,10:26:50,39.1297,28.3985,8.1,,1.1,,YAYLABAYIR-SINDIRGI (BALIKESIR) İlksel
2026.05.15,10:51:17,37.2253,28.0923,0.0,,1.7,,CUKUROZ-YATAGAN (MUGLA) İlksel
2026.05.15,11:17:08,39.3178,25.9540,10.9,,2.4,,BADEMLI ACIKLARI-CANAKKALE (EGE DENIZI) İlksel
2026.05.15,11:45:59,39.3133,25.9597,14.0,,1.4,,BADEMLI ACIKLARI-CANAKKALE (EGE DENIZI) İlksel
2026.05.15,11:58:40,39.3282,25.9702,6.1,,1.9,,BADEMLI ACIKLARI-CANAKKALE (EGE DENIZI) İlksel
2026.05.15,12:48:54,38.9050,37.8993,9.0,,1.5,,CULHALI-HEKIMHAN (MALATYA) İlksel
2026.05.15,12:49:44,36.2288,33.7828,0.0,,1.2,,AKDERE-SILIFKE (MERSIN) İlksel
2026.05.15,13:16:05,37.7115,35.6072,3.7,,1.3,,KAPIKAYA-KOZAN (ADANA) İlksel
2026.05.15,13:32:52,41.0305,43.1215,11.7,,2.1,,GOBELBAKAN-CILDIR (ARDAHAN) İlksel
2026.05.15,13:36:36,36.9045,27.7888,2.5,,2.2,,GOKOVA KORFEZI (EGE DENIZI) İlksel
2026.05.15,14:05:51,40.7162,27.5190,12.1,,1.6,,GUZELKOY ACIKLARI-TEKIRDAG (MARMARA DENIZI) İlksel
2026.05.15,15:21:24,38.3893,38.7347,21.8,,1.7,,SALKIMLI-KALE (MALATYA) İlksel
2026.05.15,16:51:36,37.9740,36.3000,1.6,,2.1,,KAZANDERE-GOKSUN (KAHRAMANMARAS) İlksel
2026.05.15,16:58:38,38.6645,39.8740,8.3,,2.1,,UCDEGIRMENLER-PALU (ELAZIG) İlksel
2026.05.15,17:08:15,38.9820,42.8823,5.0,,2.1,,ARMUTLU-PATNOS (AGRI) İlksel
2026.05.15,17:09:12,36.9137,29.1135,5.0,,1.8,,KARABAYIR-CAMELI (DENIZLI) İlksel
2026.05.15,17:10:55,39.2048,28.1347,8.4,,1.9,,ORMANICI-SINDIRGI (BALIKESIR) İlksel
2026.05.15,17:40:29,39.1282,28.1170,13.2,,1.3,,SINANDEDE-SINDIRGI (BALIKESIR) İlksel
2026.05.15,17:57:30,39.3800,27.8543,8.9,,1.7,,CAKILLIK-(BALIKESIR) İlksel
2026.05.15,18:06:11,40.3083,29.4578,12.4,,1.7,,YENIKOY-YENISEHIR (BURSA) İlksel
2026.05.15,18:58:18,37.1077,27.6700,22.0,,1.3,,MUMCULAR-BODRUM (MUGLA) İlksel
2026.05.15,19:11:18,34.8748,26.0465,5.0,,3.2,3.4,GIRIT ADASI ACIKLARI (AKDENIZ) İlksel
2026.05.15,19:16:10,35.0363,26.0710,6.6,,2.5,,GIRIT ADASI (AKDENIZ) İlksel
2026.05.15,19:25:41,37.4130,36.9300,9.1,,1.3,,KUYUMCULAR-TURKOGLU (KAHRAMANMARAS) İlksel
2026.05.15,19:48:31,37.8737,27.6595,5.0,,1.4,,OMERBEYLI-GERMENCIK (AYDIN) İlksel
2026.05.15,20:38:50,39.2910,28.0635,12.1,,1.3,,CAKILLI-SINDIRGI (BALIKESIR) İlksel
2026.05.15,21:27:52,41.0568,33.3442,8.2,,2.0,,GUZLUK-ARAC (KASTAMONU) İlksel
2026.05.15,21:44:55,38.2773,37.7852,15.9,,1.1,,CEVIRME-AKCADAG (MALATYA) İlksel
2026.05.15,22:18:15,38.3673,28.3982,7.9,,1.4,,SOGUKYURT-ALASEHIR (MANISA) İlksel
2026.05.15,22:54:06,40.6322,27.5617,13.0,,1.4,,MARMARA DENIZI İlksel
2026.05.15,22:59:57,37.7940,36.4003,7.0,,2.5,,GEBEN-ANDIRIN (KAHRAMANMARAS) İlksel
2026.05.15,23:00:37,40.6067,27.5683,14.6,,2.6,,MARMARA (BALIKESIR) İlksel
2026.05.15,23:01:18,39.0945,33.0780,1.6,,1.5,,KULU (KONYA) İlksel
2026.05.15,23:03:53,37.9715,36.4787,7.6,,1.6,,GOLPINAR-GOKSUN (KAHRAMANMARAS) İlksel
2026.05.15,23:04:41,40.6173,27.5410,13.5,,1.7,,MARMARA (BALIKESIR) İlksel
2026.05.15,23:34:21,39.5052,28.9228,20.4,,1.3,,KOSELER-SIMAV (KUTAHYA) İlksel
2026.05.15,23:46:22,40.3215,35.2452,10.9,,1.5,,CEVIZLI-ORTAKOY (CORUM) İlksel
2026.05.15,23:55:30,36.6063,25.7462,11.3,,2.9,,EGE DENIZI İlksel
2026.05.16,00:04:16,39.2227,27.9535,4.7,,1.5,,HACET-KIRKAGAC (MANISA) İlksel
2026.05.16,00:33:21,39.0917,33.0462,3.7,,2.5,,KULU (KONYA) İlksel
2026.05.16,00:34:30,38.2463,38.6148,5.1,,1.6,,KAVAKLIDERE-PUTURGE (MALATYA) İlksel
2026.05.16,00:45:06,39.6610,25.5238,5.0,,2.1,,EGE DENIZI İlksel
2026.05.16,00:52:44,39.1952,28.9050,12.2,,1.1,,ORENLI-SIMAV (KUTAHYA) İlksel
