Date,Time,Latitude,Longitude,Depth,MD,ML,Mw,Location
2026.05.01,00:57:46,39.4085,40.6403,4.7,,3.4,3.3,ELMALI-YEDISU (BINGOL) İlksel
2026.05.01,01:05:04,39.2142,28.1080,13.3,,1.2,,KERTIL-SINDIRGI (BALIKESIR) İlksel
2026.05.01,01:08:40,39.1110,28.2327,14.5,,2.3,,KINIK-SINDIRGI (BALIKESIR) İlksel
2026.05.01,02:02:17,38.2528,42.4323,3.9,,2.5,,SUTTASI-HIZAN (BITLIS) İlksel
2026.05.01,02:13:01,38.2725,38.1090,17.8,,1.0,,GORGU-YESILYURT (MALATYA) İlksel
2026.05.01,02:15:19,37.7657,26.4113,13.3,,1.6,,ONIKI ADALAR (EGE DENIZI) İlksel
2026.05.01,02:20:50,36.0580,29.0192,19.0,,1.5,,AKDENIZ İlksel
2026.05.01,02:41:11,38.3663,37.2837,13.7,,1.7,,GOKCEK-ELBISTAN (KAHRAMANMARAS) İlksel
2026.05.01,02:51:50,39.1405,25.8223,16.5,,2.4,,EGE DENIZI İlksel
2026.05.01,03:03:34,38.1042,38.4497,6.8,,1.2,,KARAGOL-CELIKHAN (ADIYAMAN) İlksel
2026.05.01,03:07:11,40.3792,24.0247,10.7,,1.2,,YUNANISTAN İlksel
2026.05.01,03:13:37,40.8758,31.6342,8.3,,1.5,,CUKUROREN-(BOLU) İlksel
2026.05.01,03:20:43,38.7788,26.3940,6.9,,2.1,,EGE DENIZI İlksel
2026.05.01,03:24:31,39.0798,28.2500,4.7,,0.9,,CICEKLI-GORDES (MANISA) İlksel
2026.05.01,03:39:16,39.1812,28.1805,13.8,,2.4,,AKTAS-SINDIRGI (BALIKESIR) İlksel
2026.05.01,03:53:43,39.1820,28.0440,12.9,,0.9,,SAHINKAYA-SINDIRGI (BALIKESIR) İlksel
2026.05.01,04:08:36,38.7652,26.4225,7.6,,1.8,,EGE DENIZI İlksel
2026.05.01,04:40:49,39.0823,28.3500,9.7,,1.6,,KOBAKLAR-GORDES (MANISA) İlksel
2026.05.01,05:03:24,39.1475,28.2718,12.4,,2.2,,YUREGIL-SINDIRGI (BALIKESIR) İlksel
2026.05.01,05:23:46,36.9500,29.0292,18.2,,0.8,,GURLEYIK-DALAMAN (MUGLA) İlksel
2026.05.01,05:26:31,38.3122,38.2818,12.4,,1.5,,BOSTANBASI-YESILYURT (MALATYA) İlksel
2026.05.01,05:38:47,37.9025,27.6482,1.1,,1.6,,KIZILCAGEDIK-GERMENCIK (AYDIN) İlksel
2026.05.01,05:49:44,39.2472,28.0857,8.7,,1.8,,KOZLU-SINDIRGI (BALIKESIR) İlksel
2026.05.01,05:59:13,39.1620,28.2960,4.9,,1.2,,ISIKLAR-SINDIRGI (BALIKESIR) İlksel
2026.05.01,06:14:11,37.9333,36.5492,5.0,,3.0,3.1,KURUCAOVA-(KAHRAMANMARAS) İlksel
2026.05.01,06:28:00,36.6442,26.8557,111.1,,2.4,,KOS ADASI (EGE DENIZI) İlksel
2026.05.01,06:41:19,38.3038,37.5258,16.0,,1.6,,YAPILIPINAR-ELBISTAN (KAHRAMANMARAS) İlksel
2026.05.01,06:42:58,35.8542,32.7022,14.9,,1.5,,ANAMUR ACIKLARI-MERSIN (AKDENIZ) İlksel
2026.05.01,06:52:37,40.0333,28.6455,3.2,,1.6,,AGACLI-MUSTAFAKEMALPASA (BURSA) İlksel
2026.05.01,07:20:47,36.8953,29.0843,1.8,,1.9,,GURLEYIK-DALAMAN (MUGLA) İlksel
2026.05.01,07:40:21,37.3825,26.7765,9.5,,2.0,,ONIKI ADALAR (EGE DENIZI) İlksel
2026.05.01,08:20:08,37.0343,24.1973,11.8,,2.5,,YUNANISTAN İlksel
2026.05.01,09:11:57,38.8622,43.4808,9.0,,2.8,,KARAAGAC-(VAN) İlksel
2026.05.01,10:01:24,36.6845,25.7028,17.5,,2.6,,EGE DENIZI İlksel
2026.05.01,10:36:52,39.2015,28.9270,12.9,,1.9,,HAMZABEY-SIMAV (KUTAHYA) İlksel
2026.05.01,10:38:29,36.6892,25.7643,9.4,,2.7,,EGE DENIZI İlksel
2026.05.01,10:55:10,37.9532,36.1102,19.1,,1.7,,SAIMBEYLI (ADANA) İlksel
2026.05.01,11:04:25,38.7435,26.5652,7.5,,1.6,,EGE DENIZI İlksel
2026.05.01,11:06:47,36.6658,25.6493,9.5,,2.1,,EGE DENIZI İlksel
2026.05.01,12:08:56,39.1703,28.1320,5.4,,1.5,,SINANDEDE-SINDIRGI (BALIKESIR) İlksel
2026.05.01,12:19:36,39.2340,28.0932,9.5,,1.7,,KOZLU-SINDIRGI (BALIKESIR) İlksel
2026.05.01,12:35:42,39.4227,28.4677,11.8,,1.3,,YUKARIGOCEK-BIGADIC (BALIKESIR) İlksel
2026.05.01,12:40:49,35.7023,26.5580,12.7,,2.4,,EGE DENIZI İlksel
2026.05.01,12:40:55,36.9063,29.1295,20.1,,1.7,,KARABAYIR-CAMELI (DENIZLI) İlksel
2026.05.01,12:46:03,35.0318,26.2168,19.7,,2.2,,GIRIT ADASI (AKDENIZ) İlksel
2026.05.01,12:59:13,39.2295,28.0340,20.9,,1.3,,ALAKIR-SINDIRGI (BALIKESIR) İlksel
2026.05.01,13:26:48,36.3883,33.4440,2.8,,1.2,,CUKURASMA-GULNAR (MERSIN) İlksel
2026.05.01,13:46:10,37.9863,27.1125,5.4,,2.2,,KUSADASI KORFEZI (EGE DENIZI) İlksel
2026.05.01,14:07:13,37.5615,29.6967,5.0,,2.4,,ISIKLAR-YESILOVA (BURDUR) İlksel
2026.05.01,14:24:38,38.1782,37.3012,6.4,,2.0,,AKBAYIR-ELBISTAN (KAHRAMANMARAS) İlksel
2026.05.01,14:33:47,39.6490,33.3090,13.9,,1.1,,SARIKAYALAR-BAHSILI (KIRIKKALE) İlksel
2026.05.01,14:50:24,39.9555,39.6163,21.7,,2.0,,ESKIYOL-KELKIT (GUMUSHANE) İlksel
2026.05.01,15:03:31,40.5593,27.3735,14.9,,1.1,,MUREFTE ACIKLARI-TEKIRDAG (MARMARA DENIZI) İlksel
2026.05.01,15:21:21,39.1422,28.3580,9.6,,1.9,,YAYLABAYIR-SINDIRGI (BALIKESIR) İlksel
2026.05.01,15:53:01,37.8247,35.3587,5.0,,2.2,,ULUPINAR-YAHYALI (KAYSERI) İlksel
2026.05.01,16:21:25,37.8923,36.4775,3.2,,1.7,,DEGIRMENDERE-GOKSUN (KAHRAMANMARAS) İlksel
2026.05.01,16:38:58,38.4930,40.1885,6.5,,2.0,,YOGUNBILEK-ARICAK (ELAZIG) İlksel
2026.05.01,17:27:38,40.6977,28.6607,5.0,,1.7,,MARMARA DENIZI İlksel
2026.05.01,18:03:41,37.9307,38.3837,12.6,,1.8,,KOZAN-(ADIYAMAN) İlksel
2026.05.01,18:52:26,39.4917,38.4462,24.4,,1.7,,DOSTAL-ILIC (ERZINCAN) İlksel
2026.05.01,19:10:49,39.2180,28.0873,5.4,,2.1,,KERTIL-SINDIRGI (BALIKESIR) İlksel
2026.05.01,19:28:07,39.1298,28.2813,14.0,,1.4,,YUREGIL-SINDIRGI (BALIKESIR) REVIZE01 (2026.05.01 19:28:09)
2026.05.01,19:48:01,38.1140,27.2185,5.8,,1.8,,KARAKUYU-MENDERES (IZMIR) İlksel
2026.05.01,19:56:13,36.3445,28.6770,10.3,,2.1,,AKDENIZ İlksel
2026.05.01,20:04:16,37.3715,26.7328,7.4,,1.8,,ONIKI ADALAR (EGE DENIZI) İlksel
2026.05.01,21:29:37,37.9627,38.1773,13.9,,1.7,,SARIKAYA-(ADIYAMAN) İlksel
2026.05.01,21:33:41,36.0638,30.9573,50.1,,2.4,,AKDENIZ İlksel
2026.05.01,21:49:39,38.2198,37.7587,17.7,,1.1,,CAVUSLU-DOGANSEHIR (MALATYA) İlksel
2026.05.01,22:24:40,38.4230,37.2298,19.7,,1.9,,SARIYATAK-ELBISTAN (KAHRAMANMARAS) İlksel
2026.05.01,22:34:31,39.2288,28.2112,15.9,,1.4,,PURSUNLER-SINDIRGI (BALIKESIR) İlksel
2026.05.01,22:52:41,39.2207,41.6535,13.5,,1.8,,ELMADALI-HINIS (ERZURUM) İlksel
2026.05.01,22:54:22,36.9812,30.6852,1.3,,1.6,,DUACI-KEPEZ (ANTALYA) İlksel
2026.05.01,23:03:17,37.8208,36.5112,17.8,,2.4,,KUMARLI-(KAHRAMANMARAS) İlksel
2026.05.01,23:29:38,40.2940,24.1192,7.4,,1.9,,YUNANISTAN İlksel
2026.05.01,23:41:27,39.1812,28.1192,5.2,,1.3,,ORMANICI-SINDIRGI (BALIKESIR) İlksel
2026.05.01,23:49:53,39.0450,28.2905,4.4,,1.3,,MALAZ-GORDES (MANISA) İlksel
2026.05.02,00:07:46,36.8305,29.1522,18.2,,1.2,,ARPACIK-FETHIYE (MUGLA) İlksel
2026.05.02,01:26:55,38.0690,36.5158,5.0,,2.0,,ORTATEPE-GOKSUN (KAHRAMANMARAS) İlksel
2026.05.02,01:41:43,38.1167,38.4522,7.4,,1.6,,KARAGOL-CELIKHAN (ADIYAMAN) İlksel
2026.05.02,01:45:20,39.3397,40.6227,1.9,,1.6,,ELMALI-YEDISU (BINGOL) İlksel
2026.05.02,02:04:28,37.7137,27.1665,2.5,,1.7,,GUZELCAMLI-KUSADASI (AYDIN) İlksel
2026.05.02,03:13:23,36.0717,30.1877,10.8,,1.6,,FINIKE ACIKLARI-ANTALYA (AKDENIZ) İlksel
2026.05.02,03:23:22,36.9037,29.1027,5.1,,1.7,,KARABAYIR-CAMELI (DENIZLI) İlksel
2026.05.02,03:24:26,36.9072,29.1093,5.0,,1.7,,KARABAYIR-CAMELI (DENIZLI) İlksel
2026.05.02,03:33:54,35.9510,30.2682,7.5,,2.6,,AKDENIZ İlksel
2026.05.02,03:37:44,37.1638,28.7305,9.2,,1.8,,TURGUT-ULA (MUGLA) İlksel
2026.05.02,03:44:49,37.8425,36.4387,8.8,,2.1,,GEBEN-ANDIRIN (KAHRAMANMARAS) İlksel
2026.05.02,04:30:31,38.0818,37.6210,5.0,,1.7,,TAPKIRANKALE-ELBISTAN (KAHRAMANMARAS) İlksel
2026.05.02,05:08:12,39.2070,28.9852,11.1,,1.4,,EGIRLER-SIMAV (KUTAHYA) İlksel
2026.05.02,06:43:31,41.2837,43.9255,5.4,,2.7,,GURCISTAN İlksel
2026.05.02,06:50:10,36.9067,29.0887,5.0,,1.4,,GURLEYIK-DALAMAN (MUGLA) İlksel
2026.05.02,07:52:46,39.6058,25.9982,5.4,,2.2,,TAVAKLI ACIKLARI-CANAKKALE (EGE DENIZI) İlksel
2026.05.02,07:59:07,34.8535,26.1245,7.7,,2.4,,GIRIT ADASI ACIKLARI (AKDENIZ) İlksel
2026.05.02,08:37:43,34.8367,26.2187,7.6,,2.6,,GIRIT ADASI ACIKLARI (AKDENIZ) İlksel
2026.05.02,08:48:14,38.1168,32.7347,5.5,,1.2,,EGRIBAYAT-SELCUKLU (KONYA) İlksel
2026.05.02,08:53:21,37.1405,28.5375,6.7,,3.1,3.1,GOLCUK-ULA (MUGLA) İlksel
2026.05.02,09:25:24,40.1968,25.1653,10.3,,3.0,3.0,EGE DENIZI İlksel
2026.05.02,09:51:20,37.1292,28.5095,5.0,,1.7,,ARMUTCUK-ULA (MUGLA) İlksel
2026.05.02,09:55:25,40.2023,31.8097,7.6,,1.9,,SARIAGIL-BEYPAZARI (ANKARA) İlksel
2026.05.02,10:18:05,39.0457,28.9785,7.6,,1.4,,SAMAT-SIMAV (KUTAHYA) İlksel
2026.05.02,10:19:07,34.9588,26.1850,9.0,,2.5,,GIRIT ADASI ACIKLARI (AKDENIZ) İlksel
2026.05.02,10:29:28,38.0325,28.9717,5.7,,1.6,,MAHMUTLU-BULDAN (DENIZLI) İlksel
2026.05.02,10:55:53,37.1620,28.6712,10.9,,2.3,,TURGUT-ULA (MUGLA) İlksel
2026.05.02,11:00:19,34.9392,26.1785,8.5,,3.6,,GIRIT ADASI ACIKLARI (AKDENIZ) İlksel
2026.05.02,11:03:14,39.5927,33.5953,12.7,,1.3,,CERITKALE-KESKIN (KIRIKKALE) İlksel
2026.05.02,11:30:13,35.8998,28.1197,9.2,,3.6,3.6,AKDENIZ İlksel
2026.05.02,11:32:25,39.1817,28.1892,13.2,,2.3,,AKTAS-SINDIRGI (BALIKESIR) İlksel
2026.05.02,12:35:10,39.1335,29.0253,11.8,,1.1,,KAPIKAYA-SIMAV (KUTAHYA) İlksel
2026.05.02,12:46:50,36.2495,33.7535,9.8,,1.3,,AKDERE-SILIFKE (MERSIN) İlksel
2026.05.02,13:15:18,41.1738,34.9647,5.0,,3.7,3.7,DARICAY-VEZIRKOPRU (SAMSUN) İlksel
2026.05.02,13:29:48,41.1797,34.9637,5.0,,2.8,,DARICAY-VEZIRKOPRU (SAMSUN) İlksel
2026.05.02,13:34:27,38.5102,39.5022,5.8,,1.8,,PLAJKOY-MADEN (ELAZIG) İlksel
2026.05.02,14:14:47,36.8940,29.1097,5.0,,2.3,,KARABAYIR-CAMELI (DENIZLI) İlksel
2026.05.02,14:34:26,39.0753,25.7297,7.8,,2.6,,EGE DENIZI İlksel
2026.05.02,15:26:28,35.7935,25.6988,8.5,,2.5,,EGE DENIZI İlksel
2026.05.02,15:30:20,35.6193,25.7140,10.9,,2.7,,GIRIT ADASI (AKDENIZ) İlksel
2026.05.02,18:59:15,40.4327,28.9175,5.8,,1.5,,GEMLIK KORFEZI (MARMARA DENIZI) İlksel
2026.05.02,19:08:49,39.0890,33.2293,6.7,,1.9,,AKIN-SEREFLIKOCHISAR (ANKARA) İlksel
2026.05.02,20:28:26,39.1680,28.2340,10.0,,1.8,,BAYRAKLI-SINDIRGI (BALIKESIR) İlksel
2026.05.02,21:10:39,38.0373,36.6727,11.4,,2.0,,AHMETCIK-GOKSUN (KAHRAMANMARAS) İlksel
2026.05.02,21:33:43,39.2280,28.0835,10.9,,1.3,,KOZLU-SINDIRGI (BALIKESIR) İlksel
2026.05.02,22:47:48,40.8093,31.6797,12.4,,1.4,,GOLCUK-(BOLU) İlksel
2026.05.02,22:59:57,37.1563,28.5097,4.0,,1.7,,YARAS-(MUGLA) İlksel
2026.05.02,23:05:04,39.5158,37.5437,2.7,,3.2,3.2,IGDELI-ZARA (SIVAS) İlksel
2026.05.02,23:29:31,37.8447,37.7185,10.4,,1.4,,AKTOPRAK-GOLBASI (ADIYAMAN) İlksel
2026.05.02,23:45:29,38.5725,42.4687,19.1,,1.7,,SARIKUM-TATVAN (BITLIS) İlksel
2026.05.03,00:07:05,38.2840,38.2280,10.9,,1.6,,YESILYURT (MALATYA) İlksel
2026.05.03,00:15:21,39.0772,28.2410,15.4,,0.9,,CICEKLI-GORDES (MANISA) İlksel
2026.05.03,00:16:46,41.6857,43.0327,21.5,,1.6,,TURKGOZU-POSOF (ARDAHAN) İlksel
2026.05.03,00:34:05,38.2323,37.7617,19.9,,1.1,,CEVIRME-AKCADAG (MALATYA) İlksel
2026.05.03,00:36:20,39.2245,29.0462,5.2,,1.8,,KATRANDAGI-EMET (KUTAHYA) İlksel
2026.05.03,00:38:37,39.2408,29.0237,6.3,,1.7,,KATRANDAGI-EMET (KUTAHYA) İlksel
2026.05.03,00:38:38,36.6590,25.6750,4.7,,2.3,,EGE DENIZI İlksel
2026.05.03,00:54:44,39.1945,28.1822,13.3,,1.6,,YAYLACIK-SINDIRGI (BALIKESIR) İlksel
2026.05.03,01:11:47,39.2392,29.0360,6.1,,1.6,,KATRANDAGI-EMET (KUTAHYA) İlksel
2026.05.03,01:29:28,40.2380,34.8652,4.0,,1.5,,KUCUKCAMILI-ALACA (CORUM) İlksel
2026.05.03,01:39:43,39.2498,29.0065,5.0,,1.8,,YEMISLI-SIMAV (KUTAHYA) İlksel
2026.05.03,01:43:23,39.1198,27.7918,8.1,,1.9,,KARAKURT-KIRKAGAC (MANISA) İlksel
2026.05.03,01:44:18,40.9043,31.6252,5.3,,1.8,,YOGUNPELIT-YIGILCA (DUZCE) İlksel
2026.05.03,01:54:01,38.8377,38.2675,18.8,,1.0,,YENIKOY-ARGUVAN (MALATYA) İlksel
2026.05.03,01:54:59,38.8858,38.1575,9.4,,1.3,,KURUTTAS-ARGUVAN (MALATYA) İlksel
2026.05.03,02:16:14,38.9090,30.2393,4.3,,1.8,,OLUCAK-(AFYONKARAHISAR) İlksel
2026.05.03,02:56:16,39.2202,28.1753,14.1,,1.6,,YAYLACIK-SINDIRGI (BALIKESIR) İlksel
2026.05.03,02:56:46,39.8925,41.7878,13.9,,1.5,,UZUNARK-PASINLER (ERZURUM) İlksel
2026.05.03,03:08:28,39.6505,25.9393,5.5,,1.4,,TAVAKLI ACIKLARI-CANAKKALE (EGE DENIZI) İlksel
2026.05.03,03:12:19,34.9250,25.9317,5.1,,2.7,,GIRIT ADASI ACIKLARI (AKDENIZ) İlksel
2026.05.03,03:14:04,36.8902,29.0983,4.9,,2.0,,DARIYERI-DALAMAN (MUGLA) İlksel
2026.05.03,03:26:15,39.1178,27.5730,5.0,,1.3,,DEREKOY-SOMA (MANISA) İlksel
2026.05.03,03:38:43,36.9583,28.5668,3.3,,2.0,,DOGUSBELEN-KOYCEGIZ (MUGLA) İlksel
2026.05.03,03:41:41,35.1170,27.1927,5.9,,2.9,,AKDENIZ İlksel
2026.05.03,04:06:05,38.3735,37.4315,5.1,,1.4,,YALINTAS-ELBISTAN (KAHRAMANMARAS) İlksel
2026.05.03,04:10:32,39.1793,28.2108,15.3,,3.1,,AKTAS-SINDIRGI (BALIKESIR) İlksel
2026.05.03,04:14:11,38.2840,38.2895,4.5,,1.9,,GUNDUZBEY-YESILYURT (MALATYA) İlksel
2026.05.03,04:31:50,39.1793,28.1272,13.4,,1.7,,ORMANICI-SINDIRGI (BALIKESIR) İlksel
2026.05.03,04:43:43,38.2447,38.1667,9.1,,1.5,,SEYITUSAGI-YESILYURT (MALATYA) İlksel
2026.05.03,04:45:28,36.3667,34.8150,21.2,,2.0,,AKDENIZ İlksel
2026.05.03,04:59:49,38.0718,28.9740,10.6,,1.9,,YENICEKENT-BULDAN (DENIZLI) İlksel
2026.05.03,05:04:18,39.2418,28.9988,7.0,,1.7,,YEMISLI-SIMAV (KUTAHYA) İlksel
2026.05.03,05:14:35,39.1282,29.9427,5.5,,1.8,,GOKCELER-ALTINTAS (KUTAHYA) İlksel
2026.05.03,05:17:03,36.8890,29.1297,1.4,,1.4,,KARABAYIR-CAMELI (DENIZLI) İlksel
2026.05.03,05:54:21,39.3013,25.6848,8.0,,1.6,,EGE DENIZI İlksel
2026.05.03,06:05:37,38.0408,28.9507,14.9,,1.3,,YENICEKENT-BULDAN (DENIZLI) İlksel
2026.05.03,06:20:00,38.8285,26.8458,3.4,,2.1,,CANDARLI KORFEZI (EGE DENIZI) İlksel
2026.05.03,06:21:37,37.9837,36.5065,5.0,,2.1,,KIRECKOY-GOKSUN (KAHRAMANMARAS) İlksel
2026.05.03,06:36:08,39.2510,29.0535,8.1,,1.7,,KATRANDAGI-EMET (KUTAHYA) İlksel
2026.05.03,07:00:06,37.9395,36.2982,9.0,,1.7,,HACIKODAL-GOKSUN (KAHRAMANMARAS) İlksel
2026.05.03,07:10:17,34.9417,25.9997,5.0,,2.6,,GIRIT ADASI ACIKLARI (AKDENIZ) İlksel
2026.05.03,07:20:21,39.2802,28.0810,18.8,,2.3,,KUCUKBUKU-SINDIRGI (BALIKESIR) İlksel
2026.05.03,07:25:57,34.7250,23.9387,69.0,,2.9,,GIRIT ADASI (AKDENIZ) İlksel
2026.05.03,07:29:18,40.1605,31.6983,1.5,,2.1,,ULUKOY-NALLIHAN (ANKARA) İlksel
2026.05.03,07:32:04,39.3582,38.5362,5.0,,3.3,3.3,CALDERE-KEMALIYE (ERZINCAN) İlksel
2026.05.03,07:53:52,39.2610,28.1113,13.2,,2.1,,KARAGUR-SINDIRGI (BALIKESIR) İlksel
2026.05.03,08:01:20,36.8755,29.1215,11.2,,2.0,,DARIYERI-DALAMAN (MUGLA) İlksel
2026.05.03,09:00:15,34.8880,25.9727,7.3,,2.4,,GIRIT ADASI ACIKLARI (AKDENIZ) İlksel
2026.05.03,09:42:11,39.3620,38.4858,5.0,,2.2,,SALIHLI-KEMALIYE (ERZINCAN) İlksel
2026.05.03,10:08:27,39.1697,28.1943,17.2,,1.4,,AKTAS-SINDIRGI (BALIKESIR) İlksel
2026.05.03,10:14:34,38.1103,38.3915,15.9,,1.2,,KARAGOL-CELIKHAN (ADIYAMAN) İlksel
2026.05.03,10:53:32,38.2708,37.7730,6.7,,2.1,,CEVIRME-AKCADAG (MALATYA) İlksel
2026.05.03,10:57:42,38.3337,37.7862,4.9,,1.5,,KAHYALI-AKCADAG (MALATYA) İlksel
2026.05.03,10:59:50,36.1583,36.0308,16.6,,2.5,,FIDANLI-SAMANDAG (HATAY) İlksel
2026.05.03,11:34:16,38.2862,37.7660,7.3,,2.0,,CEVIRME-AKCADAG (MALATYA) İlksel
2026.05.03,11:35:32,37.9223,36.8055,12.0,,1.7,,HACIIBRAHIMUSAGI-(KAHRAMANMARAS) İlksel
2026.05.03,11:47:17,38.5808,28.0992,7.2,,1.4,,PAZARKOY-SALIHLI (MANISA) İlksel
2026.05.03,11:50:43,38.2975,37.6973,6.7,,1.5,,HARUNUSAGI-AKCADAG (MALATYA) İlksel
2026.05.03,11:59:07,37.8527,36.1660,6.9,,2.1,,DEGIRMENCIUSAGI-SAIMBEYLI (ADANA) İlksel
2026.05.03,12:07:13,40.6253,33.0148,16.8,,1.6,,YUVA-ORTA (CANKIRI) İlksel
2026.05.03,12:18:05,38.8660,38.0025,5.0,,1.1,,CANAKPINAR-HEKIMHAN (MALATYA) İlksel
2026.05.03,12:20:34,39.2342,28.9920,6.9,,2.0,,YEMISLI-SIMAV (KUTAHYA) İlksel
2026.05.03,13:10:55,38.2867,37.7785,5.3,,2.6,,DUTLU-AKCADAG (MALATYA) İlksel
2026.05.03,13:11:09,38.2827,37.7353,5.2,,2.6,,CEVIRME-AKCADAG (MALATYA) İlksel
2026.05.03,13:15:37,38.2588,37.7517,11.0,,1.9,,CEVIRME-AKCADAG (MALATYA) İlksel
2026.05.03,13:19:19,38.2798,37.5107,2.2,,1.6,,YALAKKOY-ELBISTAN (KAHRAMANMARAS) İlksel
2026.05.03,13:21:10,38.2743,37.7435,7.4,,2.0,,CEVIRME-AKCADAG (MALATYA) İlksel
2026.05.03,13:22:39,39.2627,28.0193,14.3,,1.4,,KIZILGUR-SINDIRGI (BALIKESIR) İlksel
2026.05.03,13:53:44,38.2845,37.7698,7.5,,1.9,,CEVIRME-AKCADAG (MALATYA) İlksel
2026.05.03,13:57:38,38.3147,37.7735,7.9,,2.0,,DUTLU-AKCADAG (MALATYA) İlksel
2026.05.03,14:14:48,38.3067,37.7727,15.4,,1.8,,DUTLU-AKCADAG (MALATYA) İlksel
2026.05.03,14:48:35,38.3125,37.7760,3.7,,2.0,,DUTLU-AKCADAG (MALATYA) İlksel
2026.05.03,14:51:42,38.2633,37.7260,8.4,,1.6,,CEVIRME-AKCADAG (MALATYA) İlksel
2026.05.03,14:59:56,38.2955,37.7405,3.8,,1.7,,CEVIRME-AKCADAG (MALATYA) İlksel
2026.05.03,16:32:15,39.1243,28.3395,5.4,,1.5,,YUREGIL-SINDIRGI (BALIKESIR) İlksel
2026.05.03,19:22:31,39.1597,28.1198,9.4,,1.7,,SINANDEDE-SINDIRGI (BALIKESIR) İlksel
2026.05.03,19:31:01,38.2907,37.7690,10.8,,1.4,,CEVIRME-AKCADAG (MALATYA) İlksel
2026.05.03,19:37:31,35.9362,29.8232,13.5,,3.1,3.2,AKDENIZ İlksel
2026.05.03,20:00:53,39.1117,28.3278,11.2,,1.5,,YUREGIL-SINDIRGI (BALIKESIR) İlksel
2026.05.03,20:05:05,39.1618,28.0595,5.2,,1.6,,SOGUTLU-AKHISAR (MANISA) İlksel
2026.05.03,20:25:38,39.2285,38.0887,5.0,,1.9,,OLUKMAN-DIVRIGI (SIVAS) İlksel
2026.05.03,20:42:21,40.3272,27.1055,20.3,,1.3,,KARACAALI-BIGA (CANAKKALE) İlksel
2026.05.03,21:03:01,40.6345,36.8138,5.0,,2.1,,BUZKOY-NIKSAR (TOKAT) İlksel
2026.05.03,22:05:31,38.2333,38.1400,13.1,,1.3,,GORGU-YESILYURT (MALATYA) İlksel
2026.05.03,23:07:40,40.2323,31.7350,7.6,,2.2,,HIRKATEPE-BEYPAZARI (ANKARA) İlksel
2026.05.03,23:25:47,40.2688,31.6980,14.6,,2.3,,DUDAS-BEYPAZARI (ANKARA) İlksel
2026.05.03,23:45:02,40.2288,24.1007,6.8,,2.2,,YUNANISTAN İlksel
2026.05.03,23:57:39,37.4737,37.1837,4.6,,3.0,3.0,DOGANLIKARAHASAN-PAZARCIK (KAHRAMANMARAS) İlksel
2026.05.04,00:21:39,39.1605,28.9252,16.7,,1.5,,GUNEY-SIMAV (KUTAHYA) İlksel
2026.05.04,00:34:03,38.4612,37.2937,8.0,,1.7,,AKARCA-ELBISTAN (KAHRAMANMARAS) İlksel
2026.05.04,00:35:16,38.8092,37.4663,8.0,,1.4,,BAGLICAY-GURUN (SIVAS) İlksel
2026.05.04,00:35:54,34.8507,25.0322,22.1,,2.5,,GIRIT ADASI ACIKLARI (AKDENIZ) İlksel
2026.05.04,02:48:31,36.8900,29.1093,8.2,,1.5,,DARIYERI-DALAMAN (MUGLA) İlksel
2026.05.04,02:50:54,38.2842,38.2735,7.8,,1.5,,GUNDUZBEY-YESILYURT (MALATYA) İlksel
2026.05.04,03:48:19,36.9868,29.3383,5.5,,1.2,,SOFULAR-CAMELI (DENIZLI) İlksel
2026.05.04,03:52:12,40.8065,31.9735,13.2,,1.6,,OREN-YENICAGA (BOLU) İlksel
2026.05.04,03:57:40,38.2647,37.7642,11.7,,1.5,,CEVIRME-AKCADAG (MALATYA) İlksel
2026.05.04,04:27:13,39.1687,28.2567,8.0,,1.5,,BAYRAKLI-SINDIRGI (BALIKESIR) İlksel
2026.05.04,04:46:45,39.1855,28.2883,11.4,,1.4,,ISIKLAR-SINDIRGI (BALIKESIR) İlksel
2026.05.04,04:52:25,38.8157,30.4142,5.1,,1.6,,DEMIRCEVRE-(AFYONKARAHISAR) İlksel
2026.05.04,05:04:47,39.1877,28.2482,8.2,,1.8,,ILICA-SINDIRGI (BALIKESIR) İlksel
2026.05.04,05:36:34,38.6860,37.3263,13.4,,1.4,,KARAHISAR-GURUN (SIVAS) İlksel
2026.05.04,06:19:37,36.9115,29.1082,11.0,,1.7,,KARABAYIR-CAMELI (DENIZLI) İlksel
2026.05.04,06:29:05,38.8398,43.5703,5.0,,2.6,,AKCIFT-(VAN) İlksel
2026.05.04,07:22:32,40.3657,28.9328,8.2,,2.1,,ALTINTAS-MUDANYA (BURSA) İlksel
2026.05.04,07:36:55,40.0585,34.6493,9.7,,1.9,,EMIRLER-BOGAZKALE (CORUM) İlksel
2026.05.04,08:17:39,38.2912,27.4832,16.8,,1.3,,CINARDIBI-BAYINDIR (IZMIR) İlksel
2026.05.04,08:54:17,37.2540,36.3320,11.0,,1.6,,ATALAN-DUZICI (OSMANIYE) İlksel
2026.05.04,09:17:23,35.7870,27.1142,9.7,,2.2,,EGE DENIZI İlksel
2026.05.04,11:21:54,38.7237,27.9750,11.9,,1.3,,BEYLER-GOLMARMARA (MANISA) İlksel
2026.05.04,11:59:15,36.8905,29.0977,5.0,,2.1,,DARIYERI-DALAMAN (MUGLA) İlksel
2026.05.04,12:06:24,37.4442,43.2495,28.8,,2.2,,OYMAKAYA-BEYTUSSEBAP (SIRNAK) İlksel
2026.05.04,12:27:24,37.8322,29.4588,12.0,,1.6,,ALIKURT-BOZKURT (DENIZLI) İlksel
2026.05.04,12:29:43,39.1760,28.2160,11.1,,1.8,,AKTAS-SINDIRGI (BALIKESIR) İlksel
2026.05.04,12:54:25,38.1542,36.4435,9.2,,2.3,,MURSEL-GOKSUN (KAHRAMANMARAS) İlksel
2026.05.04,12:59:43,37.9690,36.6467,11.7,,1.8,,ELMALI-GOKSUN (KAHRAMANMARAS) İlksel
2026.05.04,13:07:15,38.2668,37.7673,10.0,,2.2,,CEVIRME-AKCADAG (MALATYA) İlksel
2026.05.04,13:14:18,36.8473,29.1392,4.6,,1.9,,ARPACIK-FETHIYE (MUGLA) İlksel
2026.05.04,13:22:28,38.0205,36.4240,7.5,,2.0,,ACIELMA-GOKSUN (KAHRAMANMARAS) İlksel
2026.05.04,13:49:18,38.0960,31.7267,6.7,,1.7,,AYASLAR-DOGANHISAR (KONYA) İlksel
2026.05.04,13:53:06,37.7418,35.8063,5.0,,2.1,,KOCYAZI-FEKE (ADANA) İlksel
2026.05.04,14:03:27,35.6793,25.4257,3.7,,2.2,,GIRIT ADASI (AKDENIZ) İlksel
2026.05.04,14:16:52,37.9603,36.1242,10.5,,1.5,,SAIMBEYLI (ADANA) İlksel
2026.05.04,14:25:37,34.8163,26.0748,6.7,,2.9,,GIRIT ADASI ACIKLARI (AKDENIZ) REVIZE02 (2026.05.04 14:25:37)
2026.05.04,14:27:10,39.1947,28.0487,7.3,,1.7,,SAHINKAYA-SINDIRGI (BALIKESIR) İlksel
2026.05.04,14:51:03,34.9410,26.0570,7.7,,2.7,,GIRIT ADASI ACIKLARI (AKDENIZ) İlksel
2026.05.04,14:58:24,39.1875,28.2073,11.1,,1.4,,AKTAS-SINDIRGI (BALIKESIR) İlksel
2026.05.04,15:35:25,38.3383,27.8602,15.9,,1.4,,KARAKOY-TURGUTLU (MANISA) REVIZE01 (2026.05.04 15:35:26)
2026.05.04,15:58:03,38.2998,27.8805,3.8,,2.2,,SUCIKTI-ODEMIS (IZMIR) İlksel
2026.05.04,15:58:38,38.2807,27.9003,5.4,,1.9,,TOSUNLAR-ODEMIS (IZMIR) İlksel
2026.05.04,16:06:28,35.7150,25.4347,7.3,,2.4,,EGE DENIZI İlksel
2026.05.04,16:29:44,39.4173,25.8767,11.2,,1.9,,BADEMLI ACIKLARI-CANAKKALE (EGE DENIZI) İlksel
2026.05.04,17:04:54,38.2402,37.7533,16.0,,1.3,,CEVIRME-AKCADAG (MALATYA) İlksel
2026.05.04,17:25:08,37.2287,27.3140,25.2,,1.7,,GULLUK KORFEZI (EGE DENIZI) İlksel
2026.05.04,17:58:13,37.9278,28.7812,5.4,,2.4,,KABAAGAC-SARAYKOY (DENIZLI) İlksel
2026.05.04,18:09:34,39.2698,28.0800,14.9,,1.7,,KUCUKBUKU-SINDIRGI (BALIKESIR) İlksel
2026.05.04,18:37:47,37.9073,36.5333,16.7,,1.7,,DEGIRMENDERE-GOKSUN (KAHRAMANMARAS) İlksel
2026.05.04,18:46:38,39.2758,28.1572,13.4,,1.5,,KARAAGAC-SINDIRGI (BALIKESIR) İlksel
2026.05.04,19:09:58,35.3225,27.3338,18.2,,2.8,,AKDENIZ İlksel
2026.05.04,19:16:39,38.3070,38.8215,14.0,,1.6,,BOLUKKAYA-PUTURGE (MALATYA) İlksel
2026.05.04,19:19:21,37.6728,36.4407,11.9,,1.6,,KALEBOYNU-ANDIRIN (KAHRAMANMARAS) İlksel
2026.05.04,19:29:26,38.4528,38.0063,9.8,,1.8,,KARAMAGARA-AKCADAG (MALATYA) İlksel
2026.05.04,19:57:55,38.0013,36.5768,8.4,,1.7,,KARAAHMET-GOKSUN (KAHRAMANMARAS) İlksel
2026.05.04,20:07:48,39.0818,39.0125,16.2,,1.8,,TORATLI-CEMISGEZEK (TUNCELI) İlksel
2026.05.04,20:15:59,38.1458,36.7005,27.9,,1.2,,KARAOMER-GOKSUN (KAHRAMANMARAS) İlksel
2026.05.04,20:35:10,39.2338,29.0167,7.3,,2.1,,YEMISLI-SIMAV (KUTAHYA) İlksel
2026.05.04,20:40:24,38.2518,37.7205,12.1,,1.5,,HARUNUSAGI-AKCADAG (MALATYA) İlksel
2026.05.04,20:58:52,38.2420,37.7185,12.5,,1.5,,HARUNUSAGI-AKCADAG (MALATYA) İlksel
2026.05.04,21:07:33,38.2072,37.7567,9.2,,1.2,,CAVUSLU-DOGANSEHIR (MALATYA) İlksel
2026.05.04,21:42:47,40.2187,31.9042,6.7,,2.0,,GEYIKPINARI-BEYPAZARI (ANKARA) İlksel
2026.05.04,21:43:26,37.9610,36.3020,8.3,,1.4,,KAZANDERE-GOKSUN (KAHRAMANMARAS) İlksel
2026.05.04,21:46:22,37.8897,36.5075,7.0,,1.8,,DEGIRMENDERE-GOKSUN (KAHRAMANMARAS) İlksel
2026.05.04,22:11:19,39.3310,42.2232,5.0,,2.3,,KARAGOZ-KARACOBAN (ERZURUM) İlksel
2026.05.04,22:30:58,38.4573,37.9925,11.4,,1.5,,KARAMAGARA-AKCADAG (MALATYA) İlksel
2026.05.04,22:34:33,38.2743,37.7447,3.8,,1.5,,CEVIRME-AKCADAG (MALATYA) İlksel
2026.05.04,22:35:46,38.4435,37.9893,13.3,,1.4,,YALINBUDAK-AKCADAG (MALATYA) İlksel
2026.05.04,22:37:44,39.3327,28.1082,18.5,,1.1,,ARMUTLU-SINDIRGI (BALIKESIR) İlksel
2026.05.04,22:38:17,41.1402,24.2427,5.3,,1.8,,YUNANISTAN İlksel
2026.05.04,23:03:59,37.8257,35.2750,5.9,,1.5,,ULUPINAR-YAHYALI (KAYSERI) İlksel
2026.05.04,23:14:16,37.3477,28.1525,11.1,,1.2,,MADENLER-YATAGAN (MUGLA) İlksel
2026.05.04,23:44:37,37.9018,36.5062,1.2,,2.0,,DEGIRMENDERE-GOKSUN (KAHRAMANMARAS) İlksel
2026.05.04,23:46:45,38.1272,37.2145,3.3,,1.6,,AKPINAR-EKINOZU (KAHRAMANMARAS) İlksel
2026.05.05,00:29:49,39.1918,28.1487,13.8,,1.6,,ORMANICI-SINDIRGI (BALIKESIR) İlksel
2026.05.05,00:32:50,39.1118,28.2892,15.4,,1.4,,YUREGIL-SINDIRGI (BALIKESIR) İlksel
2026.05.05,00:36:37,38.1650,27.4623,15.6,,1.3,,HAVUZBASI-BAYINDIR (IZMIR) İlksel
2026.05.05,00:40:59,38.3018,38.2232,7.6,,1.6,,YAKINCA-YESILYURT (MALATYA) İlksel
2026.05.05,00:46:12,39.1760,28.2618,10.6,,2.0,,ISIKLAR-SINDIRGI (BALIKESIR) İlksel
2026.05.05,00:52:11,38.0315,36.5878,9.1,,1.4,,SARAYCIK-GOKSUN (KAHRAMANMARAS) İlksel
2026.05.05,02:07:24,37.7557,36.4472,11.5,,1.4,,GEBEN-ANDIRIN (KAHRAMANMARAS) İlksel
2026.05.05,02:09:36,36.8953,29.1037,8.8,,1.8,,KARABAYIR-CAMELI (DENIZLI) İlksel
2026.05.05,02:15:34,36.8467,29.0983,5.0,,1.6,,DARIYERI-DALAMAN (MUGLA) İlksel
2026.05.05,02:23:17,39.1425,26.6580,10.3,,2.0,,ALTINOVA ACIKLARI-BALIKESIR (EGE DENIZI) İlksel
2026.05.05,02:27:38,40.8040,25.4618,13.4,,2.0,,EGE DENIZI İlksel
2026.05.05,02:33:18,37.9738,36.5460,5.8,,1.8,,KURUCAOVA-(KAHRAMANMARAS) İlksel
2026.05.05,02:48:03,39.3363,42.2418,6.3,,2.3,,ERENCE-MALAZGIRT (MUS) İlksel
2026.05.05,02:53:38,40.1850,31.7482,5.0,,2.1,,HIRKATEPE-BEYPAZARI (ANKARA) İlksel
2026.05.05,03:56:39,39.1662,28.2733,9.9,,1.3,,ISIKLAR-SINDIRGI (BALIKESIR) İlksel
2026.05.05,04:17:06,36.8522,28.0490,18.8,,1.2,,GOKOVA KORFEZI (EGE DENIZI) İlksel
2026.05.05,04:20:16,36.8150,29.1362,9.6,,1.4,,ARPACIK-FETHIYE (MUGLA) İlksel
2026.05.05,04:36:01,39.0598,41.5090,14.9,,1.5,,TEPEKOY-VARTO (MUS) İlksel
2026.05.05,04:38:09,38.2672,37.7448,11.3,,2.0,,CEVIRME-AKCADAG (MALATYA) İlksel
2026.05.05,04:44:25,38.2903,37.6063,15.4,,1.3,,TOPALLI-ELBISTAN (KAHRAMANMARAS) İlksel
2026.05.05,04:50:55,39.2387,27.7580,7.7,,2.3,,TEKELI ISIKLAR-SOMA (MANISA) İlksel
2026.05.05,04:55:08,38.0085,36.6237,15.8,,1.4,,ELMALI-GOKSUN (KAHRAMANMARAS) İlksel
2026.05.05,04:59:05,40.3705,28.9268,7.8,,2.2,,MUDANYA (BURSA) İlksel
2026.05.05,05:01:26,40.7672,31.9808,14.6,,1.1,,ASAGIKULDAN-YENICAGA (BOLU) İlksel
2026.05.05,05:17:36,37.1523,27.9425,12.8,,1.3,,YOGUNOLUK-MILAS (MUGLA) İlksel
2026.05.05,05:30:23,38.2223,38.2060,7.1,,1.1,,ATALAR-YESILYURT (MALATYA) İlksel
2026.05.05,06:09:16,39.2020,28.1698,10.8,,1.7,,YAYLACIK-SINDIRGI (BALIKESIR) İlksel
2026.05.05,06:23:06,37.4908,37.2633,8.1,,1.5,,ARMUTLU-PAZARCIK (KAHRAMANMARAS) İlksel
2026.05.05,06:25:28,39.2202,29.0133,14.6,,1.5,,EGIRLER-SIMAV (KUTAHYA) İlksel
2026.05.05,06:37:37,39.2417,28.9847,5.0,,3.2,3.1,YEMISLI-SIMAV (KUTAHYA) İlksel
2026.05.05,06:38:31,39.2163,29.0472,16.4,,1.4,,EGIRLER-SIMAV (KUTAHYA) İlksel
2026.05.05,06:43:17,39.2455,28.9858,5.2,,2.0,,YEMISLI-SIMAV (KUTAHYA) İlksel
2026.05.05,07:16:08,39.2217,28.9980,10.0,,1.8,,EGIRLER-SIMAV (KUTAHYA) İlksel
2026.05.05,07:48:53,40.0382,33.3382,5.2,,1.5,,KALECIK (ANKARA) İlksel
2026.05.05,08:40:59,39.2310,28.1430,9.3,,2.0,,MANDIRA-SINDIRGI (BALIKESIR) İlksel
2026.05.05,08:49:56,40.6562,29.8243,0.0,,2.0,,HAMIDIYE-GOLCUK (KOCAELI) İlksel
2026.05.05,08:57:40,38.0895,37.1947,16.7,,1.6,,AKPINAR-EKINOZU (KAHRAMANMARAS) İlksel
2026.05.05,09:13:10,39.2128,28.1437,10.2,,2.2,,MANDIRA-SINDIRGI (BALIKESIR) İlksel
2026.05.05,09:22:44,36.5715,26.7458,140.2,,2.6,,EGE DENIZI İlksel
2026.05.05,09:52:22,38.4522,37.9830,14.4,,2.1,,YALINBUDAK-AKCADAG (MALATYA) İlksel
2026.05.05,09:56:39,37.1195,27.8882,0.0,,1.7,,SEKKOY-MILAS (MUGLA) İlksel
2026.05.05,09:59:37,38.0020,36.4257,17.3,,1.4,,ACIELMA-GOKSUN (KAHRAMANMARAS) İlksel
2026.05.05,10:21:10,34.8482,25.9643,5.4,,4.2,,GIRIT ADASI ACIKLARI (AKDENIZ) İlksel
2026.05.05,10:37:28,36.2085,35.7393,11.6,,1.3,,ARSUZ-HATAY AÇIKLARI (AKDENIZ) İlksel
2026.05.05,11:06:41,40.1988,31.7277,0.0,,2.1,,SEKLI-BEYPAZARI (ANKARA) İlksel
2026.05.05,11:09:26,39.3492,25.4872,10.0,,1.8,,EGE DENIZI İlksel
2026.05.05,11:15:50,39.1038,28.3530,16.4,,1.3,,KOBAKLAR-GORDES (MANISA) İlksel
2026.05.05,11:19:51,38.3830,38.9037,22.4,,1.6,,KAYABAGLARI-SIVRICE (ELAZIG) İlksel
2026.05.05,11:25:09,38.6167,27.2957,7.5,,1.4,,GURLE-(MANISA) İlksel
2026.05.05,11:46:33,39.2425,29.0035,9.7,,2.0,,YEMISLI-SIMAV (KUTAHYA) İlksel
2026.05.05,11:55:18,40.2593,27.4292,20.1,,1.5,,KURUOBA-BIGA (CANAKKALE) İlksel
2026.05.05,11:58:53,37.9747,36.5775,13.2,,2.3,,KURUCAOVA-(KAHRAMANMARAS) İlksel
2026.05.05,12:03:30,34.9547,25.9652,5.5,,3.8,,GIRIT ADASI (AKDENIZ) İlksel
2026.05.05,12:36:18,38.1265,36.8977,5.5,,1.6,,KEMALPASA-GOKSUN (KAHRAMANMARAS) İlksel
2026.05.05,12:48:08,38.1297,37.8012,13.0,,1.8,,FINDIKKOY-DOGANSEHIR (MALATYA) İlksel
2026.05.05,13:03:54,38.2093,37.8393,24.3,,1.3,,DEDEYAZI-DOGANSEHIR (MALATYA) İlksel
2026.05.05,13:03:54,39.7253,38.7505,27.8,,2.2,,DISTAS-REFAHIYE (ERZINCAN) İlksel
2026.05.05,13:15:40,39.2350,29.0097,7.4,,2.4,,YEMISLI-SIMAV (KUTAHYA) İlksel
2026.05.05,13:21:30,34.9065,25.9917,5.0,,2.4,,GIRIT ADASI ACIKLARI (AKDENIZ) İlksel
2026.05.05,13:32:58,40.3837,26.2868,5.0,,1.7,,SAROS KORFEZI (EGE DENIZI) İlksel
2026.05.05,14:20:30,37.8203,36.1462,6.6,,2.3,,AYVACIK-SAIMBEYLI (ADANA) İlksel
2026.05.05,14:33:28,38.0263,28.9275,2.0,,1.4,,YENICEKENT-BULDAN (DENIZLI) İlksel
2026.05.05,15:36:05,39.1443,28.1053,9.6,,1.5,,SINANDEDE-SINDIRGI (BALIKESIR) İlksel
2026.05.05,15:54:07,38.3143,39.1185,19.2,,1.7,,YALINCA-DOGANYOL (MALATYA) İlksel
2026.05.05,16:09:39,36.0282,29.0688,25.1,,1.7,,AKDENIZ İlksel
2026.05.05,17:38:36,37.9115,36.4958,5.1,,2.0,,DEGIRMENDERE-GOKSUN (KAHRAMANMARAS) İlksel
2026.05.05,17:45:58,38.1843,36.5743,9.2,,1.5,,KAVSUT-GOKSUN (KAHRAMANMARAS) İlksel
2026.05.05,17:49:17,36.9058,29.1243,11.4,,1.8,,KARABAYIR-CAMELI (DENIZLI) İlksel
2026.05.05,17:56:15,40.3300,27.3100,4.2,,1.7,,CESMEALTI-BIGA (CANAKKALE) İlksel
2026.05.05,18:17:45,37.9673,36.5832,9.0,,1.5,,KURUCAOVA-(KAHRAMANMARAS) İlksel
2026.05.05,18:33:05,38.0837,28.9420,5.8,,1.8,,YENICEKENT-BULDAN (DENIZLI) İlksel
2026.05.05,18:53:11,37.0415,28.4812,10.5,,1.9,,ORNEKKOY-ULA (MUGLA) İlksel
2026.05.05,18:59:54,34.7275,24.7777,11.3,,2.6,,GIRIT ADASI ACIKLARI (AKDENIZ) İlksel
2026.05.05,19:09:07,37.8788,36.6100,10.9,,1.6,,TEKIR-(KAHRAMANMARAS) İlksel
2026.05.05,19:18:32,37.0782,28.5103,9.4,,1.6,,CICEKLI-ULA (MUGLA) İlksel
2026.05.05,19:24:51,38.1577,36.6512,13.1,,1.7,,YENIYAPAN-GOKSUN (KAHRAMANMARAS) İlksel
2026.05.05,19:56:17,34.9170,26.0315,5.0,,2.8,,GIRIT ADASI ACIKLARI (AKDENIZ) İlksel
2026.05.05,20:10:41,38.2985,38.5548,22.3,,1.5,,TANISIK-(MALATYA) İlksel
2026.05.05,20:12:46,39.2242,28.1082,9.3,,1.5,,BAYIRLI-SINDIRGI (BALIKESIR) İlksel
2026.05.05,20:19:26,34.9143,26.0032,8.7,,3.2,3.2,GIRIT ADASI ACIKLARI (AKDENIZ) İlksel
2026.05.05,21:00:08,39.1173,33.2585,4.1,,1.3,,AKIN-SEREFLIKOCHISAR (ANKARA) İlksel
2026.05.05,21:03:23,39.2200,28.2362,13.4,,1.5,,ILICA-SINDIRGI (BALIKESIR) İlksel
2026.05.05,21:22:26,38.2718,37.7545,4.4,,1.2,,CEVIRME-AKCADAG (MALATYA) İlksel
2026.05.05,21:26:17,40.2145,31.7620,8.0,,1.9,,HIRKATEPE-BEYPAZARI (ANKARA) İlksel
2026.05.05,21:26:45,37.9098,36.5148,6.5,,1.2,,DEGIRMENDERE-GOKSUN (KAHRAMANMARAS) İlksel
2026.05.05,22:12:29,38.3180,27.8243,5.4,,1.4,,KERPICLIK-ODEMIS (IZMIR) İlksel
2026.05.05,22:25:21,37.7715,35.3740,15.2,,1.4,,KAPUZBASI-YAHYALI (KAYSERI) İlksel
2026.05.05,22:28:55,38.1763,37.8008,10.1,,1.3,,CAVUSLU-DOGANSEHIR (MALATYA) İlksel
2026.05.05,22:36:57,36.8933,29.1093,15.8,,1.3,,KARABAYIR-CAMELI (DENIZLI) İlksel
2026.05.05,22:38:40,34.8812,26.1037,4.1,,3.7,3.9,GIRIT ADASI ACIKLARI (AKDENIZ) İlksel
2026.05.05,23:08:47,39.1460,28.2960,3.2,,0.9,,YUREGIL-SINDIRGI (BALIKESIR) İlksel
2026.05.05,23:16:41,34.8935,25.9757,8.4,,2.8,,GIRIT ADASI ACIKLARI (AKDENIZ) İlksel
2026.05.05,23:37:37,38.2203,37.6907,17.8,,1.4,,ATMALIKASANLI-ELBISTAN (KAHRAMANMARAS) İlksel
2026.05.06,00:06:43,36.1205,29.0737,12.1,,1.8,,AKDENIZ İlksel
2026.05.06,00:23:23,37.9010,36.4750,5.0,,2.2,,DEGIRMENDERE-GOKSUN (KAHRAMANMARAS) İlksel
2026.05.06,00:35:19,34.8435,26.1153,7.1,,3.9,4.1,GIRIT ADASI ACIKLARI (AKDENIZ) İlksel
2026.05.06,01:12:16,34.9343,25.9927,8.2,,2.4,,GIRIT ADASI ACIKLARI (AKDENIZ) İlksel
2026.05.06,01:18:51,37.0852,28.6113,13.0,,1.7,,BALCILAR-KOYCEGIZ (MUGLA) İlksel
2026.05.06,01:42:18,39.1263,27.9760,14.3,,1.0,,KAYGANLI-AKHISAR (MANISA) İlksel
2026.05.06,01:42:36,37.6915,31.1677,11.5,,2.4,,KARACAHISAR-AKSU (ISPARTA) İlksel
2026.05.06,01:45:39,38.2732,37.7563,10.7,,1.5,,CEVIRME-AKCADAG (MALATYA) İlksel
2026.05.06,01:46:57,39.1338,36.0583,3.8,,1.4,,BESTEPE-GEMEREK (SIVAS) İlksel
2026.05.06,01:59:36,39.1727,28.2747,7.6,,1.1,,ISIKLAR-SINDIRGI (BALIKESIR) İlksel
2026.05.06,02:15:29,39.3807,26.2123,4.2,,1.4,,MIDILLI ADASI (EGE DENIZI) İlksel
2026.05.06,02:24:31,39.1348,28.3022,22.4,,0.6,,YUREGIL-SINDIRGI (BALIKESIR) İlksel
2026.05.06,02:25:33,38.3962,37.5005,4.5,,1.7,,SUGUL-DARENDE (MALATYA) İlksel
2026.05.06,02:34:48,39.1120,28.2977,13.1,,1.5,,YUREGIL-SINDIRGI (BALIKESIR) İlksel
2026.05.06,02:37:20,39.3693,26.2115,13.9,,1.0,,MIDILLI ADASI (EGE DENIZI) İlksel
2026.05.06,02:46:40,38.4197,37.4783,20.9,,1.0,,SUGUL-DARENDE (MALATYA) İlksel
2026.05.06,02:58:40,38.4060,37.5137,5.0,,0.9,,SUGUL-DARENDE (MALATYA) İlksel
2026.05.06,03:11:34,40.4510,24.0087,11.3,,1.1,,YUNANISTAN İlksel
2026.05.06,03:12:58,38.4022,37.4697,14.3,,1.4,,YALINTAS-ELBISTAN (KAHRAMANMARAS) İlksel
2026.05.06,03:18:27,37.7705,37.6965,10.2,,1.3,,YUKARICOPLU-GOLBASI (ADIYAMAN) İlksel
2026.05.06,03:52:18,37.4967,28.6587,9.9,,1.4,,YENIDERE-KALE (DENIZLI) İlksel
2026.05.06,03:53:45,37.4173,36.5937,5.0,,2.3,,SADIKLI-(KAHRAMANMARAS) İlksel
2026.05.06,03:59:27,39.9407,32.7215,5.0,,1.9,,ETIMESGUT (ANKARA) İlksel
2026.05.06,04:19:31,39.1648,27.9472,9.6,,1.3,,YAYKIN-AKHISAR (MANISA) İlksel
2026.05.06,04:33:43,39.0295,26.0852,12.7,,1.3,,MIDILLI ADASI GUNEYI (EGE DENIZI) İlksel
2026.05.06,05:21:39,38.9918,26.0573,15.6,,1.4,,MIDILLI ADASI GUNEYI (EGE DENIZI) İlksel
2026.05.06,05:22:21,37.8393,36.3003,5.0,,3.5,3.6,PAYAMBURNU-GOKSUN (KAHRAMANMARAS) İlksel
2026.05.06,05:34:14,35.8985,28.1352,9.4,,2.3,,AKDENIZ İlksel
2026.05.06,05:41:40,38.9823,42.8307,5.0,,2.5,,DIZGINKALE-PATNOS (AGRI) İlksel
2026.05.06,05:58:39,38.0082,36.6048,2.0,,1.8,,SARAYCIK-GOKSUN (KAHRAMANMARAS) İlksel
2026.05.06,06:02:51,36.9378,29.0580,10.3,,1.2,,GURLEYIK-DALAMAN (MUGLA) İlksel
2026.05.06,06:19:56,39.3907,42.2892,19.3,,1.3,,KARINCALI-MALAZGIRT (MUS) İlksel
2026.05.06,06:25:19,40.8023,27.4638,13.8,,1.4,,YENIKOY-(TEKIRDAG) İlksel
2026.05.06,06:30:09,38.0510,28.9813,18.0,,1.6,,MAHMUTLU-BULDAN (DENIZLI) İlksel
2026.05.06,06:36:09,39.2252,28.0872,9.7,,1.3,,KOZLU-SINDIRGI (BALIKESIR) İlksel
2026.05.06,06:40:09,36.9035,29.1260,8.8,,2.1,,KARABAYIR-CAMELI (DENIZLI) İlksel
2026.05.06,06:45:48,36.9613,29.0695,5.0,,1.1,,NARLI-DALAMAN (MUGLA) İlksel
2026.05.06,06:47:23,36.9250,28.0023,12.7,,2.3,,GOKOVA KORFEZI (EGE DENIZI) İlksel
2026.05.06,07:03:59,36.2375,37.5210,6.4,,2.3,,SURIYE İlksel
2026.05.06,07:31:13,38.9992,42.8472,5.0,,2.3,,KUCAK-PATNOS (AGRI) İlksel
2026.05.06,07:41:45,36.9442,29.1202,16.7,,1.4,,KARABAYIR-CAMELI (DENIZLI) İlksel
2026.05.06,09:23:25,35.0603,27.7520,18.1,,3.5,3.7,AKDENIZ İlksel
2026.05.06,09:31:44,36.9652,28.0345,4.4,,2.2,,GOKOVA KORFEZI (EGE DENIZI) İlksel
2026.05.06,09:32:44,36.8648,29.1395,2.5,,2.4,,ARPACIK-FETHIYE (MUGLA) İlksel
2026.05.06,09:34:58,36.9417,28.0412,12.4,,1.5,,GOKOVA KORFEZI (EGE DENIZI) İlksel
2026.05.06,09:57:30,36.8283,29.2272,11.6,,1.8,,SOGUTLU-FETHIYE (MUGLA) İlksel
2026.05.06,10:30:45,39.1942,29.3732,21.2,,0.8,,KARBASAN-HISARCIK (KUTAHYA) İlksel
2026.05.06,12:46:01,39.2390,28.9998,10.0,,1.2,,YEMISLI-SIMAV (KUTAHYA) İlksel
2026.05.06,12:49:07,39.1418,41.9192,9.2,,2.1,,MESEICI-BULANIK (MUS) İlksel
2026.05.06,12:49:49,36.6887,28.0847,8.1,,1.9,,SELIMIYE-MARMARIS (MUGLA) İlksel
2026.05.06,12:52:25,39.4883,28.2492,6.6,,1.6,,KAYIRLAR-BIGADIC (BALIKESIR) İlksel
2026.05.06,12:54:02,37.2643,28.5187,5.3,,1.6,,OZLUCE-(MUGLA) İlksel
2026.05.06,13:03:00,38.4857,39.4375,10.0,,1.5,,YONCAPINAR-MADEN (ELAZIG) İlksel
2026.05.06,13:04:54,38.4795,39.1530,17.7,,1.1,,KAVALLI-SIVRICE (ELAZIG) İlksel
2026.05.06,13:31:46,38.9733,37.8793,7.7,,1.9,,HASANCELEBI-HEKIMHAN (MALATYA) İlksel
2026.05.06,13:36:25,38.8357,28.1433,5.0,,1.1,,BOYALI-GORDES (MANISA) İlksel
2026.05.06,13:51:26,40.0150,35.5218,5.0,,2.2,,KAHYALI-CEKEREK (YOZGAT) İlksel
2026.05.06,15:02:43,39.2558,28.9908,8.0,,1.3,,YEMISLI-SIMAV (KUTAHYA) İlksel
2026.05.06,15:02:52,40.8758,25.6147,25.3,,1.1,,EGE DENIZI İlksel
2026.05.06,15:46:57,37.8137,29.3508,8.4,,1.9,,DERECIFTLIK-HONAZ (DENIZLI) İlksel
2026.05.06,15:48:38,38.2453,37.7682,6.7,,1.8,,CEVIRME-AKCADAG (MALATYA) İlksel
2026.05.06,16:36:19,36.8935,29.1142,2.7,,3.2,3.3,KARABAYIR-CAMELI (DENIZLI) İlksel
2026.05.06,16:41:51,36.8922,29.1305,4.3,,2.2,,KARABAYIR-CAMELI (DENIZLI) İlksel
2026.05.06,17:34:00,38.7302,39.1468,5.2,,1.2,,NURALI-(ELAZIG) İlksel
2026.05.06,17:46:10,37.0037,31.0318,28.9,,1.7,,PINARCIK-SERIK (ANTALYA) İlksel
2026.05.06,17:54:55,36.7147,33.9845,10.0,,1.2,,ELBEYLI-ERDEMLI (MERSIN) İlksel
2026.05.06,18:21:47,39.2360,28.1240,7.5,,1.6,,BAYIRLI-SINDIRGI (BALIKESIR) İlksel
2026.05.06,18:23:23,40.5802,36.9173,6.0,,2.1,,SAHINLI-NIKSAR (TOKAT) İlksel
2026.05.06,18:36:03,40.7717,28.0000,15.1,,1.5,,MARMARA DENIZI İlksel
2026.05.06,18:48:14,36.9200,29.1090,15.2,,1.4,,KARABAYIR-CAMELI (DENIZLI) İlksel
2026.05.06,18:48:28,36.8832,29.1153,11.0,,1.4,,DARIYERI-DALAMAN (MUGLA) İlksel
2026.05.06,18:59:55,36.9383,29.0665,13.6,,1.6,,GURLEYIK-DALAMAN (MUGLA) İlksel
2026.05.06,19:05:00,40.5882,36.9160,8.2,,1.6,,SAHINLI-NIKSAR (TOKAT) İlksel
2026.05.06,19:15:18,38.9698,41.0150,6.7,,1.8,,ELBASI-SOLHAN (BINGOL) İlksel
2026.05.06,19:17:39,38.1400,38.1527,5.4,,1.6,,YALINKAYA-YESILYURT (MALATYA) İlksel
2026.05.06,19:19:48,40.7698,28.6232,10.4,,1.7,,MARMARA DENIZI İlksel
2026.05.06,19:21:04,39.2372,28.9753,6.7,,2.2,,YEMISLI-SIMAV (KUTAHYA) İlksel
2026.05.06,19:49:46,37.6930,35.4575,5.0,,1.7,,KUP-ALADAG (ADANA) İlksel
2026.05.06,19:50:27,36.9038,29.0968,13.5,,1.4,,KARABAYIR-CAMELI (DENIZLI) İlksel
2026.05.06,19:52:46,36.2767,29.7877,9.8,,1.5,,CERLER-KAS (ANTALYA) İlksel
2026.05.06,20:07:45,38.4800,37.3350,2.8,,1.7,,YARIMCA-DARENDE (MALATYA) İlksel
2026.05.06,20:16:41,36.8753,29.1578,2.0,,1.5,,ARPACIK-FETHIYE (MUGLA) İlksel
2026.05.06,20:18:12,38.2268,38.2667,5.3,,1.2,,KADIRUSAGI-YESILYURT (MALATYA) İlksel
2026.05.06,20:45:03,39.2108,28.0687,11.4,,1.5,,KERTIL-SINDIRGI (BALIKESIR) İlksel
2026.05.06,21:26:10,39.5527,26.4100,8.0,,1.7,,KOZLU-AYVACIK (CANAKKALE) İlksel
2026.05.06,21:38:19,40.1762,31.7537,2.8,,2.1,,HIRKATEPE-BEYPAZARI (ANKARA) İlksel
2026.05.06,22:12:54,38.3040,27.5827,5.3,,1.4,,OSMANLAR-BAYINDIR (IZMIR) İlksel
2026.05.06,22:31:06,34.4898,26.6490,6.7,,3.4,3.6,GIRIT ADASI ACIKLARI (AKDENIZ) REVIZE01 (2026.05.06 22:31:06)
2026.05.06,23:01:34,36.7740,29.2722,11.0,,1.4,,KIZILBEL-FETHIYE (MUGLA) İlksel
2026.05.06,23:15:07,37.9497,37.9403,5.0,,2.3,,ERKENEK-DOGANSEHIR (MALATYA) İlksel
2026.05.06,23:55:53,39.6837,38.7747,5.9,,1.9,,KARACA-KEMAH (ERZINCAN) İlksel
2026.05.07,00:03:21,37.7725,37.2908,5.7,,1.8,,CAGLAYANCERIT (KAHRAMANMARAS) İlksel
2026.05.07,00:35:24,38.1075,37.7848,5.0,,3.1,3.0,FINDIKKOY-DOGANSEHIR (MALATYA) İlksel
2026.05.07,01:09:48,40.8635,31.7943,4.0,,1.4,,MERKESLER-(BOLU) İlksel
2026.05.07,01:15:20,38.4993,26.5207,3.6,,2.1,,KOSEDERE-KARABURUN (IZMIR) İlksel
2026.05.07,02:00:38,38.2987,38.2212,8.2,,1.8,,YAKINCA-YESILYURT (MALATYA) İlksel
2026.05.07,02:15:32,39.2185,28.0840,8.0,,2.6,,KERTIL-SINDIRGI (BALIKESIR) İlksel
2026.05.07,02:30:10,36.8790,29.1343,3.1,,1.7,,DARIYERI-DALAMAN (MUGLA) İlksel
2026.05.07,02:30:33,36.8563,29.4650,1.9,,1.9,,BALLIK-ALTINYAYLA (BURDUR) İlksel
2026.05.07,02:30:46,36.8828,29.1045,5.0,,1.7,,DARIYERI-DALAMAN (MUGLA) İlksel
2026.05.07,02:34:46,38.8733,26.6355,8.1,,1.4,,MIDILLI ADASI GUNEYI (EGE DENIZI) İlksel
2026.05.07,02:37:22,36.9493,29.0998,12.2,,1.3,,KARABAYIR-CAMELI (DENIZLI) İlksel
2026.05.07,02:42:14,35.5028,25.4415,25.7,,2.5,,GIRIT ADASI (AKDENIZ) İlksel
2026.05.07,02:44:13,36.9103,29.0807,5.0,,1.5,,GURLEYIK-DALAMAN (MUGLA) İlksel
2026.05.07,02:46:01,36.9058,29.1095,3.9,,1.6,,KARABAYIR-CAMELI (DENIZLI) İlksel
2026.05.07,03:27:07,38.3760,38.7820,16.9,,1.6,,KOZLUK-KALE (MALATYA) İlksel
2026.05.07,04:04:47,36.8785,29.1165,7.7,,1.5,,DARIYERI-DALAMAN (MUGLA) İlksel
2026.05.07,04:38:54,39.3953,37.3038,5.0,,2.3,,KERTMEKARACAOREN-ULAS (SIVAS) İlksel
2026.05.07,05:34:08,35.4243,26.3983,6.5,,1.7,,GIRIT ADASI (AKDENIZ) İlksel
2026.05.07,05:38:43,40.7928,42.5007,4.2,,1.5,,DOLUNAY-SENKAYA (ERZURUM) İlksel
2026.05.07,05:40:48,40.8172,42.4890,5.4,,2.2,,DOLUNAY-SENKAYA (ERZURUM) İlksel
2026.05.07,05:50:50,34.8695,25.9353,2.3,,1.6,,GIRIT ADASI ACIKLARI (AKDENIZ) İlksel
2026.05.07,06:06:29,36.5187,25.6532,11.9,,1.7,,EGE DENIZI İlksel
2026.05.07,06:31:00,38.1352,37.0213,6.1,,2.1,,CALIS-ELBISTAN (KAHRAMANMARAS) İlksel
2026.05.07,06:45:04,36.9133,29.1125,10.9,,1.8,,KARABAYIR-CAMELI (DENIZLI) İlksel
2026.05.07,07:01:30,38.2760,37.7490,16.8,,1.3,,CEVIRME-AKCADAG (MALATYA) İlksel
2026.05.07,07:31:26,39.1783,28.2127,9.6,,1.9,,AKTAS-SINDIRGI (BALIKESIR) İlksel
2026.05.07,08:31:46,37.3700,36.9315,14.7,,2.3,,COBANTEPE-TURKOGLU (KAHRAMANMARAS) İlksel
2026.05.07,08:35:31,38.0792,27.2583,5.0,,3.4,3.3,CAKALTEPE-MENDERES (IZMIR) İlksel
2026.05.07,08:55:25,40.1080,40.9778,14.7,,1.7,,EGERTI-AZIZIYE (ERZURUM) İlksel
2026.05.07,09:13:45,36.8885,29.0927,2.5,,1.6,,DARIYERI-DALAMAN (MUGLA) İlksel
2026.05.07,10:11:29,40.9317,35.7617,0.0,,1.4,,ULUCAL-HAVZA (SAMSUN) İlksel
2026.05.07,10:21:51,39.1815,27.8335,17.4,,1.1,,GELENBE-KIRKAGAC (MANISA) İlksel
2026.05.07,10:25:11,40.4255,28.4578,5.0,,3.2,,BOGAZ-KARACABEY (BURSA) İlksel
2026.05.07,10:40:32,38.7718,26.8673,11.2,,2.3,,CANDARLI KORFEZI (EGE DENIZI) İlksel
2026.05.07,10:47:17,39.2272,38.6288,17.3,,1.8,,TUGLU-KEMALIYE (ERZINCAN) İlksel
2026.05.07,10:53:07,36.8885,29.1455,7.8,,2.2,,KARABAYIR-CAMELI (DENIZLI) İlksel
2026.05.07,11:03:46,39.1280,28.3230,12.6,,1.4,,YUREGIL-SINDIRGI (BALIKESIR) İlksel
2026.05.07,11:57:20,37.1485,27.8960,0.0,,1.7,,KARACAAGAC-MILAS (MUGLA) İlksel
2026.05.07,12:17:39,35.1888,33.6255,5.0,,1.8,,KIBRIS-DEGIRMENLIK İlksel
2026.05.07,12:18:30,38.2673,37.7810,17.4,,2.0,,CEVIRME-AKCADAG (MALATYA) İlksel
2026.05.07,12:36:30,38.3483,38.8188,4.8,,1.6,,AKUSAGI-KALE (MALATYA) İlksel
2026.05.07,12:45:24,36.0038,35.8597,9.4,,2.0,,DENIZGOREN-YAYLADAGI (HATAY) İlksel
2026.05.07,13:13:44,39.5517,33.1365,22.8,,0.9,,BALA (ANKARA) İlksel
2026.05.07,13:14:44,38.2447,37.6883,4.0,,1.6,,HARUNUSAGI-AKCADAG (MALATYA) İlksel
2026.05.07,13:29:54,36.8633,29.1382,8.2,,1.9,,ARPACIK-FETHIYE (MUGLA) İlksel
2026.05.07,13:39:11,36.1875,33.5312,0.0,,1.0,,KOCASLI-GULNAR (MERSIN) İlksel
2026.05.07,13:58:15,40.2520,24.3983,5.0,,2.0,,YUNANISTAN İlksel
2026.05.07,14:21:00,37.0467,28.4388,10.9,,1.3,,ELMALI-ULA (MUGLA) İlksel
2026.05.07,14:23:59,40.3643,28.7652,13.3,,2.6,,KAYMAKOBA-MUDANYA (BURSA) İlksel
2026.05.07,14:28:12,36.7563,33.6440,20.7,,1.8,,COMELEK-MUT (MERSIN) İlksel
2026.05.07,14:53:24,37.9722,36.4895,5.0,,2.2,,GOLPINAR-GOKSUN (KAHRAMANMARAS) İlksel
2026.05.07,15:30:22,36.8977,29.1238,6.4,,1.9,,KARABAYIR-CAMELI (DENIZLI) İlksel
2026.05.07,16:11:17,38.3952,37.5118,5.4,,1.5,,SUGUL-DARENDE (MALATYA) İlksel
2026.05.07,16:16:16,40.2277,31.7308,8.8,,2.1,,HIRKATEPE-BEYPAZARI (ANKARA) İlksel
2026.05.07,16:35:36,38.1230,37.7485,3.9,,2.2,,CAVUSLU-DOGANSEHIR (MALATYA) İlksel
2026.05.07,16:55:21,37.5882,37.3485,14.8,,1.6,,KARAAGAC-PAZARCIK (KAHRAMANMARAS) İlksel
2026.05.07,17:07:46,35.6763,25.4682,16.4,,2.1,,GIRIT ADASI (AKDENIZ) İlksel
2026.05.07,17:17:13,36.9695,29.0953,7.6,,1.7,,NARLI-DALAMAN (MUGLA) İlksel
2026.05.07,17:20:26,40.1163,23.2830,5.4,,1.7,,YUNANISTAN İlksel
2026.05.07,17:23:08,38.1235,36.5962,5.9,,2.1,,KANLIKAVAK-GOKSUN (KAHRAMANMARAS) İlksel
2026.05.07,17:28:45,38.1748,41.4113,5.1,,1.8,,GUNDUZLU-KOZLUK (BATMAN) İlksel
2026.05.07,17:42:24,37.7983,26.9182,13.9,,1.8,,SISAM ADASI (EGE DENIZI) İlksel
2026.05.07,17:55:54,40.2235,29.4628,9.0,,1.4,,MARMARACIK-YENISEHIR (BURSA) İlksel
2026.05.07,18:02:25,38.1423,36.6253,10.4,,1.8,,YENIYAPAN-GOKSUN (KAHRAMANMARAS) İlksel
2026.05.07,18:22:42,38.0018,36.5727,5.4,,1.2,,KARAAHMET-GOKSUN (KAHRAMANMARAS) İlksel
2026.05.07,18:29:11,35.4197,23.4897,5.0,,2.7,,GIRIT ADASI (AKDENIZ) İlksel
2026.05.07,18:32:57,37.9665,36.5153,5.9,,2.7,,KIRECKOY-GOKSUN (KAHRAMANMARAS) İlksel
2026.05.07,18:47:58,36.9157,29.0985,12.2,,1.7,,KARABAYIR-CAMELI (DENIZLI) İlksel
2026.05.07,18:49:15,39.1795,28.1572,9.6,,2.1,,SINANDEDE-SINDIRGI (BALIKESIR) İlksel
2026.05.07,18:52:05,37.9023,36.5165,9.4,,2.1,,DEGIRMENDERE-GOKSUN (KAHRAMANMARAS) İlksel
2026.05.07,19:05:42,35.6823,25.4567,7.2,,1.9,,GIRIT ADASI (AKDENIZ) İlksel
2026.05.07,19:25:15,39.1873,28.2290,11.8,,1.8,,ILICA-SINDIRGI (BALIKESIR) İlksel
2026.05.07,19:26:24,37.9887,36.2237,5.0,,1.7,,KALEBOYNU-GOKSUN (KAHRAMANMARAS) İlksel
2026.05.07,19:35:40,37.9732,36.2267,13.5,,1.4,,KALEBOYNU-GOKSUN (KAHRAMANMARAS) İlksel
2026.05.07,19:46:08,39.1702,27.9813,5.2,,1.4,,AKKOCALI-AKHISAR (MANISA) İlksel
2026.05.07,20:25:10,39.2533,28.9930,11.3,,1.3,,YEMISLI-SIMAV (KUTAHYA) İlksel
2026.05.07,20:26:28,37.5272,37.2842,12.1,,1.4,,TETIRLIK-PAZARCIK (KAHRAMANMARAS) İlksel
2026.05.07,20:52:25,39.0060,33.2310,24.3,,1.1,,KIRKKUYU-KULU (KONYA) İlksel
2026.05.07,21:02:58,34.7270,32.5697,16.1,,2.0,,AKDENIZ İlksel
2026.05.07,21:28:40,34.9503,26.0783,5.0,,2.2,,GIRIT ADASI ACIKLARI (AKDENIZ) İlksel
2026.05.07,21:30:18,39.2193,28.0848,9.1,,2.4,,KERTIL-SINDIRGI (BALIKESIR) İlksel
2026.05.07,21:30:39,38.2987,37.7747,15.8,,1.4,,DUTLU-AKCADAG (MALATYA) İlksel
2026.05.07,21:37:12,37.8810,36.4660,5.8,,1.6,,DEGIRMENDERE-GOKSUN (KAHRAMANMARAS) İlksel
2026.05.07,21:39:18,38.2165,38.0443,12.5,,1.6,,ISIKLI-YESILYURT (MALATYA) İlksel
2026.05.07,21:45:04,35.7118,25.4738,12.5,,1.9,,EGE DENIZI İlksel
2026.05.07,21:45:51,36.9382,29.1075,10.3,,1.4,,KARABAYIR-CAMELI (DENIZLI) İlksel
2026.05.07,21:55:59,40.0047,35.5308,5.1,,2.0,,KAHYALI-CEKEREK (YOZGAT) İlksel
2026.05.07,22:03:35,37.9378,28.8538,5.3,,1.4,,KARAKIRAN-SARAYKOY (DENIZLI) İlksel
2026.05.07,22:05:53,39.2550,28.0628,11.6,,1.3,,ALACAATLI-SINDIRGI (BALIKESIR) İlksel
2026.05.07,22:18:32,36.9020,29.0995,5.0,,2.6,,KARABAYIR-CAMELI (DENIZLI) İlksel
2026.05.07,22:23:05,40.1535,23.2977,9.5,,1.7,,YUNANISTAN İlksel
2026.05.07,22:40:51,38.5932,31.3512,24.1,,1.0,,TASKOPRU-SULTANDAGI (AFYONKARAHISAR) İlksel
2026.05.07,22:43:06,39.4997,33.2385,8.9,,1.4,,SIRAPINAR-BALA (ANKARA) İlksel
2026.05.07,22:49:46,35.3583,27.2045,16.5,,1.8,,AKDENIZ İlksel
2026.05.07,23:22:48,39.2157,28.9775,18.0,,1.2,,EGIRLER-SIMAV (KUTAHYA) İlksel
2026.05.07,23:27:22,39.1565,28.2928,13.5,,1.2,,ISIKLAR-SINDIRGI (BALIKESIR) İlksel
2026.05.07,23:41:09,39.1983,28.1028,12.6,,1.7,,KERTIL-SINDIRGI (BALIKESIR) İlksel
2026.05.07,23:42:55,38.0392,28.9700,13.0,,1.7,,MAHMUTLU-BULDAN (DENIZLI) İlksel
2026.05.07,23:49:33,34.8555,26.0253,10.7,,2.1,,GIRIT ADASI ACIKLARI (AKDENIZ) İlksel
2026.05.07,23:58:34,37.9997,36.1558,5.0,,1.8,,YENIKOY-SAIMBEYLI (ADANA) İlksel
2026.05.07,23:59:30,38.9263,38.3153,13.8,,1.4,,GOKAGAC-ARGUVAN (MALATYA) İlksel
2026.05.08,00:03:19,38.0448,28.9740,18.2,,1.3,,MAHMUTLU-BULDAN (DENIZLI) İlksel
2026.05.08,00:12:25,37.2455,37.0935,7.9,,2.5,,EVRI-PAZARCIK (KAHRAMANMARAS) İlksel
2026.05.08,00:13:18,39.0568,33.2607,5.3,,1.0,,KIRKKUYU-KULU (KONYA) İlksel
2026.05.08,00:21:39,39.2585,28.9885,9.1,,1.0,,YEMISLI-SIMAV (KUTAHYA) İlksel
2026.05.08,00:28:58,35.2488,28.0070,25.5,,2.4,,AKDENIZ İlksel
2026.05.08,00:35:10,39.2345,28.9653,5.1,,1.5,,YEMISLI-SIMAV (KUTAHYA) İlksel
2026.05.08,00:42:46,39.5127,26.0680,7.7,,2.2,,BABAKALE-AYVACIK (CANAKKALE) İlksel
2026.05.08,01:23:50,36.9130,29.1160,4.9,,1.4,,KARABAYIR-CAMELI (DENIZLI) İlksel
2026.05.08,01:30:13,36.8968,29.1052,1.4,,1.5,,KARABAYIR-CAMELI (DENIZLI) İlksel
2026.05.08,01:35:22,36.9410,28.5442,3.6,,2.4,,DOGUSBELEN-KOYCEGIZ (MUGLA) İlksel
2026.05.08,01:37:49,38.2753,27.9113,14.8,,1.1,,UZUMLU-ODEMIS (IZMIR) İlksel
2026.05.08,01:56:12,39.0695,33.2493,6.0,,1.5,,KIRKKUYU-KULU (KONYA) İlksel
2026.05.08,02:05:48,38.0892,28.9975,18.3,,1.5,,HAMDIYE-GUNEY (DENIZLI) İlksel
2026.05.08,02:12:30,36.9047,29.0825,1.5,,1.4,,GURLEYIK-DALAMAN (MUGLA) İlksel
2026.05.08,02:23:27,40.7800,27.5165,6.9,,1.1,,YENIKOY ACIKLARI-TEKIRDAG (MARMARA DENIZI) İlksel
2026.05.08,02:37:12,39.1453,28.0192,11.9,,1.4,,ISACA-AKHISAR (MANISA) İlksel
2026.05.08,02:40:10,39.6652,38.3368,13.0,,1.4,,DARISEKI-IMRANLI (SIVAS) İlksel
2026.05.08,03:03:50,38.1435,36.5973,5.0,,1.4,,YENIYAPAN-GOKSUN (KAHRAMANMARAS) İlksel
2026.05.08,03:07:42,40.1750,31.7408,1.7,,2.2,,HIRKATEPE-BEYPAZARI (ANKARA) İlksel
2026.05.08,03:09:43,36.9033,29.1037,1.7,,1.5,,KARABAYIR-CAMELI (DENIZLI) İlksel
2026.05.08,03:18:05,35.7075,25.4283,6.8,,2.3,,EGE DENIZI İlksel
2026.05.08,03:51:52,39.9152,40.7662,19.1,,1.1,,KUCUKGECIT-ASKALE (ERZURUM) İlksel
2026.05.08,03:55:18,35.2648,29.6570,14.2,,2.1,,AKDENIZ İlksel
2026.05.08,04:05:53,34.9098,26.2202,1.7,,2.2,,GIRIT ADASI ACIKLARI (AKDENIZ) İlksel
2026.05.08,04:11:42,36.8982,29.1163,1.1,,1.3,,KARABAYIR-CAMELI (DENIZLI) İlksel
2026.05.08,04:24:54,35.3687,27.4542,5.0,,3.0,2.9,AKDENIZ İlksel
2026.05.08,04:41:57,39.0067,36.2672,5.0,,1.5,,GANISEYH-AKKISLA (KAYSERI) İlksel
2026.05.08,05:04:54,37.2705,36.8540,5.0,,2.3,,MINEHUYUK-TURKOGLU (KAHRAMANMARAS) İlksel
2026.05.08,06:08:37,36.9678,28.9947,12.6,,1.7,,BOZBEL-DALAMAN (MUGLA) İlksel
2026.05.08,06:15:24,40.7918,27.4885,13.5,,1.4,,YENIKOY ACIKLARI-TEKIRDAG (MARMARA DENIZI) İlksel
2026.05.08,06:18:03,37.2277,36.2525,8.4,,1.6,,KARAGEDIK-DUZICI (OSMANIYE) İlksel
2026.05.08,06:20:25,38.3715,38.7760,4.9,,1.6,,TEPEKOY-KALE (MALATYA) İlksel
2026.05.08,06:23:01,40.7948,27.4942,12.9,,1.4,,YENIKOY ACIKLARI-TEKIRDAG (MARMARA DENIZI) İlksel
2026.05.08,06:47:19,38.1475,45.6092,5.8,,4.2,,IRAN İlksel
2026.05.08,06:48:32,36.9825,28.9822,12.9,,1.7,,AKKOPRU-KOYCEGIZ (MUGLA) İlksel
2026.05.08,06:51:54,36.8915,29.1122,1.3,,1.7,,KARABAYIR-CAMELI (DENIZLI) İlksel
2026.05.08,06:53:33,40.7705,32.9838,2.0,,1.4,,YALIOZU-CERKES (CANKIRI) İlksel
2026.05.08,06:54:18,36.7610,31.2275,16.9,,1.6,,SIDE ACIKLARI-ANTALYA (AKDENIZ) İlksel
2026.05.08,07:03:37,35.6925,25.4083,9.7,,2.8,,GIRIT ADASI (AKDENIZ) İlksel
2026.05.08,07:44:06,40.7542,28.7038,12.2,,1.4,,MARMARA DENIZI İlksel
2026.05.08,08:27:26,36.4907,28.5238,25.6,,1.5,,AKDENIZ İlksel
2026.05.08,08:42:31,38.2957,38.7978,5.0,,2.0,,BOLUKKAYA-PUTURGE (MALATYA) İlksel
2026.05.08,08:49:01,40.2842,31.2642,5.3,,1.3,,DOGANDERE-NALLIHAN (ANKARA) İlksel
2026.05.08,08:54:33,36.9065,29.0985,4.2,,1.3,,KARABAYIR-CAMELI (DENIZLI) İlksel
2026.05.08,08:57:29,36.9108,29.0757,5.0,,2.1,,GURLEYIK-DALAMAN (MUGLA) İlksel
2026.05.08,09:06:20,40.6998,30.6642,2.6,,1.5,,YUVALIK-AKYAZI (SAKARYA) İlksel
2026.05.08,09:12:30,39.3295,24.9802,15.9,,1.9,,EGE DENIZI İlksel
2026.05.08,09:21:28,38.2405,36.8852,4.2,,1.5,,EMIRLI-AFSIN (KAHRAMANMARAS) İlksel
2026.05.08,09:33:06,36.7168,29.5105,21.5,,1.1,,BAYIRKOY-FETHIYE (MUGLA) İlksel
2026.05.08,09:36:44,36.9017,29.1305,14.4,,2.0,,KARABAYIR-CAMELI (DENIZLI) İlksel
2026.05.08,09:42:36,38.1817,38.4432,4.1,,2.8,,AKSU-SINCIK (ADIYAMAN) İlksel
2026.05.08,10:15:40,39.8753,24.2193,18.7,,1.9,,YUNANISTAN İlksel
2026.05.08,10:22:19,36.8952,29.1838,17.1,,1.4,,KARABAYIR-CAMELI (DENIZLI) İlksel
2026.05.08,10:29:40,36.9038,29.1305,12.4,,2.3,,KARABAYIR-CAMELI (DENIZLI) İlksel
2026.05.08,10:47:49,38.0962,38.4345,12.2,,2.5,,KARAGOL-CELIKHAN (ADIYAMAN) İlksel
2026.05.08,10:48:44,39.1442,28.1190,15.3,,1.2,,SINANDEDE-SINDIRGI (BALIKESIR) İlksel
2026.05.08,11:17:15,41.9068,43.4790,31.1,,2.6,,GURCISTAN İlksel
2026.05.08,11:19:00,38.4148,44.7200,3.6,,2.5,,TURKIYE-IRAN SINIR BOLGESI İlksel
2026.05.08,11:48:27,35.7222,25.5448,9.8,,2.2,,EGE DENIZI İlksel
2026.05.08,11:50:01,36.1200,33.5612,0.0,,0.9,,BUYUKECELI-GULNAR (MERSIN) İlksel
2026.05.08,11:54:09,40.5672,27.4010,10.1,,1.3,,MUREFTE ACIKLARI-TEKIRDAG (MARMARA DENIZI) İlksel
2026.05.08,12:00:08,38.9358,37.9238,6.6,,1.7,,CULHALI-HEKIMHAN (MALATYA) İlksel
2026.05.08,12:03:56,35.6740,25.4372,5.3,,1.7,,GIRIT ADASI (AKDENIZ) İlksel
2026.05.08,12:51:02,36.2595,33.7748,0.0,,1.3,,AKDERE-SILIFKE (MERSIN) İlksel
2026.05.08,13:41:03,38.7943,27.9655,11.9,,1.0,,KARAYAGCI-AKHISAR (MANISA) İlksel
2026.05.08,13:42:35,36.9283,29.0430,23.8,,1.7,,GURLEYIK-DALAMAN (MUGLA) İlksel
2026.05.08,13:59:02,36.9077,29.0837,2.3,,2.7,,GURLEYIK-DALAMAN (MUGLA) İlksel
2026.05.08,14:25:24,37.1055,30.5607,12.3,,2.1,,BIYIKLI-DOSEMEALTI (ANTALYA) İlksel
2026.05.08,14:46:23,36.9040,29.1268,8.4,,2.3,,KARABAYIR-CAMELI (DENIZLI) İlksel
2026.05.08,14:47:52,37.1187,30.5905,5.9,,2.2,,BIYIKLI-DOSEMEALTI (ANTALYA) İlksel
2026.05.08,14:57:18,39.2463,28.0505,10.4,,2.5,,ALAKIR-SINDIRGI (BALIKESIR) İlksel
2026.05.08,14:58:20,36.3612,29.7817,49.2,,1.9,,DIRGENLER-KAS (ANTALYA) İlksel
2026.05.08,15:09:46,39.1368,27.9873,4.9,,1.2,,KAYGANLI-AKHISAR (MANISA) İlksel
2026.05.08,15:19:22,36.3672,33.4965,0.0,,1.1,,KAYRAK-GULNAR (MERSIN) İlksel
2026.05.08,15:22:05,36.5028,25.7738,11.9,,1.7,,EGE DENIZI İlksel
2026.05.08,16:05:36,37.0768,30.5335,24.8,,1.8,,YAGCA-DOSEMEALTI (ANTALYA) İlksel
2026.05.08,16:07:28,41.0962,30.2393,0.0,,1.5,,OZBEY-KANDIRA (KOCAELI) İlksel
2026.05.08,17:11:27,34.6213,32.3768,4.2,,3.3,3.2,AKDENIZ İlksel
2026.05.08,17:14:18,36.9780,28.9895,4.8,,1.7,,AKKOPRU-KOYCEGIZ (MUGLA) İlksel
2026.05.08,17:19:33,40.8462,28.0362,8.5,,1.7,,MARMARA DENIZI İlksel
2026.05.08,17:26:14,37.8443,36.4198,5.0,,2.1,,KUCUKCAMURLU-GOKSUN (KAHRAMANMARAS) İlksel
2026.05.08,17:26:42,36.8930,29.0618,5.0,,1.4,,GURLEYIK-DALAMAN (MUGLA) İlksel
2026.05.08,17:34:18,40.4680,26.2550,11.3,,2.1,,SAROS KORFEZI (EGE DENIZI) İlksel
2026.05.08,18:05:02,37.6477,36.4503,6.4,,2.3,,EMIRLER-ANDIRIN (KAHRAMANMARAS) İlksel
2026.05.08,18:48:05,35.8145,33.8318,9.8,,2.5,,AKDENIZ İlksel
2026.05.08,18:52:19,37.6537,36.4102,15.3,,1.7,,YESILTEPE-ANDIRIN (KAHRAMANMARAS) İlksel
2026.05.08,18:55:13,36.8960,29.0797,5.0,,2.0,,GURLEYIK-DALAMAN (MUGLA) İlksel
2026.05.08,18:57:59,36.9032,29.1418,13.4,,1.3,,KARABAYIR-CAMELI (DENIZLI) İlksel
2026.05.08,19:33:24,36.8367,30.9877,104.6,,1.9,,KADRIYE-SERIK (ANTALYA) İlksel
2026.05.08,20:40:14,38.1008,38.4000,5.9,,1.4,,KARAGOL-CELIKHAN (ADIYAMAN) İlksel
2026.05.08,20:41:48,34.8970,26.0065,6.3,,2.2,,GIRIT ADASI ACIKLARI (AKDENIZ) İlksel
2026.05.08,20:42:39,35.9823,32.1335,5.4,,1.6,,AKDENIZ İlksel
2026.05.08,21:04:34,39.4085,40.4518,5.2,,2.3,,GUZGULU-YEDISU (BINGOL) İlksel
2026.05.08,22:25:13,40.2958,37.9010,11.5,,1.6,,KAYAOREN-KOYULHISAR (SIVAS) İlksel
2026.05.08,22:50:45,37.7380,35.3417,5.4,,1.7,,KAPUZBASI-YAHYALI (KAYSERI) İlksel
2026.05.08,23:00:37,40.7373,32.9733,2.1,,1.7,,YALIOZU-CERKES (CANKIRI) İlksel
2026.05.08,23:28:43,39.1182,28.3780,14.3,,1.8,,YAYLABAYIR-SINDIRGI (BALIKESIR) İlksel
2026.05.09,00:22:02,37.2812,31.0303,124.0,,2.4,,HASKIZILOREN-SERIK (ANTALYA) İlksel
2026.05.09,00:29:33,38.1648,38.6183,11.4,,1.6,,BASMEZRA-PUTURGE (MALATYA) İlksel
2026.05.09,00:35:17,37.8988,36.4662,5.4,,1.6,,DEGIRMENDERE-GOKSUN (KAHRAMANMARAS) İlksel
2026.05.09,00:42:51,39.8207,30.5005,4.3,,2.1,,TEPEBASI (ESKISEHIR) İlksel
