Date,Time,Latitude,Longitude,Depth,MD,ML,Mw,Location
2026.06.01,00:26:43,40.5982,37.0032,5.0,,1.5,,CERKOY-NIKSAR (TOKAT) İlksel
2026.06.01,01:03:39,37.7452,36.0327,7.8,,1.6,,AKOLUK-FEKE (ADANA) İlksel
2026.06.01,01:25:17,37.5988,35.8058,11.4,,1.1,,DUZAGAC-KOZAN (ADANA) İlksel
2026.06.01,02:04:45,40.1887,31.7505,6.5,,2.1,,HIRKATEPE-BEYPAZARI (ANKARA) İlksel
2026.06.01,02:27:49,40.7495,27.5192,9.7,,1.0,,YENIKOY ACIKLARI-TEKIRDAG (MARMARA DENIZI) İlksel
2026.06.01,02:34:33,38.0790,37.4923,9.7,,1.4,,SUNNETKOY-ELBISTAN (KAHRAMANMARAS) İlksel
2026.06.01,02:51:49,38.3650,28.4492,5.0,,1.3,,CESNELI-ALASEHIR (MANISA) İlksel
2026.06.01,02:52:02,38.0105,37.6005,17.7,,1.2,,GOVDELI-DOGANSEHIR (MALATYA) İlksel
2026.06.01,03:07:49,40.0188,41.3888,5.8,,2.4,,KUCUKTUY-PASINLER (ERZURUM) İlksel
2026.06.01,03:19:39,40.1828,25.1665,10.9,,2.4,,EGE DENIZI İlksel
2026.06.01,03:28:37,38.3330,37.4538,11.6,,1.1,,BESTEPE-ELBISTAN (KAHRAMANMARAS) İlksel
2026.06.01,03:33:02,38.7288,27.9705,5.5,,1.8,,HIROGLU-GOLMARMARA (MANISA) İlksel
2026.06.01,03:57:13,37.8522,26.9787,7.4,,1.3,,KUSADASI KORFEZI (EGE DENIZI) İlksel
2026.06.01,04:00:41,38.1653,38.5077,7.5,,2.2,,ULUKOY-(MALATYA) İlksel
2026.06.01,04:10:52,39.2682,28.9665,11.4,,1.2,,KARAKOCA-SIMAV (KUTAHYA) İlksel
2026.06.01,04:16:36,39.2480,28.9805,11.0,,0.9,,YEMISLI-SIMAV (KUTAHYA) İlksel
2026.06.01,04:21:02,39.2327,29.0413,5.4,,1.0,,KATRANDAGI-EMET (KUTAHYA) İlksel
2026.06.01,04:34:37,39.4378,27.9023,13.3,,1.9,,BAYAT-(BALIKESIR) İlksel
2026.06.01,04:40:13,40.4563,29.0892,9.5,,1.3,,BUYUKKUMLA-GEMLIK (BURSA) İlksel
2026.06.01,04:43:43,39.4780,26.2752,12.2,,0.9,,KURUOBA-AYVACIK (CANAKKALE) İlksel
2026.06.01,04:52:44,37.9380,36.6713,8.2,,1.3,,CAMLICA-(KAHRAMANMARAS) İlksel
2026.06.01,04:55:53,38.3287,39.0323,12.5,,1.1,,ILINCAK-SIVRICE (ELAZIG) İlksel
2026.06.01,05:35:34,40.0158,41.3723,8.1,,3.2,3.3,KUCUKTUY-PASINLER (ERZURUM) İlksel
2026.06.01,05:40:37,35.4453,26.5883,5.0,,2.3,,GIRIT ADASI (AKDENIZ) İlksel
2026.06.01,06:25:08,39.4950,24.1097,16.7,,2.7,,YUNANISTAN İlksel
2026.06.01,06:27:21,39.2487,28.9612,18.6,,1.2,,YENILER-SIMAV (KUTAHYA) İlksel
2026.06.01,06:27:34,39.3228,25.9495,6.4,,2.4,,BADEMLI ACIKLARI-CANAKKALE (EGE DENIZI) İlksel
2026.06.01,06:29:28,39.3267,25.9522,8.3,,1.8,,BADEMLI ACIKLARI-CANAKKALE (EGE DENIZI) İlksel
2026.06.01,06:59:44,38.2113,37.7098,19.5,,1.4,,ATMALIKASANLI-ELBISTAN (KAHRAMANMARAS) İlksel
2026.06.01,07:07:07,39.9410,41.3830,13.9,,2.2,,PUSUDERE-PASINLER (ERZURUM) İlksel
2026.06.01,07:11:48,39.1265,28.0990,11.9,,1.8,,ISACA-AKHISAR (MANISA) İlksel
2026.06.01,07:14:36,37.0405,28.4632,9.0,,0.9,,PORTAKALLIK-ULA (MUGLA) İlksel
2026.06.01,07:23:29,35.7635,25.8858,21.0,,1.6,,EGE DENIZI İlksel
2026.06.01,07:54:38,39.1707,28.9390,17.2,,1.0,,GUNEY-SIMAV (KUTAHYA) İlksel
2026.06.01,08:35:35,38.9998,42.8470,8.8,,2.5,,KUCAK-PATNOS (AGRI) İlksel
2026.06.01,08:53:08,38.1055,37.8007,7.7,,1.9,,FINDIKKOY-DOGANSEHIR (MALATYA) İlksel
2026.06.01,09:03:44,35.8215,25.5930,13.9,,1.9,,EGE DENIZI İlksel
2026.06.01,09:10:51,38.7498,27.9562,7.7,,1.6,,HIROGLU-GOLMARMARA (MANISA) İlksel
2026.06.01,09:22:58,37.9990,37.7447,15.6,,1.3,,KUCUKLU-DOGANSEHIR (MALATYA) İlksel
2026.06.01,09:28:56,35.9708,28.7365,12.0,,1.6,,AKDENIZ İlksel
2026.06.01,09:45:51,42.1190,25.1047,5.4,,2.5,,BULGARISTAN İlksel
2026.06.01,10:11:29,39.2150,29.0393,4.7,,0.8,,EGIRLER-SIMAV (KUTAHYA) İlksel
2026.06.01,10:11:58,37.5817,29.4630,8.9,,1.6,,YESILYUVA-ACIPAYAM (DENIZLI) İlksel
2026.06.01,10:13:17,35.0497,25.0010,7.2,,1.9,,GIRIT ADASI (AKDENIZ) İlksel
2026.06.01,10:36:19,38.4302,28.3690,12.1,,1.4,,ORNEKKOY-ALASEHIR (MANISA) İlksel
2026.06.01,10:37:45,38.2847,37.7840,14.6,,1.4,,DUTLU-AKCADAG (MALATYA) İlksel
2026.06.01,10:43:15,39.0210,27.0760,11.9,,1.4,,KURFALLI-BERGAMA (IZMIR) İlksel
2026.06.01,10:44:38,39.1982,28.2030,11.8,,1.5,,YAYLACIK-SINDIRGI (BALIKESIR) İlksel
2026.06.01,11:18:42,39.3090,25.9493,14.5,,1.8,,BADEMLI ACIKLARI-CANAKKALE (EGE DENIZI) İlksel
2026.06.01,11:38:08,37.8418,35.9750,20.8,,1.8,,KOVUKCINAR-FEKE (ADANA) İlksel
2026.06.01,12:39:42,35.0318,25.9887,7.7,,2.1,,GIRIT ADASI (AKDENIZ) İlksel
2026.06.01,12:42:18,39.1840,28.1612,14.4,,3.3,3.3,SINANDEDE-SINDIRGI (BALIKESIR) İlksel
2026.06.01,12:48:20,38.2890,37.7580,5.7,,1.6,,CEVIRME-AKCADAG (MALATYA) İlksel
2026.06.01,12:55:21,36.2748,33.7645,0.0,,1.2,,IMAMUSAGI-SILIFKE (MERSIN) İlksel
2026.06.01,12:57:38,38.8045,37.8868,17.0,,1.6,,GUZELYURT-HEKIMHAN (MALATYA) İlksel
2026.06.01,13:24:45,39.1560,28.1032,14.7,,1.3,,ORMANICI-SINDIRGI (BALIKESIR) İlksel
2026.06.01,13:26:31,42.4407,25.3407,5.7,,1.6,,BULGARISTAN İlksel
2026.06.01,13:31:11,36.4438,33.9862,5.0,,1.3,,YENIBAHCE-SILIFKE (MERSIN) İlksel
2026.06.01,13:31:54,39.6380,29.4677,0.0,,1.2,,TUNCBILEK-TAVSANLI (KUTAHYA) İlksel
2026.06.01,13:41:43,37.5037,27.8810,0.0,,1.1,,MUTLUCA-KARPUZLU (AYDIN) İlksel
2026.06.01,13:53:55,40.2352,31.7328,5.0,,1.9,,DUDAS-BEYPAZARI (ANKARA) İlksel
2026.06.01,13:55:40,35.4035,26.6460,10.3,,2.2,,GIRIT ADASI (AKDENIZ) İlksel
2026.06.01,13:56:43,38.1310,38.5567,11.6,,1.9,,ARIKONAK-SINCIK (ADIYAMAN) İlksel
2026.06.01,14:46:25,38.2660,38.6007,14.1,,1.5,,PELITLI-(MALATYA) İlksel
2026.06.01,15:10:25,39.1757,28.0743,9.5,,1.6,,KERTIL-SINDIRGI (BALIKESIR) İlksel
2026.06.01,15:14:31,35.2368,26.7460,6.3,,2.1,,GIRIT ADASI (AKDENIZ) İlksel
2026.06.01,15:28:22,35.9887,27.4308,44.4,,2.1,,EGE DENIZI İlksel
2026.06.01,15:35:07,37.0758,44.6982,7.8,,3.8,,TUTUNLU-SEMDINLI (HAKKARI) REVIZE01 (2026.06.01 15:35:07)
2026.06.01,15:36:08,39.2797,27.7928,0.0,,1.6,,CERKEZ SULTANIYE-SOMA (MANISA) İlksel
2026.06.01,15:42:22,39.2720,27.7898,0.0,,1.7,,CERKEZ SULTANIYE-SOMA (MANISA) İlksel
2026.06.01,15:49:43,39.0037,27.0960,13.5,,2.4,,CALIBAHCE-BERGAMA (IZMIR) İlksel
2026.06.01,17:41:05,39.2092,28.9913,12.6,,1.4,,EGIRLER-SIMAV (KUTAHYA) İlksel
2026.06.01,17:45:44,38.2680,38.5992,18.4,,1.6,,PELITLI-(MALATYA) İlksel
2026.06.01,18:17:49,39.4845,28.0575,15.1,,1.4,,COMLEKCI-BIGADIC (BALIKESIR) İlksel
2026.06.01,19:31:10,39.8140,33.0473,10.6,,1.5,,TABURLAR-ELMADAG (ANKARA) İlksel
2026.06.01,20:26:35,39.1945,27.9268,6.3,,1.3,,DUALAR-KIRKAGAC (MANISA) İlksel
2026.06.01,20:37:49,37.3790,37.2298,7.5,,1.5,,IGDELI-PAZARCIK (KAHRAMANMARAS) İlksel
2026.06.01,20:56:06,38.1090,37.5010,3.7,,1.7,,SUNNETKOY-ELBISTAN (KAHRAMANMARAS) İlksel
2026.06.01,21:11:27,37.7675,29.3335,11.9,,1.5,,KIZILYER-HONAZ (DENIZLI) İlksel
2026.06.01,21:20:30,39.2767,28.0972,9.0,,1.6,,KUCUKBUKU-SINDIRGI (BALIKESIR) İlksel
2026.06.01,22:19:53,37.0762,30.5755,7.5,,1.9,,YAGCA-DOSEMEALTI (ANTALYA) İlksel
2026.06.01,22:25:42,37.2698,36.7880,9.5,,2.1,,SEKEROBA-TURKOGLU (KAHRAMANMARAS) İlksel
2026.06.01,23:31:21,37.9357,36.5513,5.0,,1.9,,KURUCAOVA-(KAHRAMANMARAS) İlksel
2026.06.01,23:50:38,35.3627,26.6122,1.0,,2.6,,GIRIT ADASI (AKDENIZ) İlksel
2026.06.01,23:51:40,38.5785,30.3115,8.3,,2.1,,NUH-SINANPASA (AFYONKARAHISAR) İlksel
2026.06.01,23:54:04,39.9332,39.6387,9.1,,2.2,,GUNBATUR-KELKIT (GUMUSHANE) İlksel
2026.06.02,00:34:05,39.9958,35.4947,6.7,,1.9,,CEMALOGLU-CEKEREK (YOZGAT) İlksel
2026.06.02,01:12:58,38.2632,25.9280,7.6,,2.0,,SAKIZ ADASI (EGE DENIZI) İlksel
2026.06.02,01:37:33,39.2420,29.0497,1.7,,1.2,,KATRANDAGI-EMET (KUTAHYA) İlksel
2026.06.02,01:44:59,35.8045,25.5870,7.6,,1.6,,EGE DENIZI İlksel
2026.06.02,02:27:06,38.8698,43.5015,10.9,,2.0,,ERMISLER-(VAN) İlksel
2026.06.02,03:57:46,37.7345,35.3683,5.4,,1.5,,KAPUZBASI-YAHYALI (KAYSERI) İlksel
2026.06.02,04:27:33,42.4470,42.5617,5.0,,3.0,2.8,GURCISTAN İlksel
2026.06.02,04:52:05,39.7762,41.6818,5.9,,2.3,,YUKARITEPECIK-TEKMAN (ERZURUM) İlksel
2026.06.02,04:54:29,38.2817,37.7662,10.7,,1.3,,CEVIRME-AKCADAG (MALATYA) İlksel
2026.06.02,04:56:03,39.7573,41.5948,14.3,,1.4,,YUKARIHANBEYI-TEKMAN (ERZURUM) İlksel
2026.06.02,05:38:12,38.2100,38.0793,8.1,,1.4,,ISIKLI-YESILYURT (MALATYA) İlksel
2026.06.02,05:53:07,35.8460,25.5418,13.1,,1.6,,EGE DENIZI İlksel
2026.06.02,05:59:24,35.8213,25.6292,5.0,,2.3,,EGE DENIZI İlksel
2026.06.02,06:18:43,39.1925,28.1607,10.7,,1.3,,YAYLACIK-SINDIRGI (BALIKESIR) İlksel
2026.06.02,06:26:01,39.2397,28.9788,14.2,,0.8,,YEMISLI-SIMAV (KUTAHYA) İlksel
2026.06.02,06:38:29,38.1420,38.4933,8.3,,1.5,,AKSU-SINCIK (ADIYAMAN) İlksel
2026.06.02,07:05:52,39.2348,28.0432,7.8,,1.3,,ALAKIR-SINDIRGI (BALIKESIR) İlksel
2026.06.02,07:23:18,36.6355,25.5937,15.2,,2.2,,EGE DENIZI İlksel
2026.06.02,07:57:23,39.1087,41.0848,9.2,,1.8,,CATAK-KARLIOVA (BINGOL) İlksel
2026.06.02,07:59:03,39.4052,38.7118,9.2,,2.0,,ULUYAMAC-ILIC (ERZINCAN) İlksel
2026.06.02,08:42:36,38.0297,38.1483,2.2,,2.5,,PINARBASI-CELIKHAN (ADIYAMAN) İlksel
2026.06.02,09:44:49,39.8757,40.2373,22.4,,1.7,,CADIRKAYA-TERCAN (ERZINCAN) İlksel
2026.06.02,09:56:35,39.9742,41.4047,11.1,,2.0,,BUYUKTUY-PASINLER (ERZURUM) İlksel
2026.06.02,10:00:40,39.9640,27.7153,10.0,,2.1,,KOCAPINAR-GONEN (BALIKESIR) İlksel
2026.06.02,12:01:54,40.6117,26.5102,4.7,,1.1,,MECIDIYE-KESAN (EDIRNE) İlksel
2026.06.02,13:46:12,37.7353,36.0792,9.1,,2.2,,AKOLUK-FEKE (ADANA) İlksel
2026.06.02,14:28:13,38.2572,38.5238,17.6,,1.8,,GULUMUSAGI-(MALATYA) İlksel
2026.06.02,15:57:57,37.6993,35.3813,5.1,,1.7,,BUYUKCAKIR-YAHYALI (KAYSERI) İlksel
2026.06.02,17:07:24,37.9970,37.4665,5.0,,2.5,,NURHAK (KAHRAMANMARAS) İlksel
2026.06.02,17:34:01,37.9163,27.1622,16.1,,1.6,,KUSADASI KORFEZI (EGE DENIZI) İlksel
2026.06.02,17:54:34,38.9500,37.9893,8.6,,1.7,,BASAK-HEKIMHAN (MALATYA) İlksel
2026.06.02,18:27:38,37.8207,35.3257,5.0,,2.6,,ULUPINAR-YAHYALI (KAYSERI) İlksel
2026.06.02,19:15:30,38.2788,38.6230,11.6,,1.8,,PELITLI-(MALATYA) İlksel
2026.06.02,19:48:39,38.2187,37.7577,3.3,,1.5,,CAVUSLU-DOGANSEHIR (MALATYA) İlksel
2026.06.02,20:38:40,36.0730,28.3788,19.3,,1.7,,AKDENIZ İlksel
2026.06.02,20:56:51,38.7033,27.9820,4.3,,1.6,,BEYLER-GOLMARMARA (MANISA) İlksel
2026.06.02,21:27:28,39.1955,27.7762,0.0,,1.9,,KARACAKAS-SOMA (MANISA) İlksel
2026.06.02,21:35:13,38.6900,43.5405,5.0,,3.3,3.4,KOCKOY-(VAN) İlksel
2026.06.02,22:01:55,38.2530,37.6908,9.4,,1.5,,HARUNUSAGI-AKCADAG (MALATYA) İlksel
2026.06.02,22:12:05,37.8458,29.6508,13.4,,1.9,,CARDAK (DENIZLI) İlksel
2026.06.02,22:27:36,41.6067,26.4417,8.8,,1.6,,BOSNA-(EDIRNE) İlksel
2026.06.02,22:39:13,39.2208,28.9632,11.4,,0.9,,YEMISLI-SIMAV (KUTAHYA) İlksel
2026.06.02,22:43:31,38.5740,39.3987,10.3,,1.4,,KARASAZ-(ELAZIG) İlksel
2026.06.02,22:51:30,39.4828,25.7642,11.3,,1.6,,EGE DENIZI İlksel
2026.06.02,23:00:25,36.6732,29.3497,5.0,,1.9,,ATLIDERE-FETHIYE (MUGLA) İlksel
2026.06.02,23:20:19,38.2825,38.1670,8.0,,1.4,,SEYITUSAGI-YESILYURT (MALATYA) İlksel
2026.06.02,23:21:25,37.8388,29.6993,12.7,,2.1,,CARDAK (DENIZLI) İlksel
2026.06.02,23:32:09,37.8400,29.6418,10.2,,2.0,,CARDAK (DENIZLI) İlksel
2026.06.02,23:58:39,38.2612,37.7250,11.8,,1.4,,HARUNUSAGI-AKCADAG (MALATYA) İlksel
2026.06.03,00:24:10,37.5938,37.3202,6.1,,1.7,,KARAAGAC-PAZARCIK (KAHRAMANMARAS) İlksel
2026.06.03,01:44:33,37.1170,28.3468,8.2,,1.4,,DOGAN-(MUGLA) İlksel
2026.06.03,01:46:31,37.9092,36.6838,8.8,,1.4,,TEKIR-(KAHRAMANMARAS) İlksel
2026.06.03,01:58:35,38.1553,36.6603,14.0,,1.3,,YENIYAPAN-GOKSUN (KAHRAMANMARAS) İlksel
2026.06.03,02:07:07,37.6332,36.0885,5.9,,2.1,,ESENLI-SUMBAS (OSMANIYE) İlksel
2026.06.03,02:10:49,37.8837,36.5343,6.7,,1.4,,KUMARLI-(KAHRAMANMARAS) İlksel
2026.06.03,02:22:39,38.0257,36.2887,4.7,,1.6,,KAZANDERE-GOKSUN (KAHRAMANMARAS) İlksel
2026.06.03,02:25:33,37.1223,29.1382,17.9,,1.8,,KARAISMAILLER-ACIPAYAM (DENIZLI) İlksel
2026.06.03,02:29:50,38.7372,26.0253,6.4,,2.5,,EGE DENIZI İlksel
2026.06.03,02:36:57,38.0597,37.4147,5.0,,1.5,,AGCASAR-NURHAK (KAHRAMANMARAS) İlksel
2026.06.03,03:37:52,37.8120,29.8432,15.2,,1.2,,GEMIS-CARDAK (DENIZLI) İlksel
2026.06.03,03:47:44,39.1637,28.1587,10.0,,1.4,,SINANDEDE-SINDIRGI (BALIKESIR) İlksel
2026.06.03,03:55:32,38.3205,38.8197,12.7,,1.7,,BOLUKKAYA-PUTURGE (MALATYA) İlksel
2026.06.03,04:02:01,38.1283,37.0165,6.2,,1.4,,CALIS-ELBISTAN (KAHRAMANMARAS) İlksel
2026.06.03,04:26:02,37.8640,36.6270,6.4,,2.0,,DONGEL-(KAHRAMANMARAS) İlksel
2026.06.03,04:47:08,37.6555,42.6650,2.6,,2.0,,DOGANKOY-PERVARI (SIIRT) İlksel
2026.06.03,05:09:06,37.9683,27.1000,10.4,,1.7,,KUSADASI KORFEZI (EGE DENIZI) İlksel
2026.06.03,05:15:27,36.2868,28.5230,9.2,,2.2,,AKDENIZ İlksel
2026.06.03,05:22:02,39.8895,40.0477,4.6,,2.1,,BOLUKOVA-CAYIRLI (ERZINCAN) İlksel
2026.06.03,05:34:31,36.2505,28.5013,8.9,,2.1,,AKDENIZ İlksel
2026.06.03,05:36:54,39.4165,28.0093,14.4,,1.6,,ELYAPAN-BIGADIC (BALIKESIR) İlksel
2026.06.03,05:56:41,38.4797,37.9720,2.6,,1.1,,KEKLIKPINARI-AKCADAG (MALATYA) İlksel
2026.06.03,06:30:56,36.0092,27.1618,9.1,,1.3,,EGE DENIZI İlksel
2026.06.03,06:37:06,38.8905,41.5653,5.0,,1.9,,TASOLUK-(MUS) İlksel
2026.06.03,06:47:27,39.1580,27.8408,7.5,,1.7,,GELENBE-KIRKAGAC (MANISA) İlksel
2026.06.03,06:57:18,38.3108,38.2385,12.0,,1.3,,YAKINCA-YESILYURT (MALATYA) İlksel
2026.06.03,08:17:45,38.1080,28.8687,18.1,,1.8,,ALACAOGLU-BULDAN (DENIZLI) İlksel
2026.06.03,08:23:51,38.1318,37.6287,5.0,,1.6,,TAPKIRANKALE-ELBISTAN (KAHRAMANMARAS) İlksel
2026.06.03,08:40:43,39.2065,29.0120,2.4,,1.0,,EGIRLER-SIMAV (KUTAHYA) İlksel
2026.06.03,08:52:44,38.2017,26.0812,13.1,,2.0,,SAKIZ ADASI (EGE DENIZI) İlksel
2026.06.03,09:06:29,37.7337,36.6695,9.4,,1.5,,MIMAR SINAN-(KAHRAMANMARAS) İlksel
2026.06.03,10:01:06,38.4080,38.8703,5.0,,2.3,,YAYLANLI-BASKIL (ELAZIG) İlksel
2026.06.03,10:43:07,36.4008,34.0383,0.0,,0.8,,ATAKENT-SILIFKE (MERSIN) İlksel
2026.06.03,11:44:21,38.3172,38.2535,5.6,,1.6,,BOSTANBASI-YESILYURT (MALATYA) İlksel
2026.06.03,12:23:41,38.1168,38.4412,19.2,,1.4,,KARAGOL-CELIKHAN (ADIYAMAN) İlksel
2026.06.03,12:36:24,39.2367,29.0157,11.4,,1.9,,YEMISLI-SIMAV (KUTAHYA) İlksel
2026.06.03,12:45:26,36.2868,33.7325,0.0,,1.2,,KIRTIL-SILIFKE (MERSIN) İlksel
2026.06.03,12:54:18,41.1165,28.9600,0.0,,0.7,,KAGITHANE (ISTANBUL) İlksel
2026.06.03,13:01:20,35.8783,28.1913,8.3,,1.8,,AKDENIZ REVIZE01 (2026.06.03 13:01:20)
2026.06.03,13:06:11,38.8937,37.9633,5.2,,1.8,,DEVECI-HEKIMHAN (MALATYA) İlksel
2026.06.03,13:10:59,38.2043,28.3533,5.3,,1.0,,SARIKAYA-KIRAZ (IZMIR) İlksel
2026.06.03,13:12:07,37.4847,37.2498,6.1,,4.4,4.4,ARMUTLU-PAZARCIK (KAHRAMANMARAS) İlksel
2026.06.03,13:35:26,39.2182,28.9653,18.2,,1.0,,YEMISLI-SIMAV (KUTAHYA) İlksel
2026.06.03,13:54:56,39.1787,28.1313,9.3,,1.3,,ORMANICI-SINDIRGI (BALIKESIR) İlksel
2026.06.03,14:17:24,40.9523,39.8670,6.3,,1.6,,YOMRA (TRABZON) İlksel
2026.06.03,14:24:52,39.1025,28.0980,10.1,,1.5,,KOCAKAGAN-AKHISAR (MANISA) İlksel
2026.06.03,14:57:38,39.1490,27.7693,5.0,,1.5,,SILEDIK-KIRKAGAC (MANISA) İlksel
2026.06.03,15:02:11,36.2357,27.5803,26.3,,2.4,,DATCA ACIKLARI-MUGLA (EGE DENIZI) İlksel
2026.06.03,15:25:55,39.2835,28.9002,12.9,,1.2,,KAYALIDERE-SIMAV (KUTAHYA) İlksel
2026.06.03,15:36:11,39.2465,28.9552,11.8,,2.4,,YENILER-SIMAV (KUTAHYA) İlksel
2026.06.03,16:49:32,37.1062,36.9085,2.8,,2.9,,HAMIDIYE-NURDAGI (GAZIANTEP) İlksel
2026.06.03,16:51:57,38.0513,28.0948,5.0,,1.0,,BICAKCI-ODEMIS (IZMIR) İlksel
2026.06.03,16:57:04,40.1640,23.2622,5.2,,1.3,,YUNANISTAN İlksel
2026.06.03,18:29:06,37.8238,29.7125,9.8,,1.7,,CARDAK (DENIZLI) İlksel
2026.06.03,18:49:09,38.2775,38.6007,1.2,,1.9,,PELITLI-(MALATYA) İlksel
2026.06.03,19:40:32,40.1082,23.2598,4.6,,2.0,,YUNANISTAN İlksel
2026.06.03,21:00:41,35.9100,28.1443,86.2,,3.4,3.3,AKDENIZ İlksel
2026.06.03,21:33:46,38.7892,29.2305,4.7,,1.9,,DERBENT-(USAK) İlksel
2026.06.03,21:57:54,38.1218,38.4437,2.6,,2.3,,KARAGOL-CELIKHAN (ADIYAMAN) İlksel
2026.06.03,21:58:11,39.1598,28.1920,10.0,,1.9,,AKTAS-SINDIRGI (BALIKESIR) İlksel
2026.06.03,23:54:56,36.4730,29.9272,24.9,,1.5,,CAMLIBEL-FINIKE (ANTALYA) İlksel
2026.06.04,00:02:11,36.9965,28.9875,16.3,,1.0,,KARACAM-KOYCEGIZ (MUGLA) İlksel
2026.06.04,00:04:53,39.0917,40.7773,8.0,,1.4,,COBANTASI-(BINGOL) İlksel
2026.06.04,00:17:39,37.9260,36.4262,8.6,,1.8,,FINDIKLIKOYAK-GOKSUN (KAHRAMANMARAS) İlksel
2026.06.04,01:07:15,39.1633,28.2450,10.3,,1.9,,BAYRAKLI-SINDIRGI (BALIKESIR) İlksel
2026.06.04,01:55:37,39.1918,28.0367,5.2,,1.6,,SAHINKAYA-SINDIRGI (BALIKESIR) İlksel
2026.06.04,02:03:10,39.4250,36.1533,5.0,,2.0,,ORENYURT-GEMEREK (SIVAS) İlksel
2026.06.04,02:06:15,40.7817,27.7725,12.5,,1.1,,MARMARA DENIZI İlksel
2026.06.04,02:34:18,39.0877,28.3547,10.7,,1.4,,KOBAKLAR-GORDES (MANISA) İlksel
2026.06.04,02:41:15,37.7705,28.9502,2.1,,0.9,,ALTINDERE-(DENIZLI) İlksel
2026.06.04,02:54:38,37.8592,36.1423,5.1,,2.1,,DEGIRMENCIUSAGI-SAIMBEYLI (ADANA) İlksel
2026.06.04,02:55:35,39.1767,28.9682,18.5,,1.4,,NASA-SIMAV (KUTAHYA) İlksel
2026.06.04,03:44:02,38.7088,39.9643,5.0,,3.1,3.3,PALU (ELAZIG) İlksel
2026.06.04,03:52:59,38.7597,40.0807,5.0,,2.3,,YUKARIMIRAHMET-KOVANCILAR (ELAZIG) İlksel
2026.06.04,03:58:53,39.2678,28.9757,5.6,,2.0,,KARAKOCA-SIMAV (KUTAHYA) İlksel
2026.06.04,03:59:40,39.2568,28.9627,5.2,,2.0,,YENILER-SIMAV (KUTAHYA) İlksel
2026.06.04,04:01:30,39.2228,28.9883,8.1,,0.7,,YEMISLI-SIMAV (KUTAHYA) İlksel
2026.06.04,04:06:14,39.2260,28.9798,13.6,,1.1,,YEMISLI-SIMAV (KUTAHYA) İlksel
2026.06.04,04:23:44,39.2545,28.9885,9.9,,1.4,,YEMISLI-SIMAV (KUTAHYA) İlksel
2026.06.04,04:29:57,35.8953,28.1378,75.3,,2.5,,AKDENIZ İlksel
2026.06.04,05:33:37,36.9637,28.8053,18.2,,0.9,,PINAR-KOYCEGIZ (MUGLA) İlksel
2026.06.04,05:56:22,35.9028,28.1228,17.8,,1.8,,AKDENIZ İlksel
2026.06.04,06:20:03,38.4863,39.3238,7.4,,3.2,3.4,GUNEYKOY-SIVRICE (ELAZIG) İlksel
2026.06.04,06:55:00,35.2788,33.6582,16.2,,1.4,,KIBRIS-DEGIRMENLIK İlksel
2026.06.04,07:00:46,39.2382,29.0155,3.9,,0.9,,YEMISLI-SIMAV (KUTAHYA) İlksel
2026.06.04,07:18:48,38.1558,31.4962,22.6,,0.9,,ASLANDOGMUS-SARKIKARAAGAC (ISPARTA) İlksel
2026.06.04,07:23:31,39.2142,28.1382,5.2,,1.0,,MANDIRA-SINDIRGI (BALIKESIR) İlksel
2026.06.04,07:50:17,38.9307,27.0442,5.3,,1.5,,CANDARLI KORFEZI (EGE DENIZI) İlksel
2026.06.04,08:03:57,40.6147,26.9237,12.6,,1.3,,KAVAKKOY-GELIBOLU (CANAKKALE) İlksel
2026.06.04,08:30:13,38.2497,38.7533,5.0,,2.0,,BALPINARI-PUTURGE (MALATYA) İlksel
2026.06.04,08:54:45,39.0722,27.4872,0.0,,1.6,,ARPASEKI-KINIK (IZMIR) İlksel
2026.06.04,09:41:33,38.7262,25.8457,6.7,,1.8,,EGE DENIZI REVIZE01 (2026.06.04 09:41:36)
2026.06.04,10:03:20,38.0463,24.9293,4.5,,2.0,,EGE DENIZI İlksel
2026.06.04,10:24:22,38.0203,28.9550,5.2,,2.0,,MAHMUTLU-BULDAN (DENIZLI) İlksel
2026.06.04,11:01:29,39.1645,28.9050,11.3,,1.1,,GOLKOY-SIMAV (KUTAHYA) İlksel
2026.06.04,11:23:53,38.9863,42.3697,2.0,,2.1,,SOGUTLU-BULANIK (MUS) İlksel
2026.06.04,11:45:48,36.7630,31.3038,23.5,,1.8,,SIDE ACIKLARI-ANTALYA (AKDENIZ) İlksel
2026.06.04,11:55:21,37.7948,27.6275,20.5,,1.6,,GUDUSLU-KOCARLI (AYDIN) İlksel
2026.06.04,11:57:09,38.4283,38.7918,4.1,,1.6,,KALE (MALATYA) İlksel
2026.06.04,12:04:00,39.2630,28.9770,12.6,,1.5,,YEMISLI-SIMAV (KUTAHYA) İlksel
2026.06.04,12:18:06,37.7592,27.1107,4.7,,2.8,,KUSADASI KORFEZI (EGE DENIZI) İlksel
2026.06.04,12:34:15,39.3197,25.9487,8.0,,2.0,,BADEMLI ACIKLARI-CANAKKALE (EGE DENIZI) İlksel
2026.06.04,12:34:52,37.9695,36.2705,5.0,,2.5,,KAZANDERE-GOKSUN (KAHRAMANMARAS) İlksel
2026.06.04,12:55:10,37.9967,38.0508,3.4,,1.0,,GUZELKOY-DOGANSEHIR (MALATYA) İlksel
2026.06.04,13:14:36,40.6260,30.2742,0.0,,1.4,,IKRAMIYE-SAPANCA (SAKARYA) İlksel
2026.06.04,13:17:10,39.2075,28.1353,8.8,,2.4,,ORMANICI-SINDIRGI (BALIKESIR) İlksel
2026.06.04,14:17:28,39.7665,27.8627,4.9,,1.1,,KARAKOLKOY-(BALIKESIR) İlksel
2026.06.04,15:10:57,39.2213,28.1642,8.3,,2.3,,YAYLACIK-SINDIRGI (BALIKESIR) İlksel
2026.06.04,15:15:54,37.8532,36.4392,3.8,,2.8,,KUCUKCAMURLU-GOKSUN (KAHRAMANMARAS) İlksel
2026.06.04,15:57:53,39.1543,28.2365,15.4,,1.5,,BAYRAKLI-SINDIRGI (BALIKESIR) İlksel
2026.06.04,15:59:38,38.2347,38.1278,0.0,,2.3,,GORGU-YESILYURT (MALATYA) İlksel
2026.06.04,16:02:37,38.2257,38.1513,7.2,,2.0,,ATALAR-YESILYURT (MALATYA) İlksel
2026.06.04,16:20:13,38.1870,37.6533,11.1,,1.5,,HASANALILI-ELBISTAN (KAHRAMANMARAS) İlksel
2026.06.04,16:25:26,38.8727,41.5582,5.0,,1.8,,TASOLUK-(MUS) İlksel
2026.06.04,16:34:40,38.3947,38.8152,8.4,,1.8,,KARAAGAC-KALE (MALATYA) İlksel
2026.06.04,17:01:32,37.8037,36.1480,1.5,,2.4,,AYVACIK-SAIMBEYLI (ADANA) İlksel
2026.06.04,17:06:57,39.2008,28.1703,14.4,,1.3,,YAYLACIK-SINDIRGI (BALIKESIR) İlksel
2026.06.04,18:29:23,39.2267,28.9495,15.7,,1.4,,YEMISLI-SIMAV (KUTAHYA) İlksel
2026.06.04,18:55:10,38.7675,37.5890,1.6,,2.0,,AYVALI-DARENDE (MALATYA) İlksel
2026.06.04,19:29:12,40.8660,34.5603,3.1,,2.0,,BEYOGLAN-ISKILIP (CORUM) İlksel
2026.06.04,20:31:01,38.0933,37.7360,7.6,,1.6,,SOGUT-DOGANSEHIR (MALATYA) İlksel
2026.06.04,20:49:26,38.0387,37.4303,17.1,,1.3,,NURHAK (KAHRAMANMARAS) İlksel
2026.06.04,21:18:55,34.6602,33.3278,18.1,,2.4,,AKDENIZ İlksel
2026.06.04,21:34:18,39.2452,28.9428,6.6,,1.9,,YENILER-SIMAV (KUTAHYA) İlksel
2026.06.04,21:36:05,40.1598,31.7787,2.2,,2.1,,CANTIRLI-BEYPAZARI (ANKARA) İlksel
2026.06.04,21:46:13,38.2765,38.6045,5.3,,2.0,,PELITLI-(MALATYA) İlksel
2026.06.04,21:47:52,38.2787,38.5558,13.4,,1.5,,TANISIK-(MALATYA) İlksel
2026.06.04,21:57:09,37.8405,36.5255,5.8,,1.5,,KUMARLI-(KAHRAMANMARAS) İlksel
2026.06.04,21:57:09,39.2077,28.1823,9.0,,1.4,,YAYLACIK-SINDIRGI (BALIKESIR) İlksel
2026.06.04,22:00:31,37.7083,36.0482,5.0,,1.8,,TOKMANAKLI-FEKE (ADANA) İlksel
2026.06.04,22:34:27,35.9225,30.2670,5.0,,2.7,,AKDENIZ İlksel
2026.06.04,23:16:01,40.0022,41.4077,3.3,,1.6,,KUCUKTUY-PASINLER (ERZURUM) İlksel
2026.06.04,23:17:54,40.7762,32.7543,5.0,,3.0,3.0,SARAYCIK-CERKES (CANKIRI) İlksel
2026.06.04,23:29:22,38.2808,37.7603,5.2,,2.6,,CEVIRME-AKCADAG (MALATYA) İlksel
2026.06.04,23:31:15,38.4232,28.3777,8.7,,1.2,,ORNEKKOY-ALASEHIR (MANISA) İlksel
2026.06.04,23:58:56,37.7577,36.0013,6.8,,1.8,,AKOLUK-FEKE (ADANA) İlksel
2026.06.05,00:04:47,34.6378,33.3120,18.0,,2.2,,AKDENIZ İlksel
2026.06.05,00:08:48,38.9960,27.0927,8.9,,2.0,,CALIBAHCE-BERGAMA (IZMIR) İlksel
2026.06.05,00:11:45,40.8140,28.1557,15.3,,1.3,,MARMARA DENIZI İlksel
2026.06.05,00:30:59,39.1855,28.2067,7.8,,1.0,,AKTAS-SINDIRGI (BALIKESIR) İlksel
2026.06.05,01:03:41,40.4235,29.1040,5.0,,1.2,,GEMLIK KORFEZI (MARMARA DENIZI) İlksel
2026.06.05,01:04:51,38.0712,37.5955,14.5,,1.5,,GOVDELI-DOGANSEHIR (MALATYA) İlksel
2026.06.05,01:05:05,38.3402,28.1892,4.4,,1.0,,CATAK-KIRAZ (IZMIR) İlksel
2026.06.05,01:25:37,38.2565,37.7542,5.0,,3.0,3.0,CEVIRME-AKCADAG (MALATYA) İlksel
2026.06.05,01:46:16,38.1375,37.0178,5.0,,1.8,,CALIS-ELBISTAN (KAHRAMANMARAS) İlksel
2026.06.05,01:56:11,36.0282,27.2955,10.9,,2.0,,EGE DENIZI İlksel
2026.06.05,03:02:12,39.2058,28.1535,9.9,,1.9,,YAYLACIK-SINDIRGI (BALIKESIR) İlksel
2026.06.05,03:03:40,40.5462,30.6075,9.4,,1.1,,HANYATAK-AKYAZI (SAKARYA) İlksel
2026.06.05,03:09:59,34.8563,26.0185,5.0,,3.2,3.3,GIRIT ADASI ACIKLARI (AKDENIZ) İlksel
2026.06.05,03:32:48,39.1732,28.1680,10.0,,1.3,,SINANDEDE-SINDIRGI (BALIKESIR) İlksel
2026.06.05,03:39:04,37.7982,36.1165,5.4,,1.5,,AYVACIK-SAIMBEYLI (ADANA) İlksel
2026.06.05,03:52:27,39.6075,38.5685,8.4,,1.3,,BOZYAYLA-ILIC (ERZINCAN) İlksel
2026.06.05,03:56:21,40.6883,27.7425,5.0,,0.7,,SARAYLAR-MARMARA (BALIKESIR) İlksel
2026.06.05,04:45:59,39.6298,27.7250,7.0,,1.6,,ALIAGA-(BALIKESIR) İlksel
2026.06.05,04:48:32,39.1047,28.3282,10.9,,1.4,,YUREGIL-SINDIRGI (BALIKESIR) İlksel
2026.06.05,04:59:33,40.8295,27.8492,16.8,,1.6,,MARMARA DENIZI İlksel
2026.06.05,05:05:07,37.8435,29.6983,16.1,,1.2,,CARDAK (DENIZLI) İlksel
2026.06.05,05:16:17,38.5447,26.8112,5.0,,1.5,,IZMIR KORFEZI (EGE DENIZI) İlksel
2026.06.05,05:19:44,38.1017,36.5190,5.0,,2.2,,ALICLIBUCAK-GOKSUN (KAHRAMANMARAS) İlksel
2026.06.05,05:24:03,38.1967,37.7033,13.4,,1.4,,ATMALIKASANLI-ELBISTAN (KAHRAMANMARAS) İlksel
2026.06.05,05:29:36,39.6650,40.9587,4.2,,1.4,,YARMAK-CAT (ERZURUM) İlksel
2026.06.05,05:39:12,39.3250,38.2118,6.4,,0.6,,CIGDEMLI-DIVRIGI (SIVAS) İlksel
2026.06.05,05:58:51,38.4510,26.4323,7.6,,2.2,,DALYANKOY ACIKLARI-IZMIR (EGE DENIZI) İlksel
2026.06.05,06:00:20,40.8037,31.4547,2.2,,1.5,,KIZILAGIL-(BOLU) İlksel
2026.06.05,06:44:53,39.4342,24.1420,16.9,,2.0,,YUNANISTAN İlksel
2026.06.05,07:49:17,36.0688,31.6603,31.2,,1.4,,AKDENIZ İlksel
2026.06.05,07:53:17,40.0182,41.4230,6.4,,2.0,,KUCUKTUY-PASINLER (ERZURUM) İlksel
2026.06.05,07:55:37,40.5262,26.0867,19.1,,1.2,,SAROS KORFEZI (EGE DENIZI) İlksel
2026.06.05,08:50:17,38.1047,38.3832,11.4,,1.4,,KARAGOL-CELIKHAN (ADIYAMAN) İlksel
2026.06.05,09:33:35,36.5968,36.2570,1.4,,2.2,,GUZELKOY-ISKENDERUN (HATAY) İlksel
2026.06.05,09:56:33,39.2090,29.0458,3.8,,2.4,,KARACAOREN-SIMAV (KUTAHYA) İlksel
2026.06.05,09:57:12,40.9238,35.8770,3.6,,1.4,,LADIK (SAMSUN) İlksel
2026.06.05,10:06:15,38.2848,37.7263,7.5,,1.9,,CEVIRME-AKCADAG (MALATYA) İlksel
2026.06.05,10:42:19,40.5120,27.4990,5.0,,1.8,,AVSA-MARMARA (BALIKESIR) İlksel
2026.06.05,11:13:34,38.1353,31.0518,7.8,,2.4,,BAGILLI-GELENDOST (ISPARTA) İlksel
2026.06.05,11:17:26,39.0152,28.2865,3.4,,1.3,,EFENDILI-GORDES (MANISA) İlksel
2026.06.05,11:21:33,38.4103,27.2867,5.2,,1.1,,GOKDERE-BORNOVA (IZMIR) İlksel
2026.06.05,11:27:09,38.2788,37.5447,5.3,,2.3,,YAPILIPINAR-ELBISTAN (KAHRAMANMARAS) İlksel
2026.06.05,11:27:27,38.1390,31.0145,5.2,,1.0,,GELENDOST (ISPARTA) İlksel
2026.06.05,12:16:47,38.2530,38.1385,4.5,,1.3,,GORGU-YESILYURT (MALATYA) İlksel
2026.06.05,12:38:45,39.4767,28.1123,5.0,,1.5,,DEGIRMENLI-BIGADIC (BALIKESIR) İlksel
2026.06.05,12:42:19,39.6650,39.8092,15.6,,1.6,,CARDAKLI-UZUMLU (ERZINCAN) İlksel
2026.06.05,13:21:51,37.1173,27.8697,0.0,,1.8,,BAGDAMLARI-MILAS (MUGLA) İlksel
2026.06.05,13:57:17,38.1280,36.6910,14.8,,1.3,,KARAOMER-GOKSUN (KAHRAMANMARAS) İlksel
2026.06.05,14:25:52,36.1297,24.1345,6.8,,2.3,,GIRIT ADASI (AKDENIZ) İlksel
2026.06.05,16:01:21,39.1820,28.1523,10.8,,2.7,,SINANDEDE-SINDIRGI (BALIKESIR) İlksel
2026.06.05,16:31:28,38.1940,37.7030,7.9,,2.0,,ATMALIKASANLI-ELBISTAN (KAHRAMANMARAS) İlksel
2026.06.05,16:50:54,38.5183,40.6867,4.9,,2.5,,KILICLI-LICE (DIYARBAKIR) İlksel
2026.06.05,17:14:58,39.2432,28.1807,5.1,,1.5,,SINDIRGI (BALIKESIR) İlksel
2026.06.05,17:16:57,36.6363,25.7462,6.3,,1.8,,EGE DENIZI İlksel
2026.06.05,17:29:35,37.9483,36.2848,14.3,,1.7,,KAZANDERE-GOKSUN (KAHRAMANMARAS) İlksel
2026.06.05,17:51:16,40.7815,31.5333,8.7,,2.0,,KIZILAGIL-(BOLU) İlksel
2026.06.05,17:56:41,39.4637,25.3287,1.7,,1.9,,EGE DENIZI İlksel
2026.06.05,18:36:44,37.7652,36.0603,5.1,,1.5,,AKOLUK-FEKE (ADANA) İlksel
2026.06.05,18:39:10,37.7212,36.0725,15.3,,2.1,,TOKMANAKLI-FEKE (ADANA) İlksel
2026.06.05,19:30:47,40.2393,31.7768,6.3,,1.9,,KOZAGAC-BEYPAZARI (ANKARA) İlksel
2026.06.05,19:57:43,38.6273,37.5422,1.0,,2.1,,GOLLUCE-DARENDE (MALATYA) İlksel
2026.06.05,20:39:57,38.2940,35.9205,6.4,,1.6,,CULHA-TOMARZA (KAYSERI) İlksel
2026.06.05,20:42:19,38.2853,35.9310,5.8,,2.1,,TAHTAKEMER-TOMARZA (KAYSERI) İlksel
2026.06.05,21:15:55,36.6775,29.3413,5.9,,1.4,,ATLIDERE-FETHIYE (MUGLA) İlksel
2026.06.05,21:33:37,37.8302,29.6833,8.0,,2.3,,CARDAK (DENIZLI) İlksel
2026.06.05,21:41:51,38.0197,37.4948,5.0,,1.2,,TATLAR-NURHAK (KAHRAMANMARAS) İlksel
2026.06.05,21:53:44,39.2035,28.0187,8.8,,1.6,,SAHINKAYA-SINDIRGI (BALIKESIR) İlksel
2026.06.05,22:26:06,37.8560,29.7407,7.4,,1.7,,DARICILAR-DAZKIRI (AFYONKARAHISAR) İlksel
2026.06.05,22:30:24,39.8878,43.1672,8.8,,2.1,,TAYPINAR-(AGRI) İlksel
2026.06.05,22:44:47,36.3247,29.7088,6.7,,1.7,,KIZILAGAC-KAS (ANTALYA) İlksel
2026.06.05,22:47:55,38.3538,38.7863,5.2,,1.5,,CANAKCI-KALE (MALATYA) İlksel
2026.06.05,23:45:32,38.1452,37.0237,5.7,,1.9,,ORTAKLI-AFSIN (KAHRAMANMARAS) İlksel
2026.06.05,23:46:10,39.2435,29.0263,3.9,,2.0,,KATRANDAGI-EMET (KUTAHYA) İlksel
2026.06.05,23:49:33,39.2230,29.0130,12.0,,1.6,,EGIRLER-SIMAV (KUTAHYA) İlksel
2026.06.06,00:11:16,39.2313,29.0227,12.0,,1.6,,YEMISLI-SIMAV (KUTAHYA) İlksel
2026.06.06,00:23:41,40.1587,31.7095,3.5,,2.2,,SEKLI-BEYPAZARI (ANKARA) İlksel
2026.06.06,00:58:10,38.0272,37.5152,13.0,,1.4,,TATLAR-NURHAK (KAHRAMANMARAS) İlksel
2026.06.06,01:00:20,38.2820,37.5092,15.7,,1.2,,YALAKKOY-ELBISTAN (KAHRAMANMARAS) İlksel
2026.06.06,01:10:36,37.9467,36.5248,16.5,,1.6,,GOLPINAR-GOKSUN (KAHRAMANMARAS) İlksel
2026.06.06,01:37:46,38.0088,36.0475,30.0,,1.5,,KANDILLI-SAIMBEYLI (ADANA) İlksel
2026.06.06,01:55:45,38.6043,30.3045,5.1,,1.4,,NUH-SINANPASA (AFYONKARAHISAR) İlksel
2026.06.06,01:58:00,39.2818,42.2023,16.0,,2.0,,SIRADERE-BULANIK (MUS) İlksel
2026.06.06,02:01:17,39.1798,28.1435,12.2,,1.5,,SINANDEDE-SINDIRGI (BALIKESIR) İlksel
2026.06.06,02:05:44,39.2187,27.7712,5.1,,1.5,,KARACAKAS-SOMA (MANISA) İlksel
2026.06.06,02:17:09,37.9028,28.7747,7.1,,3.3,3.1,TEKKEKOY-SARAYKOY (DENIZLI) İlksel
2026.06.06,02:19:08,38.3117,38.2987,4.8,,2.0,,MALATYA İlksel
2026.06.06,02:27:58,39.7377,25.4665,8.7,,1.1,,EGE DENIZI İlksel
2026.06.06,03:00:19,39.1963,25.7515,7.9,,1.4,,EGE DENIZI İlksel
2026.06.06,03:01:22,39.1673,25.7573,5.5,,1.9,,EGE DENIZI İlksel
2026.06.06,03:20:36,39.1097,28.3545,14.9,,1.6,,KOBAKLAR-GORDES (MANISA) İlksel
2026.06.06,03:34:01,39.1953,27.7640,6.8,,1.8,,KARACAKAS-SOMA (MANISA) İlksel
2026.06.06,04:12:01,40.1848,31.7682,8.6,,2.0,,HIRKATEPE-BEYPAZARI (ANKARA) İlksel
2026.06.06,04:27:38,38.0035,36.2720,5.0,,2.4,,KAZANDERE-GOKSUN (KAHRAMANMARAS) İlksel
2026.06.06,04:37:55,38.8497,43.5873,11.9,,2.4,,AKCIFT-(VAN) İlksel
2026.06.06,04:58:12,38.3537,38.7088,15.4,,1.6,,BENTKOY-KALE (MALATYA) İlksel
2026.06.06,05:11:21,36.1445,28.9345,7.8,,1.9,,AKDENIZ İlksel
2026.06.06,05:18:04,36.2695,33.9282,8.4,,2.0,,TASUCU-SILIFKE (MERSIN) İlksel
2026.06.06,05:21:49,38.9853,27.0602,10.1,,1.4,,TEKKEDERE-BERGAMA (IZMIR) İlksel
2026.06.06,05:36:24,38.0815,28.9665,16.9,,1.2,,HAMDIYE-GUNEY (DENIZLI) İlksel
2026.06.06,06:26:46,40.4945,42.3292,19.8,,1.3,,CATALELMA-SENKAYA (ERZURUM) İlksel
2026.06.06,06:48:07,39.1975,27.7822,5.4,,2.0,,KARACAKAS-SOMA (MANISA) İlksel
2026.06.06,07:02:31,37.8432,29.6997,8.9,,1.4,,CARDAK (DENIZLI) İlksel
2026.06.06,08:22:05,37.9515,36.5233,2.0,,2.4,,GOLPINAR-GOKSUN (KAHRAMANMARAS) İlksel
2026.06.06,08:42:30,37.0193,28.5147,9.4,,1.8,,ORNEKKOY-ULA (MUGLA) İlksel
2026.06.06,09:07:29,37.8818,29.1930,7.8,,2.0,,IRLIGANLI-(DENIZLI) İlksel
2026.06.06,09:11:42,36.6760,25.7263,8.6,,2.1,,EGE DENIZI İlksel
2026.06.06,09:18:31,37.8783,29.2153,7.0,,1.8,,IRLIGANLI-(DENIZLI) İlksel
2026.06.06,10:56:53,37.8900,29.1872,16.3,,1.7,,IRLIGANLI-(DENIZLI) İlksel
2026.06.06,11:50:59,39.2010,27.9725,12.7,,1.8,,AKKOCALI-AKHISAR (MANISA) İlksel
2026.06.06,11:59:19,38.9108,37.9310,8.3,,1.6,,GUVENC-HEKIMHAN (MALATYA) İlksel
2026.06.06,12:08:14,39.3857,38.5047,5.0,,2.8,,COPLER-ILIC (ERZINCAN) İlksel
2026.06.06,12:31:00,36.9382,27.5872,12.2,,1.3,,GOKOVA KORFEZI (EGE DENIZI) İlksel
2026.06.06,12:32:37,36.3510,34.0702,13.5,,1.2,,ARKUM-SILIFKE (MERSIN) İlksel
2026.06.06,12:53:03,39.4885,28.1452,8.2,,1.3,,ISKELE-BIGADIC (BALIKESIR) İlksel
2026.06.06,12:53:39,36.2712,33.7205,8.5,,1.0,,AKDERE-SILIFKE (MERSIN) İlksel
2026.06.06,13:03:45,39.0877,27.5932,0.0,,1.7,,ADIL-SOMA (MANISA) İlksel
2026.06.06,14:00:45,38.8402,27.9048,10.1,,1.8,,HARMANDALI-AKHISAR (MANISA) İlksel
2026.06.06,14:49:09,39.3262,38.5192,5.0,,1.9,,GULDIBI-KEMALIYE (ERZINCAN) İlksel
2026.06.06,15:19:49,37.8217,29.6898,8.2,,2.9,,CARDAK (DENIZLI) İlksel
2026.06.06,15:24:29,40.2030,29.6740,5.0,,1.8,,YAZILI-YENISEHIR (BURSA) İlksel
2026.06.06,15:49:44,38.2323,37.7458,16.1,,1.6,,CEVIRME-AKCADAG (MALATYA) İlksel
2026.06.06,16:22:38,36.8937,29.1302,7.3,,2.0,,KARABAYIR-CAMELI (DENIZLI) İlksel
2026.06.06,16:40:16,39.1203,28.2972,11.1,,1.5,,YUREGIL-SINDIRGI (BALIKESIR) İlksel
2026.06.06,17:49:17,34.8270,24.5305,27.9,,2.5,,GIRIT ADASI ACIKLARI (AKDENIZ) İlksel
2026.06.06,17:58:14,40.2450,29.4920,17.5,,1.5,,KOYUNHISAR-YENISEHIR (BURSA) İlksel
2026.06.06,18:13:50,38.6303,26.7417,10.3,,1.8,,FOCA (IZMIR) İlksel
2026.06.06,18:15:44,38.2828,37.5400,17.3,,1.8,,YAPILIPINAR-ELBISTAN (KAHRAMANMARAS) İlksel
2026.06.06,19:04:04,39.1912,39.8442,22.2,,1.7,,GUNEYCIK-NAZIMIYE (TUNCELI) İlksel
2026.06.06,19:04:52,39.2115,39.7683,7.8,,1.8,,DEMIRCE-NAZIMIYE (TUNCELI) İlksel
2026.06.06,19:25:26,39.2575,28.0548,3.9,,1.6,,ALACAATLI-SINDIRGI (BALIKESIR) İlksel
2026.06.06,20:07:40,39.1663,28.1988,4.3,,1.4,,AKTAS-SINDIRGI (BALIKESIR) İlksel
2026.06.06,20:10:16,40.7887,44.4195,2.5,,2.5,,ERMENISTAN İlksel
2026.06.06,20:15:16,39.3773,25.5375,8.6,,1.6,,EGE DENIZI İlksel
2026.06.06,20:54:03,38.1102,37.5478,5.1,,2.3,,KARAHASANUSAGI-ELBISTAN (KAHRAMANMARAS) İlksel
2026.06.06,21:21:16,36.6705,26.8610,181.9,,2.8,,KOS ADASI (EGE DENIZI) İlksel
2026.06.06,21:50:05,37.8397,38.2590,6.4,,2.0,,YESILTEPE-(ADIYAMAN) İlksel
2026.06.06,22:35:34,35.7670,30.7758,15.4,,2.5,,AKDENIZ İlksel
2026.06.06,22:39:05,38.5968,30.7968,8.5,,1.4,,KIZILDAG-(AFYONKARAHISAR) İlksel
2026.06.06,23:16:03,37.8975,29.2052,21.1,,1.5,,IRLIGANLI-(DENIZLI) İlksel
2026.06.06,23:32:12,34.7433,27.3120,8.9,,2.8,,GIRIT ADASI ACIKLARI (AKDENIZ) İlksel
2026.06.07,00:19:00,36.6950,36.0945,8.0,,2.2,,SARISEKI-ISKENDERUN (HATAY) İlksel
2026.06.07,00:19:31,38.2200,38.5482,4.5,,2.6,,GULUMUSAGI-(MALATYA) İlksel
2026.06.07,00:33:48,39.4000,25.5392,9.5,,2.4,,EGE DENIZI İlksel
2026.06.07,01:01:31,39.3630,25.4858,5.2,,2.4,,EGE DENIZI İlksel
2026.06.07,01:34:42,38.1233,37.5410,5.0,,2.3,,KARAHASANUSAGI-ELBISTAN (KAHRAMANMARAS) İlksel
2026.06.07,01:42:24,38.0660,37.6343,5.3,,1.7,,BEGRE-DOGANSEHIR (MALATYA) İlksel
2026.06.07,01:52:01,37.8262,29.7157,15.1,,1.4,,CARDAK (DENIZLI) İlksel
2026.06.07,02:14:27,38.1105,37.5617,5.0,,1.7,,KARAHASANUSAGI-ELBISTAN (KAHRAMANMARAS) İlksel
2026.06.07,04:04:35,40.1498,26.1295,13.9,,1.2,,ABIDE ACIKLARI-CANAKKALE (EGE DENIZI) İlksel
2026.06.07,04:23:17,37.8595,36.4128,7.7,,1.6,,KUCUKCAMURLU-GOKSUN (KAHRAMANMARAS) İlksel
2026.06.07,04:35:18,38.7728,27.1380,9.2,,1.4,,DUZLEN-(MANISA) İlksel
2026.06.07,04:42:56,39.8520,43.2000,9.3,,1.6,,SOGANKOY-(AGRI) İlksel
2026.06.07,04:45:03,37.1540,30.2362,2.3,,1.9,,AKYAR-KORKUTELI (ANTALYA) İlksel
2026.06.07,05:05:43,40.2533,31.7405,3.7,,1.8,,DUDAS-BEYPAZARI (ANKARA) İlksel
2026.06.07,05:37:33,38.2442,38.2543,7.3,,1.6,,KADIRUSAGI-YESILYURT (MALATYA) İlksel
2026.06.07,05:40:01,38.0908,37.5508,2.7,,1.0,,TAPKIRANKALE-ELBISTAN (KAHRAMANMARAS) İlksel
2026.06.07,05:54:03,36.0387,27.1883,8.3,,1.8,,EGE DENIZI İlksel
2026.06.07,06:01:16,38.0258,37.5453,19.9,,1.1,,TATLAR-NURHAK (KAHRAMANMARAS) İlksel
2026.06.07,06:24:32,34.4743,33.4385,16.9,,2.0,,KIBRIS ACIKLARI-GUNEY--(AKDENIZ) İlksel
2026.06.07,06:25:59,40.1705,26.1222,16.3,,1.1,,KEMALYERI ACIKLARI-CANAKKALE (EGE DENIZI) İlksel
2026.06.07,07:03:22,39.2147,26.8053,10.9,,1.4,,BAHCELI-DIKILI (IZMIR) İlksel
2026.06.07,07:48:51,39.8605,40.2712,8.7,,2.1,,KUCUKAGA-TERCAN (ERZINCAN) İlksel
2026.06.07,07:49:33,39.8688,40.2933,12.4,,2.0,,KUCUKAGA-TERCAN (ERZINCAN) İlksel
2026.06.07,08:27:23,38.2177,37.8242,10.4,,1.7,,DEDEYAZI-DOGANSEHIR (MALATYA) İlksel
2026.06.07,09:06:47,37.9795,35.5225,4.8,,2.3,,AVLAGI-YAHYALI (KAYSERI) İlksel
2026.06.07,09:19:34,39.0247,27.4745,8.4,,1.9,,BUYUKOBA-KINIK (IZMIR) İlksel
2026.06.07,09:22:37,40.4710,42.3618,16.1,,1.7,,CATALELMA-SENKAYA (ERZURUM) İlksel
2026.06.07,09:40:19,37.7418,36.0290,5.0,,2.4,,AKOLUK-FEKE (ADANA) İlksel
2026.06.07,09:48:57,40.3608,27.9203,13.1,,1.7,,ASAGIYAPICI-ERDEK (BALIKESIR) İlksel
2026.06.07,09:53:34,39.5220,26.1782,5.4,,1.8,,CAMKALABAK-AYVACIK (CANAKKALE) İlksel
2026.06.07,10:01:15,39.3972,28.0423,6.1,,1.7,,BABAKOY-BIGADIC (BALIKESIR) İlksel
2026.06.07,10:23:36,37.7407,37.9663,9.0,,2.1,,CAMLICA-BESNI (ADIYAMAN) İlksel
2026.06.07,10:51:21,40.5918,30.5850,8.6,,2.6,,AHMEDIYE-KARAPURCEK (SAKARYA) İlksel
2026.06.07,11:10:52,39.2092,29.0123,18.9,,0.5,,EGIRLER-SIMAV (KUTAHYA) İlksel
2026.06.07,11:24:10,38.1965,37.4397,22.3,,2.3,,KOSEYAHYA-ELBISTAN (KAHRAMANMARAS) İlksel
2026.06.07,11:34:08,38.2010,37.2208,8.1,,1.8,,ELBISTAN (KAHRAMANMARAS) İlksel
2026.06.07,11:53:35,37.3358,36.6857,15.5,,1.7,,CAKIROGLU-TURKOGLU (KAHRAMANMARAS) İlksel
2026.06.07,12:08:22,38.7292,38.1377,10.3,,1.6,,YESILPINAR-HEKIMHAN (MALATYA) İlksel
2026.06.07,12:33:41,38.7372,36.5367,7.6,,2.0,,YUKARIBURANDERE-PINARBASI (KAYSERI) İlksel
2026.06.07,12:58:43,38.6993,23.4012,6.1,,4.8,5.0,YUNANISTAN İlksel
2026.06.07,13:02:46,38.7103,23.4228,5.7,,5.0,5.3,YUNANISTAN İlksel
2026.06.07,13:11:22,39.6362,44.4633,14.3,,2.2,,GUNGOREN-DOGUBAYAZIT (AGRI) İlksel
2026.06.07,13:15:15,38.7505,23.0308,31.3,,2.8,,YUNANISTAN İlksel
2026.06.07,13:17:40,38.7618,23.0373,11.2,,2.9,,YUNANISTAN İlksel
2026.06.07,13:30:17,40.7265,42.9843,5.0,,1.6,,ALCILI-(KARS) İlksel
2026.06.07,13:38:11,38.7258,23.4893,18.1,,2.4,,YUNANISTAN İlksel
2026.06.07,13:47:26,36.0417,36.1253,28.0,,2.0,,SENKOY-(HATAY) İlksel
2026.06.07,13:48:28,38.7802,23.3630,8.0,,2.5,,YUNANISTAN İlksel
2026.06.07,14:07:26,39.3925,44.5512,18.2,,3.0,,TURKIYE-IRAN SINIR BOLGESI İlksel
2026.06.07,14:13:09,38.3240,38.8002,7.4,,2.2,,BOLUKKAYA-PUTURGE (MALATYA) İlksel
2026.06.07,14:20:12,39.2812,42.2077,1.3,,2.2,,YAZBASI-BULANIK (MUS) İlksel
2026.06.07,14:49:35,39.2268,29.0640,10.5,,0.9,,KATRANDAGI-EMET (KUTAHYA) İlksel
2026.06.07,15:08:24,38.7688,23.0052,5.0,,2.4,,YUNANISTAN İlksel
2026.06.07,15:10:39,37.0647,28.5162,3.4,,1.6,,KARABOGURTLEN-ULA (MUGLA) İlksel
2026.06.07,15:39:54,38.1882,37.4687,9.1,,1.6,,GUCUK-ELBISTAN (KAHRAMANMARAS) İlksel
2026.06.07,15:46:04,35.9228,23.3137,5.0,,2.2,,GIRIT ADASI (AKDENIZ) İlksel
2026.06.07,16:38:06,40.3797,24.0382,5.4,,2.3,,YUNANISTAN İlksel
2026.06.07,16:42:51,38.7480,22.9477,10.5,,2.3,,YUNANISTAN İlksel
2026.06.07,16:43:20,38.1285,36.6930,18.0,,1.5,,KARAOMER-GOKSUN (KAHRAMANMARAS) İlksel
2026.06.07,16:55:41,36.6588,25.6950,10.0,,2.3,,EGE DENIZI İlksel
2026.06.07,16:58:33,34.1718,25.6250,15.4,,3.2,3.2,GIRIT ADASI ACIKLARI (AKDENIZ) İlksel
2026.06.07,17:02:09,37.9957,38.0818,5.4,,1.9,,KURUCAOVA-DOGANSEHIR (MALATYA) İlksel
2026.06.07,17:14:39,38.7055,23.3560,16.2,,2.4,,YUNANISTAN İlksel
2026.06.07,17:34:42,38.7768,23.5243,5.2,,2.7,,YUNANISTAN İlksel
2026.06.07,18:17:10,38.4077,39.2138,6.5,,1.9,,YEDIPINAR-SIVRICE (ELAZIG) İlksel
2026.06.07,18:24:04,40.4690,42.3018,7.3,,1.8,,CATALELMA-SENKAYA (ERZURUM) İlksel
2026.06.07,18:24:18,38.2315,37.7425,15.2,,1.7,,CEVIRME-AKCADAG (MALATYA) İlksel
2026.06.07,18:53:57,38.7330,23.2842,4.9,,2.3,,YUNANISTAN İlksel
2026.06.07,18:56:05,35.9200,28.0788,5.0,,2.3,,AKDENIZ İlksel
2026.06.07,18:58:24,38.7347,23.4362,5.9,,3.8,,YUNANISTAN İlksel
2026.06.07,19:41:38,40.8612,28.3213,14.7,,1.8,,MARMARA DENIZI İlksel
2026.06.07,19:49:31,35.1015,23.6575,5.0,,2.8,,GIRIT ADASI (AKDENIZ) İlksel
2026.06.07,19:50:38,36.7108,29.3093,7.3,,1.6,,ORTAKOY-FETHIYE (MUGLA) İlksel
2026.06.07,20:17:04,38.7442,39.6932,8.8,,1.6,,ASAGIKOSE-KOVANCILAR (ELAZIG) İlksel
2026.06.07,21:14:09,39.2552,28.9547,12.1,,1.2,,YENILER-SIMAV (KUTAHYA) İlksel
2026.06.07,21:16:41,37.4290,37.1385,5.4,,1.9,,ESKINARLI-PAZARCIK (KAHRAMANMARAS) İlksel
2026.06.07,21:25:55,39.5145,26.1440,9.9,,1.0,,KOCAKOY-AYVACIK (CANAKKALE) İlksel
2026.06.07,21:58:40,38.7060,23.5795,9.9,,2.4,,YUNANISTAN İlksel
2026.06.07,22:17:39,38.7765,36.5573,9.4,,1.4,,YUKARIBURANDERE-PINARBASI (KAYSERI) İlksel
2026.06.07,22:20:24,40.6413,34.4933,6.0,,2.6,,KARLIK-ISKILIP (CORUM) İlksel
2026.06.07,22:28:37,40.7928,31.5353,9.3,,2.4,,KIZILAGIL-(BOLU) İlksel
2026.06.07,22:55:45,39.2310,29.0215,10.5,,1.7,,YEMISLI-SIMAV (KUTAHYA) İlksel
2026.06.07,22:59:50,39.2437,29.0035,17.8,,1.2,,YEMISLI-SIMAV (KUTAHYA) İlksel
2026.06.07,22:59:54,37.9248,36.4378,7.4,,1.3,,FINDIKLIKOYAK-GOKSUN (KAHRAMANMARAS) İlksel
2026.06.07,23:46:24,40.7823,31.5378,8.6,,1.7,,KIZILAGIL-(BOLU) İlksel
2026.06.08,00:30:06,35.8192,29.2742,7.6,,2.1,,AKDENIZ İlksel
2026.06.08,00:40:07,38.6220,26.1528,10.4,,2.4,,SAKIZ ADASI (EGE DENIZI) İlksel
2026.06.08,01:22:32,36.5922,28.8973,6.7,,1.3,,FETHIYE KORFEZI (AKDENIZ) İlksel
2026.06.08,01:25:36,39.7465,42.8198,44.3,,1.6,,ERGOZU-ELESKIRT (AGRI) İlksel
2026.06.08,01:32:28,36.6790,26.4707,6.1,,2.0,,EGE DENIZI İlksel
2026.06.08,02:11:23,39.0860,40.3312,6.9,,2.2,,SUTGOLU-(BINGOL) İlksel
2026.06.08,02:17:45,37.7560,36.0632,5.0,,1.9,,AKOLUK-FEKE (ADANA) İlksel
2026.06.08,03:15:24,38.7805,26.6155,7.7,,2.8,,EGE DENIZI İlksel
2026.06.08,03:24:12,38.7962,26.5855,8.3,,2.1,,EGE DENIZI İlksel
2026.06.08,03:26:01,40.9068,31.6147,9.8,,1.8,,YOGUNPELIT-YIGILCA (DUZCE) İlksel
2026.06.08,03:36:19,39.8867,39.9772,7.5,,2.1,,YESILYAKA-CAYIRLI (ERZINCAN) İlksel
2026.06.08,03:57:02,35.2065,33.2347,23.7,,2.6,,KIBRIS-TURKELI İlksel
2026.06.08,04:21:35,37.8785,26.8830,11.0,,1.3,,KUSADASI KORFEZI (EGE DENIZI) İlksel
2026.06.08,04:31:22,38.7512,36.5313,5.2,,1.2,,YUKARIBURANDERE-PINARBASI (KAYSERI) İlksel
2026.06.08,05:09:48,38.9365,26.7697,5.4,,1.5,,DENIZKOY-DIKILI (IZMIR) İlksel
2026.06.08,05:27:49,37.7005,26.0460,9.0,,1.7,,ONIKI ADALAR (EGE DENIZI) İlksel
2026.06.08,05:43:28,36.7767,39.4827,6.0,,1.9,,BINEKLI-HARRAN (SANLIURFA) İlksel
2026.06.08,05:46:43,39.0908,29.4970,9.2,,1.4,,POLAT-GEDIZ (KUTAHYA) İlksel
2026.06.08,05:50:31,40.1892,31.6925,10.9,,2.1,,SEKLI-BEYPAZARI (ANKARA) İlksel
2026.06.08,05:51:37,38.3350,38.2050,6.5,,1.8,,DURULDU-(MALATYA) İlksel
2026.06.08,06:33:55,37.7738,26.4650,5.0,,2.2,,ONIKI ADALAR (EGE DENIZI) İlksel
2026.06.08,06:44:35,39.5433,28.1130,7.6,,1.7,,YENIKOY-BIGADIC (BALIKESIR) İlksel
2026.06.08,07:33:37,36.8720,29.1330,4.9,,1.3,,ARPACIK-FETHIYE (MUGLA) İlksel
2026.06.08,08:39:16,39.2428,28.9528,14.9,,1.0,,YENILER-SIMAV (KUTAHYA) İlksel
2026.06.08,08:43:23,36.9357,29.0545,22.0,,1.5,,GURLEYIK-DALAMAN (MUGLA) İlksel
2026.06.08,08:59:11,39.2288,28.1008,7.7,,2.1,,BAYIRLI-SINDIRGI (BALIKESIR) İlksel
2026.06.08,09:00:16,40.4345,36.9222,4.7,,2.0,,ATAKOY-ALMUS (TOKAT) İlksel
2026.06.08,09:03:52,38.2107,38.5910,5.0,,2.8,,SOGUTLU-PUTURGE (MALATYA) İlksel
2026.06.08,09:23:30,38.5875,38.3215,5.0,,1.4,,AMBARCIK-YAZIHAN (MALATYA) İlksel
2026.06.08,10:01:55,36.8128,28.8783,30.0,,1.4,,KARACAAGAC-DALAMAN (MUGLA) İlksel
2026.06.08,10:05:11,39.2340,29.0430,5.7,,1.3,,KATRANDAGI-EMET (KUTAHYA) İlksel
2026.06.08,10:19:37,39.2472,28.2850,3.2,,1.3,,DANACAYIRI-SINDIRGI (BALIKESIR) İlksel
2026.06.08,10:21:17,36.1575,33.7643,0.0,,1.1,,AKDERE-SILIFKE (MERSIN) İlksel
2026.06.08,10:23:10,39.2498,28.0713,15.0,,2.7,,ALACAATLI-SINDIRGI (BALIKESIR) İlksel
2026.06.08,10:25:21,39.2647,27.6848,0.0,,1.1,,KOZLUOREN-SOMA (MANISA) İlksel
2026.06.08,10:30:07,39.2638,28.0545,6.9,,2.0,,ALACAATLI-SINDIRGI (BALIKESIR) İlksel
2026.06.08,10:51:01,37.0112,28.5023,17.7,,2.2,,SARAYYANI-ULA (MUGLA) İlksel
2026.06.08,11:28:31,39.2280,27.9590,9.2,,1.7,,HACET-KIRKAGAC (MANISA) İlksel
2026.06.08,11:32:22,39.2772,27.9672,22.1,,1.4,,EGRIDERE-SINDIRGI (BALIKESIR) İlksel
2026.06.08,11:39:13,38.8857,39.6035,5.0,,2.6,,KARAGUNEY-PERTEK (TUNCELI) İlksel
2026.06.08,11:50:46,40.2775,29.2275,0.0,,1.8,,DISKAYA-GURSU (BURSA) İlksel
2026.06.08,12:00:56,39.2452,28.9967,5.1,,1.0,,YEMISLI-SIMAV (KUTAHYA) İlksel
2026.06.08,12:23:10,38.9705,37.8530,8.9,,1.5,,HASANCELEBI-HEKIMHAN (MALATYA) İlksel
2026.06.08,12:32:30,39.0063,28.2753,2.8,,1.3,,BOREZ-GORDES (MANISA) İlksel
2026.06.08,12:45:18,36.1852,33.7778,0.0,,1.2,,AKDERE-SILIFKE (MERSIN) İlksel
2026.06.08,13:12:30,39.6192,33.6283,21.8,,1.2,,CINALI-KESKIN (KIRIKKALE) İlksel
2026.06.08,13:29:50,36.0513,33.8887,5.0,,1.1,,SILIFKE ACIKLARI-MERSIN (AKDENIZ) İlksel
2026.06.08,13:50:51,38.1007,37.1977,3.0,,1.7,,AKPINAR-EKINOZU (KAHRAMANMARAS) İlksel
2026.06.08,14:08:21,40.1277,31.5532,17.5,,2.3,,DAVUTOGLAN-NALLIHAN (ANKARA) İlksel
2026.06.08,14:30:26,38.6993,37.5595,6.7,,2.1,,AGILYAZI-DARENDE (MALATYA) İlksel
2026.06.08,14:32:40,39.1865,29.0933,10.5,,1.5,,TOKAT-HISARCIK (KUTAHYA) İlksel
2026.06.08,15:45:50,39.2522,28.1752,16.8,,1.5,,SINDIRGI (BALIKESIR) İlksel
2026.06.08,17:16:51,38.7228,23.3068,17.4,,2.5,,YUNANISTAN İlksel
2026.06.08,18:06:09,38.6907,23.2915,6.9,,2.9,,YUNANISTAN İlksel
2026.06.08,18:37:28,38.7315,23.4648,9.6,,2.7,,YUNANISTAN İlksel
2026.06.08,19:39:36,36.6598,29.3410,5.0,,1.6,,KEMER-FETHIYE (MUGLA) İlksel
2026.06.08,19:48:31,38.9727,26.9990,6.5,,1.7,,DEMIRTAS-DIKILI (IZMIR) İlksel
2026.06.08,20:09:31,36.1328,30.1298,8.1,,2.5,,FINIKE ACIKLARI-ANTALYA (AKDENIZ) İlksel
2026.06.08,20:19:55,37.9613,36.5563,6.1,,1.4,,KURUCAOVA-(KAHRAMANMARAS) İlksel
2026.06.08,20:21:22,39.4015,40.6343,5.3,,2.2,,ELMALI-YEDISU (BINGOL) İlksel
2026.06.08,20:29:35,39.1868,28.0902,12.5,,1.8,,KERTIL-SINDIRGI (BALIKESIR) İlksel
2026.06.08,20:32:42,39.1895,28.0887,10.0,,2.0,,KERTIL-SINDIRGI (BALIKESIR) İlksel
2026.06.08,21:10:08,37.8025,32.8822,5.0,,2.6,,YARMA-KARATAY (KONYA) İlksel
2026.06.08,21:21:33,38.2077,37.6917,8.3,,1.7,,ATMALIKASANLI-ELBISTAN (KAHRAMANMARAS) İlksel
2026.06.08,21:22:34,40.1653,31.7292,6.6,,2.1,,SEKLI-BEYPAZARI (ANKARA) İlksel
2026.06.08,21:40:34,38.7860,23.4878,23.5,,3.4,3.4,YUNANISTAN İlksel
2026.06.08,22:22:24,37.2762,36.8868,10.4,,1.3,,MINEHUYUK-TURKOGLU (KAHRAMANMARAS) İlksel
2026.06.08,22:48:20,38.7980,23.3240,5.0,,3.8,3.9,YUNANISTAN İlksel
2026.06.08,22:57:56,38.8350,23.4393,12.1,,2.9,,YUNANISTAN İlksel
2026.06.08,23:29:43,37.8795,26.8863,9.5,,1.3,,KUSADASI KORFEZI (EGE DENIZI) İlksel
2026.06.09,00:00:30,38.8120,23.4287,10.7,,2.8,,YUNANISTAN İlksel
2026.06.09,00:08:37,38.2995,37.9357,5.4,,3.1,3.1,IKINCILER-AKCADAG (MALATYA) İlksel
2026.06.09,00:19:50,37.8130,32.8362,5.0,,1.5,,BAKIRTOLU-KARATAY (KONYA) İlksel
2026.06.09,00:31:18,38.8478,23.5047,5.2,,2.5,,YUNANISTAN İlksel
2026.06.09,00:51:56,39.2218,28.2387,7.5,,1.2,,ILICA-SINDIRGI (BALIKESIR) İlksel
2026.06.09,01:09:43,38.0757,37.5432,13.1,,1.4,,TATLAR-NURHAK (KAHRAMANMARAS) İlksel
2026.06.09,01:40:56,38.2492,41.7453,5.8,,1.6,,YUVALIDAM-MUTKI (BITLIS) İlksel
2026.06.09,02:02:55,39.2917,29.2787,5.4,,1.8,,IGDEKOY-EMET (KUTAHYA) İlksel
2026.06.09,02:12:06,35.5277,27.3927,3.6,,2.0,,AKDENIZ İlksel
2026.06.09,02:32:00,39.2378,29.3338,9.5,,1.2,,SEYHCAKIR-HISARCIK (KUTAHYA) İlksel
2026.06.09,02:41:55,39.6535,32.5332,9.3,,2.1,,DEVECI-HAYMANA (ANKARA) İlksel
2026.06.09,02:53:13,39.2112,27.9753,10.2,,2.8,,HACET-KIRKAGAC (MANISA) İlksel
2026.06.09,03:16:41,39.9657,33.9792,11.4,,1.4,,ARBISLI-DELICE (KIRIKKALE) İlksel
2026.06.09,03:26:35,39.2160,28.0918,7.7,,1.2,,KERTIL-SINDIRGI (BALIKESIR) İlksel
2026.06.09,03:29:33,37.5488,37.2543,4.2,,1.5,,TETIRLIK-PAZARCIK (KAHRAMANMARAS) İlksel
2026.06.09,03:31:25,38.2368,38.2135,7.2,,1.3,,KADIRUSAGI-YESILYURT (MALATYA) İlksel
2026.06.09,03:36:39,39.2955,29.2835,5.4,,1.8,,KIRGIL-EMET (KUTAHYA) İlksel
2026.06.09,03:40:17,38.0075,36.3162,7.6,,1.9,,KAZANDERE-GOKSUN (KAHRAMANMARAS) İlksel
2026.06.09,03:52:11,39.0833,28.1033,13.2,,1.3,,HANPASA-AKHISAR (MANISA) İlksel
2026.06.09,04:00:49,39.1317,28.3468,14.5,,1.6,,YAYLABAYIR-SINDIRGI (BALIKESIR) İlksel
2026.06.09,04:16:06,38.8392,30.2157,19.7,,1.7,,BASKIMSE-SINANPASA (AFYONKARAHISAR) İlksel
2026.06.09,04:21:36,40.0048,33.9560,10.5,,1.3,,DEREKISLA-DELICE (KIRIKKALE) İlksel
2026.06.09,04:52:03,34.9465,26.1192,18.5,,2.5,,GIRIT ADASI ACIKLARI (AKDENIZ) İlksel
2026.06.09,05:12:43,38.0938,37.5133,3.8,,1.5,,SUNNETKOY-ELBISTAN (KAHRAMANMARAS) İlksel
2026.06.09,05:13:42,39.2575,28.1107,6.2,,1.7,,KARAGUR-SINDIRGI (BALIKESIR) İlksel
2026.06.09,05:26:09,38.1218,36.5365,9.8,,2.1,,CAMDERE-GOKSUN (KAHRAMANMARAS) İlksel
2026.06.09,05:27:53,39.2840,29.2795,16.4,,1.6,,KIRGIL-EMET (KUTAHYA) İlksel
2026.06.09,05:30:56,38.4038,31.7732,5.0,,1.9,,TURSUNLU-TUZLUKCU (KONYA) İlksel
2026.06.09,06:16:31,36.6397,25.4802,12.1,,1.7,,EGE DENIZI İlksel
2026.06.09,06:44:35,39.1810,28.2073,11.4,,1.1,,AKTAS-SINDIRGI (BALIKESIR) İlksel
2026.06.09,06:48:44,38.8183,26.4845,6.0,,2.0,,EGE DENIZI İlksel
2026.06.09,07:46:50,40.8475,31.6637,8.0,,1.9,,YESILCELE-(BOLU) İlksel
2026.06.09,07:47:21,40.1922,31.7470,10.8,,2.1,,HIRKATEPE-BEYPAZARI (ANKARA) İlksel
2026.06.09,08:56:52,34.5425,28.3375,8.8,,3.8,,AKDENIZ İlksel
2026.06.09,09:14:10,39.7115,27.9143,14.4,,1.5,,ZIYARETLI-(BALIKESIR) İlksel
2026.06.09,09:30:08,38.2023,38.6993,5.4,,2.9,,ALIHAN-PUTURGE (MALATYA) İlksel
2026.06.09,10:37:10,36.6108,25.7102,14.1,,2.3,,EGE DENIZI İlksel
2026.06.09,10:49:37,39.2252,29.0097,9.4,,1.7,,EGIRLER-SIMAV (KUTAHYA) İlksel
2026.06.09,10:51:03,39.2088,29.0777,2.2,,0.8,,KARAAGIL-HISARCIK (KUTAHYA) İlksel
2026.06.09,10:55:43,39.1607,28.9845,19.5,,1.9,,NASA-SIMAV (KUTAHYA) İlksel
2026.06.09,10:58:02,37.9648,35.5177,3.5,,2.0,,AVLAGI-YAHYALI (KAYSERI) İlksel
2026.06.09,10:58:25,39.2235,28.9768,14.4,,2.0,,YEMISLI-SIMAV (KUTAHYA) İlksel
2026.06.09,11:00:52,39.2355,29.0447,3.3,,0.9,,KATRANDAGI-EMET (KUTAHYA) İlksel
2026.06.09,11:31:23,34.3885,32.9700,9.0,,2.3,,AKDENIZ İlksel
2026.06.09,11:42:27,39.2158,29.1060,5.0,,0.8,,KARAAGIL-HISARCIK (KUTAHYA) İlksel
2026.06.09,12:04:07,39.2078,29.0777,3.3,,1.3,,TOKAT-HISARCIK (KUTAHYA) İlksel
2026.06.09,12:11:21,40.7063,28.6592,21.7,,1.7,,MARMARA DENIZI İlksel
2026.06.09,12:14:08,37.7768,36.0163,9.0,,2.7,,AKOLUK-FEKE (ADANA) İlksel
2026.06.09,12:50:35,37.9507,27.2432,27.8,,1.0,,ZEYTINKOY-SELCUK (IZMIR) İlksel
2026.06.09,13:06:15,37.2405,32.6245,11.2,,1.4,,MEHMETALI-GUNEYSINIR (KONYA) İlksel
2026.06.09,13:19:39,40.7428,28.6953,6.1,,2.3,,MARMARA DENIZI İlksel
2026.06.09,13:34:30,38.0618,37.7547,7.7,,1.9,,SOGUT-DOGANSEHIR (MALATYA) İlksel
2026.06.09,13:42:09,36.0975,33.5473,3.5,,1.3,,YANISLI-GULNAR (MERSIN) İlksel
2026.06.09,14:05:52,40.8293,35.6598,5.4,,2.3,,SULUOVA (AMASYA) İlksel
2026.06.09,15:00:24,39.2628,28.1268,8.2,,1.6,,IBILLER-SINDIRGI (BALIKESIR) İlksel
2026.06.09,15:12:57,39.2443,28.9800,15.7,,1.4,,YEMISLI-SIMAV (KUTAHYA) İlksel
2026.06.09,15:15:02,40.4392,35.2737,6.8,,2.0,,SIRCALI-MECITOZU (CORUM) İlksel
2026.06.09,15:16:57,39.2267,29.0010,5.9,,2.4,,YEMISLI-SIMAV (KUTAHYA) İlksel
2026.06.09,15:17:30,39.2283,28.9647,2.9,,2.0,,YEMISLI-SIMAV (KUTAHYA) İlksel
2026.06.09,15:23:55,39.2497,29.0067,11.6,,1.3,,YEMISLI-SIMAV (KUTAHYA) İlksel
2026.06.09,15:24:36,39.0722,28.9338,11.3,,0.9,,BEYCE-SIMAV (KUTAHYA) İlksel
2026.06.09,15:25:08,39.1875,29.0068,10.7,,1.2,,EGIRLER-SIMAV (KUTAHYA) İlksel
2026.06.09,15:49:26,39.4202,26.3407,5.4,,1.5,,EDREMIT KORFEZI (EGE DENIZI) İlksel
2026.06.09,16:14:37,39.2175,28.9895,11.4,,1.6,,EGIRLER-SIMAV (KUTAHYA) İlksel
2026.06.09,16:21:58,39.1583,28.9322,15.9,,1.8,,NASA-SIMAV (KUTAHYA) İlksel
2026.06.09,16:24:19,39.2295,28.9810,6.8,,2.1,,YEMISLI-SIMAV (KUTAHYA) İlksel
2026.06.09,16:42:55,39.2130,28.9565,11.4,,1.9,,HAMZABEY-SIMAV (KUTAHYA) İlksel
2026.06.09,17:29:06,40.9732,33.7067,5.5,,1.9,,SATILAR-ILGAZ (CANKIRI) İlksel
2026.06.09,17:33:17,38.9543,40.9593,13.6,,2.0,,DILEKTEPE-SOLHAN (BINGOL) İlksel
2026.06.09,18:14:26,39.0545,28.2702,14.5,,1.5,,MALAZ-GORDES (MANISA) İlksel
2026.06.09,18:23:19,39.2192,28.9655,5.3,,2.2,,YEMISLI-SIMAV (KUTAHYA) İlksel
2026.06.09,18:28:51,38.8282,25.8805,8.6,,2.1,,EGE DENIZI İlksel
2026.06.09,18:42:14,35.8715,31.3302,12.6,,1.8,,AKDENIZ İlksel
2026.06.09,18:56:41,38.4655,37.9952,7.7,,1.4,,KARAMAGARA-AKCADAG (MALATYA) İlksel
2026.06.09,19:35:55,36.5558,28.7975,8.0,,1.7,,DALAMAN ACIKLARI-MUGLA (AKDENIZ) İlksel
2026.06.09,20:05:58,40.5002,35.2823,10.0,,1.8,,GEYKOCA-MECITOZU (CORUM) İlksel
2026.06.09,20:37:25,36.9390,29.0125,5.0,,1.4,,GURLEYIK-DALAMAN (MUGLA) İlksel
2026.06.09,21:10:04,36.9370,27.5715,5.0,,1.4,,GOKOVA KORFEZI (EGE DENIZI) İlksel
2026.06.09,22:27:42,38.6797,23.2695,7.6,,2.7,,YUNANISTAN İlksel
2026.06.09,22:29:52,38.2885,37.5163,23.5,,1.2,,YAPILIPINAR-ELBISTAN (KAHRAMANMARAS) İlksel
2026.06.09,22:33:27,36.9520,29.1462,15.9,,1.4,,KARABAYIR-CAMELI (DENIZLI) İlksel
2026.06.09,23:14:56,38.9970,42.8855,5.0,,3.4,3.4,KUCAK-PATNOS (AGRI) İlksel
2026.06.09,23:28:49,38.9872,42.8567,5.0,,2.3,,KUCAK-PATNOS (AGRI) İlksel
2026.06.09,23:30:59,38.9793,42.8973,5.0,,1.9,,ARMUTLU-PATNOS (AGRI) İlksel
2026.06.09,23:38:13,39.2438,29.0087,5.2,,1.3,,YEMISLI-SIMAV (KUTAHYA) İlksel
2026.06.09,23:39:38,39.2148,28.9733,16.4,,1.1,,EGIRLER-SIMAV (KUTAHYA) İlksel
2026.06.09,23:41:04,34.6488,24.9967,22.3,,3.5,3.4,GIRIT ADASI ACIKLARI (AKDENIZ) İlksel
2026.06.09,23:44:41,38.8383,23.3420,6.0,,2.3,,YUNANISTAN İlksel
2026.06.10,00:10:53,39.2810,29.1183,5.1,,1.9,,KABAKLAR-EMET (KUTAHYA) İlksel
2026.06.10,00:17:44,39.5552,27.7677,12.8,,2.5,,KOZOREN-(BALIKESIR) İlksel
2026.06.10,01:49:05,39.4825,25.3348,3.4,,1.9,,EGE DENIZI İlksel
2026.06.10,02:06:48,39.2452,28.9628,7.1,,2.1,,YEMISLI-SIMAV (KUTAHYA) İlksel
2026.06.10,02:14:07,38.1092,37.5503,5.0,,1.3,,KARAHASANUSAGI-ELBISTAN (KAHRAMANMARAS) İlksel
2026.06.10,02:35:03,39.9010,40.0722,5.0,,2.4,,BOLUKOVA-CAYIRLI (ERZINCAN) İlksel
2026.06.10,02:44:28,38.7277,25.8568,6.6,,1.7,,EGE DENIZI İlksel
2026.06.10,03:01:06,38.2267,38.0770,4.4,,1.7,,ISIKLI-YESILYURT (MALATYA) İlksel
2026.06.10,03:22:50,36.9497,27.2760,15.5,,1.2,,AKYARLAR-BODRUM (MUGLA) İlksel
2026.06.10,03:41:40,40.6945,29.4235,8.2,,1.4,,TAVSANLI-ALTINOVA (YALOVA) İlksel
2026.06.10,03:54:10,39.0553,28.2455,14.9,,1.1,,DUTLUCA-GORDES (MANISA) İlksel
2026.06.10,04:06:37,38.2528,37.1607,5.0,,1.8,,ALEMBEY-ELBISTAN (KAHRAMANMARAS) İlksel
2026.06.10,04:30:42,39.2323,28.0003,9.7,,1.8,,HACET-KIRKAGAC (MANISA) İlksel
2026.06.10,04:38:37,40.5332,42.5590,7.4,,1.2,,BEYKOY-SELIM (KARS) İlksel
2026.06.10,05:26:33,39.2362,29.0335,2.4,,1.6,,KATRANDAGI-EMET (KUTAHYA) İlksel
2026.06.10,05:31:08,38.5995,31.0472,5.0,,3.3,3.4,YESILYURT-CAY (AFYONKARAHISAR) İlksel
2026.06.10,05:59:00,36.9723,28.9768,3.6,,1.3,,AKKOPRU-KOYCEGIZ (MUGLA) İlksel
2026.06.10,06:23:15,39.2285,28.9825,13.2,,0.8,,YEMISLI-SIMAV (KUTAHYA) İlksel
2026.06.10,06:46:26,39.2543,28.9765,5.1,,0.7,,YEMISLI-SIMAV (KUTAHYA) İlksel
2026.06.10,07:13:48,39.2517,28.9472,6.7,,2.1,,YENILER-SIMAV (KUTAHYA) İlksel
2026.06.10,07:52:45,38.9907,42.8888,5.0,,2.8,,ARMUTLU-PATNOS (AGRI) İlksel
2026.06.10,08:08:16,39.2483,28.9952,5.1,,0.9,,YEMISLI-SIMAV (KUTAHYA) İlksel
2026.06.10,09:11:40,39.9583,41.1633,29.8,,1.0,,AZIZIYE (ERZURUM) İlksel
2026.06.10,09:33:58,39.5913,25.9570,8.2,,1.5,,GULPINAR ACIKLARI-CANAKKALE (EGE DENIZI) İlksel
2026.06.10,10:23:31,39.2050,29.0263,4.3,,1.4,,EGIRLER-SIMAV (KUTAHYA) İlksel
2026.06.10,10:24:24,38.2428,38.6245,13.9,,1.2,,KAVAKLIDERE-PUTURGE (MALATYA) İlksel
2026.06.10,11:50:09,37.8350,26.9672,3.6,,1.9,,KUSADASI KORFEZI (EGE DENIZI) İlksel
2026.06.10,11:53:32,37.8643,26.9502,5.5,,1.9,,KUSADASI KORFEZI (EGE DENIZI) İlksel
2026.06.10,12:12:38,35.1957,31.7553,8.8,,2.5,,AKDENIZ İlksel
2026.06.10,12:30:06,38.7123,39.1683,23.9,,1.6,,NURALI-(ELAZIG) İlksel
2026.06.10,12:36:10,39.9062,28.8158,0.0,,1.4,,YENIDANISMENT-ORHANELI (BURSA) İlksel
2026.06.10,12:48:03,38.1152,36.5738,1.1,,2.0,,CAMDERE-GOKSUN (KAHRAMANMARAS) İlksel
2026.06.10,13:21:31,38.6312,31.0630,6.5,,3.1,3.2,YESILYURT-CAY (AFYONKARAHISAR) İlksel
2026.06.10,13:27:38,36.3597,33.4882,0.0,,1.0,,KAYRAK-GULNAR (MERSIN) İlksel
2026.06.10,14:19:34,37.3962,34.6568,5.1,,1.5,,MADENKOY-ULUKISLA (NIGDE) İlksel
2026.06.10,14:21:35,39.6545,32.5148,5.0,,2.8,,DEVECI-HAYMANA (ANKARA) İlksel
2026.06.10,14:52:55,39.1565,28.2525,13.5,,2.6,,BAYRAKLI-SINDIRGI (BALIKESIR) İlksel
2026.06.10,15:12:35,40.4967,26.3772,16.4,,2.1,,SAROS KORFEZI (EGE DENIZI) İlksel
2026.06.10,15:17:39,40.5042,26.3543,11.5,,1.3,,SAROS KORFEZI (EGE DENIZI) İlksel
2026.06.10,15:21:46,40.4630,26.5108,23.2,,0.7,,SAROS KORFEZI (EGE DENIZI) İlksel
2026.06.10,16:04:33,40.4912,26.3587,9.5,,2.1,,SAROS KORFEZI (EGE DENIZI) İlksel
2026.06.10,16:05:38,37.0595,36.0723,1.9,,2.5,,LALEGOLU-TOPRAKKALE (OSMANIYE) İlksel
2026.06.10,16:58:31,38.6373,28.8558,11.4,,1.5,,ORTABAG-(USAK) İlksel
2026.06.10,17:00:31,38.3927,29.1152,22.7,,1.2,,GEDIKLER-ULUBEY (USAK) İlksel
2026.06.10,17:09:52,38.9640,28.1858,21.8,,1.1,,FUNDACIK-GORDES (MANISA) İlksel
2026.06.10,17:39:17,38.7757,36.5508,5.9,,1.3,,YUKARIBURANDERE-PINARBASI (KAYSERI) İlksel
2026.06.10,17:49:38,39.1905,28.1387,9.4,,1.7,,ORMANICI-SINDIRGI (BALIKESIR) İlksel
2026.06.10,18:04:45,39.4318,28.0868,22.4,,1.3,,BADEMLI-BIGADIC (BALIKESIR) İlksel
2026.06.10,18:37:30,38.7552,36.5268,9.1,,1.9,,YUKARIBURANDERE-PINARBASI (KAYSERI) İlksel
2026.06.10,18:43:12,37.7730,36.1070,5.0,,3.8,4.0,AYVACIK-SAIMBEYLI (ADANA) İlksel
2026.06.10,19:15:59,38.1713,38.4088,3.5,,2.5,,SALKONAK-YESILYURT (MALATYA) İlksel
2026.06.10,19:16:46,38.2422,37.7818,5.0,,2.1,,CEVIRME-AKCADAG (MALATYA) İlksel
2026.06.10,19:57:47,38.8972,44.5212,5.0,,2.9,,TURKIYE-IRAN SINIR BOLGESI İlksel
2026.06.10,20:06:01,40.8127,31.4095,5.4,,1.8,,DARIYERIHASANBEY-KAYNASLI (DUZCE) İlksel
2026.06.10,20:32:44,39.2237,28.1197,17.6,,1.4,,BAYIRLI-SINDIRGI (BALIKESIR) İlksel
2026.06.10,20:39:20,37.7882,36.0577,11.3,,1.7,,AKOLUK-FEKE (ADANA) İlksel
2026.06.10,20:54:52,38.1790,36.6305,5.5,,1.3,,ESENKOY-GOKSUN (KAHRAMANMARAS) İlksel
2026.06.10,21:12:40,39.4323,34.0712,18.0,,1.1,,ALISAR-AKPINAR (KIRSEHIR) İlksel
2026.06.10,21:17:44,39.3493,33.9987,25.3,,1.2,,CIFTLIKMEHMETAGA-AKPINAR (KIRSEHIR) İlksel
2026.06.10,21:18:33,38.4162,37.4792,5.0,,1.5,,SUGUL-DARENDE (MALATYA) İlksel
2026.06.10,21:59:50,37.7640,36.0787,5.0,,2.9,3.0,AKOLUK-FEKE (ADANA) İlksel
2026.06.10,22:33:54,39.2528,28.0952,8.4,,1.8,,KARAGUR-SINDIRGI (BALIKESIR) İlksel
2026.06.10,22:35:56,40.8518,27.9952,20.2,,2.2,,MARMARAEREGLISI ACIK.-TEKIRDAG (MARMARA DENIZI) İlksel
2026.06.10,22:59:12,40.4032,26.0805,15.8,,2.3,,SAROS KORFEZI (EGE DENIZI) İlksel
2026.06.10,23:04:17,38.7337,36.5325,2.5,,3.0,3.2,YUKARIBURANDERE-PINARBASI (KAYSERI) İlksel
2026.06.10,23:20:42,40.8062,31.1422,8.3,,2.1,,KUCUKMEHMET-(DUZCE) İlksel
2026.06.10,23:23:53,38.7627,36.5463,7.7,,1.4,,YUKARIBURANDERE-PINARBASI (KAYSERI) İlksel
2026.06.10,23:30:06,38.2592,38.6082,7.7,,1.8,,PELITLI-(MALATYA) İlksel
2026.06.10,23:57:00,39.0527,36.1947,5.0,,1.4,,SOFUMAHMUT-SARIOGLAN (KAYSERI) İlksel
2026.06.11,00:42:04,38.5818,40.6972,1.9,,2.3,,AKCABUDAK-LICE (DIYARBAKIR) İlksel
2026.06.11,00:48:17,39.4270,26.2558,2.6,,1.7,,EDREMIT KORFEZI (EGE DENIZI) İlksel
2026.06.11,01:02:32,38.7908,36.5523,4.3,,1.3,,YUKARIBURANDERE-PINARBASI (KAYSERI) İlksel
2026.06.11,01:10:35,38.7767,36.5592,2.7,,1.3,,YUKARIBURANDERE-PINARBASI (KAYSERI) İlksel
2026.06.11,01:41:50,38.3455,38.8037,14.4,,1.4,,CANAKCI-KALE (MALATYA) İlksel
2026.06.11,01:45:33,38.7610,23.4842,4.1,,3.2,3.3,YUNANISTAN İlksel
2026.06.11,01:52:48,38.9808,23.4763,7.1,,3.1,,YUNANISTAN İlksel
2026.06.11,02:11:01,38.5563,40.6827,5.0,,2.5,,AKCABUDAK-LICE (DIYARBAKIR) İlksel
2026.06.11,02:45:52,39.9347,39.7673,2.2,,1.6,,OBALAR-KELKIT (GUMUSHANE) İlksel
2026.06.11,02:55:43,39.3290,40.2730,5.0,,1.8,,CICEKTEPE-KIGI (BINGOL) İlksel
2026.06.11,03:28:26,39.1540,28.2537,11.9,,2.3,,BAYRAKLI-SINDIRGI (BALIKESIR) İlksel
2026.06.11,03:34:39,38.7668,36.5438,7.0,,1.2,,YUKARIBURANDERE-PINARBASI (KAYSERI) İlksel
2026.06.11,03:49:43,38.3632,37.4580,9.7,,1.5,,YALINTAS-ELBISTAN (KAHRAMANMARAS) İlksel
2026.06.11,04:22:35,38.0238,37.6218,16.4,,1.7,,GOVDELI-DOGANSEHIR (MALATYA) İlksel
2026.06.11,05:20:37,38.1550,38.2155,17.4,,1.0,,CAMPINAR-CELIKHAN (ADIYAMAN) İlksel
2026.06.11,05:58:00,38.2930,37.2677,5.0,,2.4,,KUCUKYAPALAK-ELBISTAN (KAHRAMANMARAS) İlksel
2026.06.11,06:15:29,38.2688,37.2548,9.3,,1.7,,ELDELEK-ELBISTAN (KAHRAMANMARAS) İlksel
2026.06.11,06:48:24,39.2045,40.1742,6.8,,2.7,,GUNESLIK-YAYLADERE (BINGOL) İlksel
2026.06.11,07:08:27,38.3540,38.7597,14.7,,1.7,,CANAKCI-KALE (MALATYA) İlksel
2026.06.11,07:14:07,37.0130,28.4423,11.9,,1.9,,YESILCAM-ULA (MUGLA) İlksel
2026.06.11,08:13:51,38.3108,38.5982,11.5,,1.8,,PELITLI-(MALATYA) İlksel
2026.06.11,08:43:33,38.6908,36.4523,23.3,,1.5,,BUYUKGUMUSGUN-PINARBASI (KAYSERI) İlksel
2026.06.11,08:57:31,39.5102,45.0018,5.4,,3.2,3.3,TURKIYE-IRAN SINIR BOLGESI İlksel
2026.06.11,08:58:13,38.7622,23.4415,12.7,,3.2,3.3,YUNANISTAN İlksel
2026.06.11,09:07:27,39.1923,38.9787,7.8,,1.8,,GOZLUCAYIR-CEMISGEZEK (TUNCELI) İlksel
2026.06.11,09:55:46,39.1585,27.3412,10.8,,2.6,,ZAGNOS-BERGAMA (IZMIR) İlksel
2026.06.11,10:12:31,37.6443,36.4833,9.2,,1.9,,EMIRLER-ANDIRIN (KAHRAMANMARAS) İlksel
2026.06.11,10:28:03,36.1348,36.0800,23.7,,1.2,,KARACAY-SAMANDAG (HATAY) İlksel
2026.06.11,10:29:59,39.2468,28.9787,2.9,,1.9,,YEMISLI-SIMAV (KUTAHYA) İlksel
2026.06.11,10:56:55,39.2060,28.9642,4.9,,1.9,,HAMZABEY-SIMAV (KUTAHYA) İlksel
2026.06.11,11:11:44,36.6668,25.6183,6.8,,2.5,,EGE DENIZI İlksel
2026.06.11,11:42:10,40.1403,33.0035,0.0,,1.7,,AKYURT (ANKARA) İlksel
2026.06.11,12:13:00,38.4710,37.3288,9.3,,1.3,,YENIKOY-DARENDE (MALATYA) İlksel
2026.06.11,13:09:59,38.5483,40.6370,3.2,,2.1,,SAYDAMLI-LICE (DIYARBAKIR) İlksel
2026.06.11,13:11:06,37.2035,26.8407,5.0,,1.4,,ONIKI ADALAR (EGE DENIZI) İlksel
2026.06.11,13:18:30,39.4222,26.2083,6.6,,2.0,,MIDILLI ADASI (EGE DENIZI) İlksel
2026.06.11,13:21:37,39.0362,27.5430,5.2,,2.3,,YAYLAKOY-KINIK (IZMIR) İlksel
2026.06.11,13:36:24,36.4177,28.7653,9.7,,1.8,,AKDENIZ İlksel
2026.06.11,14:10:42,38.1017,38.3990,5.0,,2.4,,KARAGOL-CELIKHAN (ADIYAMAN) İlksel
2026.06.11,14:11:55,39.2067,25.0605,6.1,,1.9,,EGE DENIZI İlksel
2026.06.11,14:51:30,39.0117,38.0450,3.3,,1.5,,DIKILI-HEKIMHAN (MALATYA) İlksel
2026.06.11,16:23:01,40.7718,27.3383,8.6,,2.0,,GAZIKOY-SARKOY (TEKIRDAG) İlksel
2026.06.11,17:55:47,40.9738,39.5967,15.3,,2.3,,DEMIRTAS-AKCAABAT (TRABZON) İlksel
2026.06.11,18:04:38,39.3410,28.2633,5.0,,1.4,,TASKOY-SINDIRGI (BALIKESIR) İlksel
2026.06.11,18:09:53,34.7960,24.8345,18.1,,2.3,,GIRIT ADASI ACIKLARI (AKDENIZ) İlksel
2026.06.11,18:46:00,37.7085,27.0250,7.3,,1.7,,SISAM ADASI (EGE DENIZI) İlksel
2026.06.11,20:06:17,38.8183,26.4897,9.8,,2.4,,EGE DENIZI İlksel
2026.06.11,20:07:35,36.7457,26.3693,16.8,,2.1,,EGE DENIZI İlksel
2026.06.11,20:40:06,36.0395,28.0980,2.9,,2.4,,AKDENIZ İlksel
2026.06.11,21:21:34,38.8223,27.2010,10.4,,1.6,,KISLAKOY-(MANISA) İlksel
2026.06.11,21:34:51,39.9013,40.0058,10.3,,2.0,,BOLUKOVA-CAYIRLI (ERZINCAN) İlksel
2026.06.11,21:37:15,39.8685,39.9582,47.6,,1.3,,YESILYAKA-CAYIRLI (ERZINCAN) İlksel
2026.06.11,22:10:38,35.9058,28.0193,17.1,,2.7,,AKDENIZ İlksel
2026.06.11,22:30:12,34.6473,25.2362,17.5,,4.1,4.2,GIRIT ADASI ACIKLARI (AKDENIZ) İlksel
2026.06.11,23:00:45,39.0283,27.7667,5.4,,1.9,,SELVILI-AKHISAR (MANISA) İlksel
2026.06.11,23:58:31,37.9137,28.7808,6.6,,2.5,,TEKKEKOY-SARAYKOY (DENIZLI) İlksel
2026.06.12,00:00:29,37.9150,28.7662,6.7,,2.1,,TEKKEKOY-SARAYKOY (DENIZLI) İlksel
2026.06.12,00:14:02,39.3693,25.8620,12.5,,1.5,,BADEMLI ACIKLARI-CANAKKALE (EGE DENIZI) İlksel
2026.06.12,00:50:16,36.6140,36.2515,6.6,,1.2,,ORHANGAZI-ISKENDERUN (HATAY) İlksel
2026.06.12,00:57:39,39.2305,28.9860,9.3,,1.7,,YEMISLI-SIMAV (KUTAHYA) İlksel
2026.06.12,01:26:40,37.9827,40.6813,5.0,,1.3,,AKCAY-BISMIL (DIYARBAKIR) İlksel
2026.06.12,01:34:31,39.1908,28.2027,8.5,,2.4,,YAYLACIK-SINDIRGI (BALIKESIR) İlksel
2026.06.12,01:38:55,38.6838,27.3927,10.1,,2.8,,EVRENOS-(MANISA) İlksel
2026.06.12,01:43:49,39.3815,25.8635,8.6,,1.7,,BADEMLI ACIKLARI-CANAKKALE (EGE DENIZI) İlksel
2026.06.12,01:54:02,38.6538,37.3598,5.0,,1.8,,TEPECIK-GURUN (SIVAS) İlksel
2026.06.12,02:04:53,37.8913,36.5358,9.0,,1.2,,KUMARLI-(KAHRAMANMARAS) İlksel
2026.06.12,02:24:19,37.5215,37.1802,5.0,,1.4,,SOGUTLU-PAZARCIK (KAHRAMANMARAS) İlksel
2026.06.12,02:47:19,39.4993,26.2998,11.3,,1.3,,BEHRAM-AYVACIK (CANAKKALE) İlksel
2026.06.12,03:38:47,36.0633,30.2657,6.9,,1.8,,FINIKE ACIKLARI-ANTALYA (AKDENIZ) İlksel
2026.06.12,04:28:07,38.7835,23.3078,5.6,,3.2,3.2,YUNANISTAN İlksel
2026.06.12,04:30:38,40.1038,40.6773,6.0,,2.4,,CAVDARLI-AZIZIYE (ERZURUM) İlksel
2026.06.12,04:42:59,39.1177,28.2867,12.8,,1.1,,YUREGIL-SINDIRGI (BALIKESIR) İlksel
2026.06.12,04:46:34,38.5803,30.7900,7.2,,3.1,3.3,KIZILDAG-(AFYONKARAHISAR) İlksel
2026.06.12,04:47:57,38.5387,30.8583,12.2,,1.6,,AKKONAK-CAY (AFYONKARAHISAR) İlksel
2026.06.12,04:53:18,38.7458,39.7472,13.5,,1.7,,CELEBI-KOVANCILAR (ELAZIG) İlksel
2026.06.12,04:56:55,36.0130,24.0953,14.1,,3.1,2.9,GIRIT ADASI (AKDENIZ) İlksel
2026.06.12,05:03:50,40.8032,31.5982,2.1,,1.6,,KOZLU-(BOLU) İlksel
2026.06.12,05:07:29,38.7642,36.5317,6.8,,2.5,,YUKARIBURANDERE-PINARBASI (KAYSERI) İlksel
2026.06.12,06:43:49,38.7503,36.5472,1.4,,2.0,,YUKARIBURANDERE-PINARBASI (KAYSERI) İlksel
2026.06.12,07:01:59,38.1140,38.3823,2.3,,2.1,,SALKONAK-YESILYURT (MALATYA) İlksel
2026.06.12,07:08:05,39.6662,32.5260,4.2,,1.7,,DEVECI-HAYMANA (ANKARA) İlksel
2026.06.12,07:12:28,38.5670,30.7767,4.2,,1.3,,KIZILDAG-(AFYONKARAHISAR) İlksel
2026.06.12,07:26:06,39.2495,29.0297,9.6,,1.9,,KATRANDAGI-EMET (KUTAHYA) İlksel
2026.06.12,08:36:05,39.2370,29.0773,2.2,,1.4,,KATRANDAGI-EMET (KUTAHYA) İlksel
2026.06.12,08:40:52,39.2068,29.0817,2.1,,1.0,,TOKAT-HISARCIK (KUTAHYA) İlksel
2026.06.12,09:03:57,36.9357,29.0087,4.9,,2.6,,GURLEYIK-DALAMAN (MUGLA) İlksel
2026.06.12,09:07:14,38.3102,38.5713,5.0,,2.7,,HISARTEPE-(MALATYA) İlksel
2026.06.12,09:57:58,39.5113,26.1253,6.4,,1.5,,KOCAKOY-AYVACIK (CANAKKALE) İlksel
2026.06.12,10:33:44,39.1753,28.9942,12.1,,2.1,,EGIRLER-SIMAV (KUTAHYA) İlksel
2026.06.12,10:43:42,39.4408,44.4165,12.9,,1.8,,SARICAVUS-DOGUBAYAZIT (AGRI) İlksel
2026.06.12,10:50:40,39.2117,29.0923,8.1,,1.0,,KARAAGIL-HISARCIK (KUTAHYA) İlksel
2026.06.12,11:03:01,36.2818,36.1832,5.6,,1.6,,ALAZI-(HATAY) İlksel
2026.06.12,11:08:34,38.7820,36.5435,5.4,,1.7,,YUKARIBURANDERE-PINARBASI (KAYSERI) İlksel
2026.06.12,11:30:55,36.8775,27.5312,7.4,,1.5,,GOKOVA KORFEZI (EGE DENIZI) İlksel
